[
   {
      "name": "Angul",
      "countryCode": "IN",
      "stateCode": "OR",
      "latitude": "20.84089000",
      "longitude": "85.10192000"
   },
   {
      "name": "Angul District",
      "countryCode": "IN",
      "stateCode": "OR",
      "latitude": "20.84903000",
      "longitude": "85.06079000"
   },
   {
      "name": "Asika",
      "countryCode": "IN",
      "stateCode": "OR",
      "latitude": "19.61114000",
      "longitude": "84.65998000"
   },
   {
      "name": "Athagarh",
      "countryCode": "IN",
      "stateCode": "OR",
      "latitude": "20.51999000",
      "longitude": "85.62965000"
   },
   {
      "name": "Bada Barabil",
      "countryCode": "IN",
      "stateCode": "OR",
      "latitude": "22.11186000",
      "longitude": "85.38684000"
   },
   {
      "name": "Balangir",
      "countryCode": "IN",
      "stateCode": "OR",
      "latitude": "20.75000000",
      "longitude": "83.25000000"
   },
   {
      "name": "Balasore",
      "countryCode": "IN",
      "stateCode": "OR",
      "latitude": "21.49266000",
      "longitude": "86.93348000"
   },
   {
      "name": "Baleshwar",
      "countryCode": "IN",
      "stateCode": "OR",
      "latitude": "21.50000000",
      "longitude": "86.75000000"
   },
   {
      "name": "Balimila",
      "countryCode": "IN",
      "stateCode": "OR",
      "latitude": "18.25167000",
      "longitude": "82.10659000"
   },
   {
      "name": "Balugaon",
      "countryCode": "IN",
      "stateCode": "OR",
      "latitude": "20.17838000",
      "longitude": "85.11327000"
   },
   {
      "name": "Banapur",
      "countryCode": "IN",
      "stateCode": "OR",
      "latitude": "19.77889000",
      "longitude": "85.17033000"
   },
   {
      "name": "Banki",
      "countryCode": "IN",
      "stateCode": "OR",
      "latitude": "20.37912000",
      "longitude": "85.52953000"
   },
   {
      "name": "Banposh",
      "countryCode": "IN",
      "stateCode": "OR",
      "latitude": "22.24834000",
      "longitude": "84.81044000"
   },
   {
      "name": "Baragarh",
      "countryCode": "IN",
      "stateCode": "OR",
      "latitude": "21.33333000",
      "longitude": "83.61667000"
   },
   {
      "name": "Barbil",
      "countryCode": "IN",
      "stateCode": "OR",
      "latitude": "22.10194000",
      "longitude": "85.37752000"
   },
   {
      "name": "Bargarh",
      "countryCode": "IN",
      "stateCode": "OR",
      "latitude": "21.33348000",
      "longitude": "83.61905000"
   },
   {
      "name": "Barpali",
      "countryCode": "IN",
      "stateCode": "OR",
      "latitude": "21.19005000",
      "longitude": "83.58721000"
   },
   {
      "name": "Basudebpur",
      "countryCode": "IN",
      "stateCode": "OR",
      "latitude": "21.11974000",
      "longitude": "86.72896000"
   },
   {
      "name": "Baud",
      "countryCode": "IN",
      "stateCode": "OR",
      "latitude": "20.83773000",
      "longitude": "84.32618000"
   },
   {
      "name": "Baudh",
      "countryCode": "IN",
      "stateCode": "OR",
      "latitude": "20.83300000",
      "longitude": "84.33300000"
   },
   {
      "name": "Belaguntha",
      "countryCode": "IN",
      "stateCode": "OR",
      "latitude": "19.88249000",
      "longitude": "84.63801000"
   },
   {
      "name": "Bhadrak",
      "countryCode": "IN",
      "stateCode": "OR",
      "latitude": "21.00000000",
      "longitude": "86.60000000"
   },
   {
      "name": "Bhadrakh",
      "countryCode": "IN",
      "stateCode": "OR",
      "latitude": "21.05447000",
      "longitude": "86.51560000"
   },
   {
      "name": "Bhanjanagar",
      "countryCode": "IN",
      "stateCode": "OR",
      "latitude": "19.92719000",
      "longitude": "84.58201000"
   },
   {
      "name": "Bhawanipatna",
      "countryCode": "IN",
      "stateCode": "OR",
      "latitude": "19.90717000",
      "longitude": "83.16697000"
   },
   {
      "name": "Bhuban",
      "countryCode": "IN",
      "stateCode": "OR",
      "latitude": "20.88197000",
      "longitude": "85.83334000"
   },
   {
      "name": "Bhubaneshwar",
      "countryCode": "IN",
      "stateCode": "OR",
      "latitude": "20.27241000",
      "longitude": "85.83385000"
   },
   {
      "name": "Binka",
      "countryCode": "IN",
      "stateCode": "OR",
      "latitude": "21.02626000",
      "longitude": "83.81197000"
   },
   {
      "name": "Birmitrapur",
      "countryCode": "IN",
      "stateCode": "OR",
      "latitude": "22.40000000",
      "longitude": "84.76667000"
   },
   {
      "name": "Bolanikhodan",
      "countryCode": "IN",
      "stateCode": "OR",
      "latitude": "22.11312000",
      "longitude": "85.33645000"
   },
   {
      "name": "Brahmapur",
      "countryCode": "IN",
      "stateCode": "OR",
      "latitude": "19.31151000",
      "longitude": "84.79290000"
   },
   {
      "name": "Brajarajnagar",
      "countryCode": "IN",
      "stateCode": "OR",
      "latitude": "21.81667000",
      "longitude": "83.91667000"
   },
   {
      "name": "Buguda",
      "countryCode": "IN",
      "stateCode": "OR",
      "latitude": "19.80806000",
      "longitude": "84.79084000"
   },
   {
      "name": "Burla",
      "countryCode": "IN",
      "stateCode": "OR",
      "latitude": "21.50976000",
      "longitude": "83.87259000"
   },
   {
      "name": "Champua",
      "countryCode": "IN",
      "stateCode": "OR",
      "latitude": "22.06734000",
      "longitude": "85.66463000"
   },
   {
      "name": "Chandbali",
      "countryCode": "IN",
      "stateCode": "OR",
      "latitude": "20.77519000",
      "longitude": "86.74139000"
   },
   {
      "name": "Chatrapur",
      "countryCode": "IN",
      "stateCode": "OR",
      "latitude": "19.35574000",
      "longitude": "84.98359000"
   },
   {
      "name": "Chikitigarh",
      "countryCode": "IN",
      "stateCode": "OR",
      "latitude": "19.20233000",
      "longitude": "84.61450000"
   },
   {
      "name": "Chittarkonda",
      "countryCode": "IN",
      "stateCode": "OR",
      "latitude": "18.12533000",
      "longitude": "82.10890000"
   },
   {
      "name": "Cuttack",
      "countryCode": "IN",
      "stateCode": "OR",
      "latitude": "20.50000000",
      "longitude": "86.25000000"
   },
   {
      "name": "Daitari",
      "countryCode": "IN",
      "stateCode": "OR",
      "latitude": "21.10000000",
      "longitude": "85.75000000"
   },
   {
      "name": "Deogarh",
      "countryCode": "IN",
      "stateCode": "OR",
      "latitude": "21.53827000",
      "longitude": "84.73337000"
   },
   {
      "name": "Dhenkanal",
      "countryCode": "IN",
      "stateCode": "OR",
      "latitude": "20.75000000",
      "longitude": "85.50000000"
   },
   {
      "name": "Digapahandi",
      "countryCode": "IN",
      "stateCode": "OR",
      "latitude": "19.37275000",
      "longitude": "84.57184000"
   },
   {
      "name": "Gajapati",
      "countryCode": "IN",
      "stateCode": "OR",
      "latitude": "18.91000000",
      "longitude": "84.20000000"
   },
   {
      "name": "Ganjam",
      "countryCode": "IN",
      "stateCode": "OR",
      "latitude": "19.38705000",
      "longitude": "85.05079000"
   },
   {
      "name": "Gopalpur",
      "countryCode": "IN",
      "stateCode": "OR",
      "latitude": "19.25861000",
      "longitude": "84.90517000"
   },
   {
      "name": "Gudari",
      "countryCode": "IN",
      "stateCode": "OR",
      "latitude": "19.34762000",
      "longitude": "83.78128000"
   },
   {
      "name": "Gunupur",
      "countryCode": "IN",
      "stateCode": "OR",
      "latitude": "19.08040000",
      "longitude": "83.80879000"
   },
   {
      "name": "Hinjilikatu",
      "countryCode": "IN",
      "stateCode": "OR",
      "latitude": "19.48166000",
      "longitude": "84.74489000"
   },
   {
      "name": "Hirakud",
      "countryCode": "IN",
      "stateCode": "OR",
      "latitude": "21.52502000",
      "longitude": "83.87275000"
   },
   {
      "name": "Jagatsinghapur",
      "countryCode": "IN",
      "stateCode": "OR",
      "latitude": "20.25570000",
      "longitude": "86.17112000"
   },
   {
      "name": "Jagatsinghpur",
      "countryCode": "IN",
      "stateCode": "OR",
      "latitude": "20.20000000",
      "longitude": "86.30000000"
   },
   {
      "name": "Jajpur",
      "countryCode": "IN",
      "stateCode": "OR",
      "latitude": "20.84149000",
      "longitude": "86.31237000"
   },
   {
      "name": "Jaleshwar",
      "countryCode": "IN",
      "stateCode": "OR",
      "latitude": "21.80176000",
      "longitude": "87.22250000"
   },
   {
      "name": "Jatani",
      "countryCode": "IN",
      "stateCode": "OR",
      "latitude": "20.15975000",
      "longitude": "85.70742000"
   },
   {
      "name": "Jeypore",
      "countryCode": "IN",
      "stateCode": "OR",
      "latitude": "18.85630000",
      "longitude": "82.57160000"
   },
   {
      "name": "Jharsuguda",
      "countryCode": "IN",
      "stateCode": "OR",
      "latitude": "21.85531000",
      "longitude": "84.00698000"
   },
   {
      "name": "Jharsuguda District",
      "countryCode": "IN",
      "stateCode": "OR",
      "latitude": "21.85000000",
      "longitude": "84.00000000"
   },
   {
      "name": "Kaintragarh",
      "countryCode": "IN",
      "stateCode": "OR",
      "latitude": "20.72115000",
      "longitude": "84.53514000"
   },
   {
      "name": "Kalahandi",
      "countryCode": "IN",
      "stateCode": "OR",
      "latitude": "19.75000000",
      "longitude": "83.00000000"
   },
   {
      "name": "Kamakhyanagar",
      "countryCode": "IN",
      "stateCode": "OR",
      "latitude": "20.93385000",
      "longitude": "85.54489000"
   },
   {
      "name": "Kandhamal",
      "countryCode": "IN",
      "stateCode": "OR",
      "latitude": "20.30000000",
      "longitude": "84.00000000"
   },
   {
      "name": "Kantabanji",
      "countryCode": "IN",
      "stateCode": "OR",
      "latitude": "20.46709000",
      "longitude": "82.92042000"
   },
   {
      "name": "Kantilo",
      "countryCode": "IN",
      "stateCode": "OR",
      "latitude": "20.36152000",
      "longitude": "85.19212000"
   },
   {
      "name": "Kendrapara",
      "countryCode": "IN",
      "stateCode": "OR",
      "latitude": "20.50000000",
      "longitude": "86.50000000"
   },
   {
      "name": "Kendraparha",
      "countryCode": "IN",
      "stateCode": "OR",
      "latitude": "20.50166000",
      "longitude": "86.42227000"
   },
   {
      "name": "Kendujhar",
      "countryCode": "IN",
      "stateCode": "OR",
      "latitude": "21.50000000",
      "longitude": "85.50000000"
   },
   {
      "name": "Kesinga",
      "countryCode": "IN",
      "stateCode": "OR",
      "latitude": "20.18778000",
      "longitude": "83.21949000"
   },
   {
      "name": "Khallikot",
      "countryCode": "IN",
      "stateCode": "OR",
      "latitude": "19.60908000",
      "longitude": "85.08609000"
   },
   {
      "name": "Kharhial",
      "countryCode": "IN",
      "stateCode": "OR",
      "latitude": "20.28845000",
      "longitude": "82.76060000"
   },
   {
      "name": "Khordha",
      "countryCode": "IN",
      "stateCode": "OR",
      "latitude": "20.20000000",
      "longitude": "85.60000000"
   },
   {
      "name": "Khurda",
      "countryCode": "IN",
      "stateCode": "OR",
      "latitude": "20.18268000",
      "longitude": "85.61629000"
   },
   {
      "name": "Kiri Buru",
      "countryCode": "IN",
      "stateCode": "OR",
      "latitude": "22.08333000",
      "longitude": "85.35000000"
   },
   {
      "name": "Kodala",
      "countryCode": "IN",
      "stateCode": "OR",
      "latitude": "19.62425000",
      "longitude": "84.94075000"
   },
   {
      "name": "Konarka",
      "countryCode": "IN",
      "stateCode": "OR",
      "latitude": "19.89758000",
      "longitude": "86.11413000"
   },
   {
      "name": "Koraput",
      "countryCode": "IN",
      "stateCode": "OR",
      "latitude": "19.00000000",
      "longitude": "83.00000000"
   },
   {
      "name": "Kuchaiburi",
      "countryCode": "IN",
      "stateCode": "OR",
      "latitude": "22.26675000",
      "longitude": "86.17385000"
   },
   {
      "name": "Kuchinda",
      "countryCode": "IN",
      "stateCode": "OR",
      "latitude": "21.74356000",
      "longitude": "84.34848000"
   },
   {
      "name": "Malakanagiri",
      "countryCode": "IN",
      "stateCode": "OR",
      "latitude": "18.36428000",
      "longitude": "81.88800000"
   },
   {
      "name": "Malkangiri",
      "countryCode": "IN",
      "stateCode": "OR",
      "latitude": "18.25000000",
      "longitude": "81.95000000"
   },
   {
      "name": "Mayurbhanj",
      "countryCode": "IN",
      "stateCode": "OR",
      "latitude": "21.75000000",
      "longitude": "86.50000000"
   },
   {
      "name": "Nabarangpur",
      "countryCode": "IN",
      "stateCode": "OR",
      "latitude": "19.23330000",
      "longitude": "82.55000000"
   },
   {
      "name": "Nayagarh",
      "countryCode": "IN",
      "stateCode": "OR",
      "latitude": "20.12882000",
      "longitude": "85.09626000"
   },
   {
      "name": "Nayagarh District",
      "countryCode": "IN",
      "stateCode": "OR",
      "latitude": "20.13000000",
      "longitude": "85.10000000"
   },
   {
      "name": "Nilgiri",
      "countryCode": "IN",
      "stateCode": "OR",
      "latitude": "21.46235000",
      "longitude": "86.76794000"
   },
   {
      "name": "Nimaparha",
      "countryCode": "IN",
      "stateCode": "OR",
      "latitude": "20.05756000",
      "longitude": "86.00436000"
   },
   {
      "name": "Nowrangapur",
      "countryCode": "IN",
      "stateCode": "OR",
      "latitude": "19.23114000",
      "longitude": "82.54826000"
   },
   {
      "name": "Nuapada",
      "countryCode": "IN",
      "stateCode": "OR",
      "latitude": "20.60000000",
      "longitude": "82.50000000"
   },
   {
      "name": "Padampur",
      "countryCode": "IN",
      "stateCode": "OR",
      "latitude": "20.99932000",
      "longitude": "83.06325000"
   },
   {
      "name": "Paradip Garh",
      "countryCode": "IN",
      "stateCode": "OR",
      "latitude": "20.31641000",
      "longitude": "86.60850000"
   },
   {
      "name": "Patamundai",
      "countryCode": "IN",
      "stateCode": "OR",
      "latitude": "20.57806000",
      "longitude": "86.56063000"
   },
   {
      "name": "Patnagarh",
      "countryCode": "IN",
      "stateCode": "OR",
      "latitude": "20.70833000",
      "longitude": "83.13263000"
   },
   {
      "name": "Phulbani",
      "countryCode": "IN",
      "stateCode": "OR",
      "latitude": "20.48101000",
      "longitude": "84.23063000"
   },
   {
      "name": "Pipili",
      "countryCode": "IN",
      "stateCode": "OR",
      "latitude": "20.11357000",
      "longitude": "85.83147000"
   },
   {
      "name": "Polasara",
      "countryCode": "IN",
      "stateCode": "OR",
      "latitude": "19.69386000",
      "longitude": "84.81401000"
   },
   {
      "name": "Puri",
      "countryCode": "IN",
      "stateCode": "OR",
      "latitude": "19.90000000",
      "longitude": "85.60000000"
   },
   {
      "name": "Purushottampur",
      "countryCode": "IN",
      "stateCode": "OR",
      "latitude": "19.52024000",
      "longitude": "84.88514000"
   },
   {
      "name": "Rambha",
      "countryCode": "IN",
      "stateCode": "OR",
      "latitude": "19.51667000",
      "longitude": "85.10000000"
   },
   {
      "name": "Raurkela",
      "countryCode": "IN",
      "stateCode": "OR",
      "latitude": "22.22496000",
      "longitude": "84.86414000"
   },
   {
      "name": "Rayagada",
      "countryCode": "IN",
      "stateCode": "OR",
      "latitude": "19.40000000",
      "longitude": "83.50000000"
   },
   {
      "name": "Remuna",
      "countryCode": "IN",
      "stateCode": "OR",
      "latitude": "21.52798000",
      "longitude": "86.87156000"
   },
   {
      "name": "Rengali",
      "countryCode": "IN",
      "stateCode": "OR",
      "latitude": "21.64602000",
      "longitude": "84.05311000"
   },
   {
      "name": "Sambalpur",
      "countryCode": "IN",
      "stateCode": "OR",
      "latitude": "21.40000000",
      "longitude": "83.88333000"
   },
   {
      "name": "Sonepur",
      "countryCode": "IN",
      "stateCode": "OR",
      "latitude": "20.83333000",
      "longitude": "83.91667000"
   },
   {
      "name": "Sorada",
      "countryCode": "IN",
      "stateCode": "OR",
      "latitude": "19.76082000",
      "longitude": "84.42997000"
   },
   {
      "name": "Soro",
      "countryCode": "IN",
      "stateCode": "OR",
      "latitude": "21.27851000",
      "longitude": "86.68833000"
   },
   {
      "name": "Subarnapur",
      "countryCode": "IN",
      "stateCode": "OR",
      "latitude": "20.93154000",
      "longitude": "83.82486000"
   },
   {
      "name": "Sundargarh",
      "countryCode": "IN",
      "stateCode": "OR",
      "latitude": "22.25000000",
      "longitude": "84.50000000"
   },
   {
      "name": "Talcher",
      "countryCode": "IN",
      "stateCode": "OR",
      "latitude": "20.94927000",
      "longitude": "85.23354000"
   },
   {
      "name": "Tarabha",
      "countryCode": "IN",
      "stateCode": "OR",
      "latitude": "20.73252000",
      "longitude": "83.67443000"
   },
   {
      "name": "Titlagarh",
      "countryCode": "IN",
      "stateCode": "OR",
      "latitude": "20.28961000",
      "longitude": "83.15233000"
   },
   {
      "name": "Udayagiri",
      "countryCode": "IN",
      "stateCode": "OR",
      "latitude": "20.12416000",
      "longitude": "84.36869000"
   }
]