[
   {
      "name": "Ab Meshkin",
      "countryCode": "IR",
      "stateCode": "13",
      "latitude": "35.61305556",
      "longitude": "48.26916667"
   },
   {
      "name": "Abarlaq-e Sofla",
      "countryCode": "IR",
      "stateCode": "13",
      "latitude": "34.67138889",
      "longitude": "48.22833333"
   },
   {
      "name": "Abdalan",
      "countryCode": "IR",
      "stateCode": "13",
      "latitude": "34.65277778",
      "longitude": "48.24555556"
   },
   {
      "name": "Abdol Rahim",
      "countryCode": "IR",
      "stateCode": "13",
      "latitude": "34.62638889",
      "longitude": "49.01750000"
   },
   {
      "name": "Abrumand",
      "countryCode": "IR",
      "stateCode": "13",
      "latitude": "34.90277778",
      "longitude": "48.32027778"
   },
   {
      "name": "Abshineh",
      "countryCode": "IR",
      "stateCode": "13",
      "latitude": "34.78194400",
      "longitude": "48.61472200"
   },
   {
      "name": "Abu ol Fathabad",
      "countryCode": "IR",
      "stateCode": "13",
      "latitude": "34.05666667",
      "longitude": "48.50916667"
   },
   {
      "name": "Aghcheh Qayah",
      "countryCode": "IR",
      "stateCode": "13",
      "latitude": "35.35000000",
      "longitude": "48.34250000"
   },
   {
      "name": "Ahmadabad-e Tappeh",
      "countryCode": "IR",
      "stateCode": "13",
      "latitude": "34.61277778",
      "longitude": "48.99277778"
   },
   {
      "name": "Ahu Tappeh",
      "countryCode": "IR",
      "stateCode": "13",
      "latitude": "34.93777778",
      "longitude": "48.00111111"
   },
   {
      "name": "Ajin",
      "countryCode": "IR",
      "stateCode": "13",
      "latitude": "34.73611111",
      "longitude": "47.92416667"
   },
   {
      "name": "Ajorlu",
      "countryCode": "IR",
      "stateCode": "13",
      "latitude": "35.13833333",
      "longitude": "49.22944444"
   },
   {
      "name": "Akanlu",
      "countryCode": "IR",
      "stateCode": "13",
      "latitude": "35.61416667",
      "longitude": "48.18805556"
   },
   {
      "name": "Akleh",
      "countryCode": "IR",
      "stateCode": "13",
      "latitude": "35.20277778",
      "longitude": "49.08250000"
   },
   {
      "name": "Alan-e Sofla",
      "countryCode": "IR",
      "stateCode": "13",
      "latitude": "35.28416667",
      "longitude": "48.21583333"
   },
   {
      "name": "Alanjeh",
      "countryCode": "IR",
      "stateCode": "13",
      "latitude": "34.75083333",
      "longitude": "47.95972222"
   },
   {
      "name": "Alfavut",
      "countryCode": "IR",
      "stateCode": "13",
      "latitude": "34.64000000",
      "longitude": "48.74972222"
   },
   {
      "name": "Aliabad-e Posht Shahr",
      "countryCode": "IR",
      "stateCode": "13",
      "latitude": "34.83777778",
      "longitude": "48.51111111"
   },
   {
      "name": "Amirabad-e Kord",
      "countryCode": "IR",
      "stateCode": "13",
      "latitude": "34.97611111",
      "longitude": "49.09166667"
   },
   {
      "name": "Amzajerd",
      "countryCode": "IR",
      "stateCode": "13",
      "latitude": "34.93666667",
      "longitude": "48.53250000"
   },
   {
      "name": "Angoshteh",
      "countryCode": "IR",
      "stateCode": "13",
      "latitude": "34.09138900",
      "longitude": "48.54000000"
   },
   {
      "name": "Anjir Baghi",
      "countryCode": "IR",
      "stateCode": "13",
      "latitude": "35.19250000",
      "longitude": "48.53166667"
   },
   {
      "name": "Ansar ol Emam",
      "countryCode": "IR",
      "stateCode": "13",
      "latitude": "34.85861111",
      "longitude": "48.49083333"
   },
   {
      "name": "Anuch",
      "countryCode": "IR",
      "stateCode": "13",
      "latitude": "34.10805600",
      "longitude": "48.57333300"
   },
   {
      "name": "Aq Bolagh-e Aqdaq",
      "countryCode": "IR",
      "stateCode": "13",
      "latitude": "35.61166667",
      "longitude": "48.44138889"
   },
   {
      "name": "Aq Bolagh-e Latgah",
      "countryCode": "IR",
      "stateCode": "13",
      "latitude": "34.98444400",
      "longitude": "48.55527800"
   },
   {
      "name": "Aq Bolagh-e Morshed",
      "countryCode": "IR",
      "stateCode": "13",
      "latitude": "35.61777778",
      "longitude": "48.02972222"
   },
   {
      "name": "Aq Chay",
      "countryCode": "IR",
      "stateCode": "13",
      "latitude": "35.47916667",
      "longitude": "49.10388889"
   },
   {
      "name": "Aqa Bolaghi",
      "countryCode": "IR",
      "stateCode": "13",
      "latitude": "35.36694444",
      "longitude": "48.24361111"
   },
   {
      "name": "Aqa Jan Bolaghi",
      "countryCode": "IR",
      "stateCode": "13",
      "latitude": "34.84583333",
      "longitude": "48.05305556"
   },
   {
      "name": "Aqaj",
      "countryCode": "IR",
      "stateCode": "13",
      "latitude": "34.95583333",
      "longitude": "49.32416667"
   },
   {
      "name": "Aqcheh Kharabeh",
      "countryCode": "IR",
      "stateCode": "13",
      "latitude": "35.71361111",
      "longitude": "48.77638889"
   },
   {
      "name": "Aqchelu",
      "countryCode": "IR",
      "stateCode": "13",
      "latitude": "35.13138889",
      "longitude": "48.49166667"
   },
   {
      "name": "Arges-e Sofla",
      "countryCode": "IR",
      "stateCode": "13",
      "latitude": "34.07388889",
      "longitude": "48.86388889"
   },
   {
      "name": "Arikan",
      "countryCode": "IR",
      "stateCode": "13",
      "latitude": "34.53222222",
      "longitude": "48.36055556"
   },
   {
      "name": "Arpa Darreh",
      "countryCode": "IR",
      "stateCode": "13",
      "latitude": "35.69138889",
      "longitude": "48.80500000"
   },
   {
      "name": "Arteh Bolagh",
      "countryCode": "IR",
      "stateCode": "13",
      "latitude": "34.32638889",
      "longitude": "48.54916667"
   },
   {
      "name": "Artiman",
      "countryCode": "IR",
      "stateCode": "13",
      "latitude": "34.57944400",
      "longitude": "48.44777800"
   },
   {
      "name": "Arzan Fud",
      "countryCode": "IR",
      "stateCode": "13",
      "latitude": "34.65527778",
      "longitude": "48.65416667"
   },
   {
      "name": "Arzuvaj",
      "countryCode": "IR",
      "stateCode": "13",
      "latitude": "34.65444444",
      "longitude": "48.37305556"
   },
   {
      "name": "Asadabad",
      "countryCode": "IR",
      "stateCode": "13",
      "latitude": "34.78222222",
      "longitude": "48.11833333"
   },
   {
      "name": "Ashmizan",
      "countryCode": "IR",
      "stateCode": "13",
      "latitude": "34.10361111",
      "longitude": "48.88444444"
   },
   {
      "name": "Avarzaman",
      "countryCode": "IR",
      "stateCode": "13",
      "latitude": "34.26638889",
      "longitude": "48.51222222"
   },
   {
      "name": "Azandarian",
      "countryCode": "IR",
      "stateCode": "13",
      "latitude": "34.50888889",
      "longitude": "48.68666667"
   },
   {
      "name": "Aznahri",
      "countryCode": "IR",
      "stateCode": "13",
      "latitude": "34.23750000",
      "longitude": "48.14833333"
   },
   {
      "name": "Baba Khanjar",
      "countryCode": "IR",
      "stateCode": "13",
      "latitude": "35.55166667",
      "longitude": "48.54972222"
   },
   {
      "name": "Baba Pir",
      "countryCode": "IR",
      "stateCode": "13",
      "latitude": "34.61416667",
      "longitude": "48.40194444"
   },
   {
      "name": "Baba Qasem",
      "countryCode": "IR",
      "stateCode": "13",
      "latitude": "34.08000000",
      "longitude": "48.44805556"
   },
   {
      "name": "Babolqani",
      "countryCode": "IR",
      "stateCode": "13",
      "latitude": "34.24277778",
      "longitude": "49.05750000"
   },
   {
      "name": "Bad Khvoreh",
      "countryCode": "IR",
      "stateCode": "13",
      "latitude": "34.74305556",
      "longitude": "48.08027778"
   },
   {
      "name": "Bahar",
      "countryCode": "IR",
      "stateCode": "13",
      "latitude": "34.90694444",
      "longitude": "48.44138889"
   },
   {
      "name": "Band Aman",
      "countryCode": "IR",
      "stateCode": "13",
      "latitude": "34.22388889",
      "longitude": "48.22861111"
   },
   {
      "name": "Banesareh",
      "countryCode": "IR",
      "stateCode": "13",
      "latitude": "34.23750000",
      "longitude": "48.43333333"
   },
   {
      "name": "Baraband",
      "countryCode": "IR",
      "stateCode": "13",
      "latitude": "34.75194444",
      "longitude": "48.79861111"
   },
   {
      "name": "Bargecheh",
      "countryCode": "IR",
      "stateCode": "13",
      "latitude": "34.45138900",
      "longitude": "48.30111100"
   },
   {
      "name": "Barreh Farakh",
      "countryCode": "IR",
      "stateCode": "13",
      "latitude": "34.38555556",
      "longitude": "48.08638889"
   },
   {
      "name": "Barzul",
      "countryCode": "IR",
      "stateCode": "13",
      "latitude": "34.21277778",
      "longitude": "48.25888889"
   },
   {
      "name": "Bashqurtaran",
      "countryCode": "IR",
      "stateCode": "13",
      "latitude": "35.63722222",
      "longitude": "48.11694444"
   },
   {
      "name": "Bazeran",
      "countryCode": "IR",
      "stateCode": "13",
      "latitude": "35.15611111",
      "longitude": "49.42305556"
   },
   {
      "name": "Behkandan",
      "countryCode": "IR",
      "stateCode": "13",
      "latitude": "35.27222222",
      "longitude": "49.09888889"
   },
   {
      "name": "Belartu",
      "countryCode": "IR",
      "stateCode": "13",
      "latitude": "34.33555556",
      "longitude": "48.51583333"
   },
   {
      "name": "Beshik Tappeh",
      "countryCode": "IR",
      "stateCode": "13",
      "latitude": "35.53611111",
      "longitude": "48.41805556"
   },
   {
      "name": "Biaj",
      "countryCode": "IR",
      "stateCode": "13",
      "latitude": "34.81500000",
      "longitude": "48.09916667"
   },
   {
      "name": "Biatan-e Sofla",
      "countryCode": "IR",
      "stateCode": "13",
      "latitude": "34.02527778",
      "longitude": "48.95805556"
   },
   {
      "name": "Bid Korpeh-ye Sofla",
      "countryCode": "IR",
      "stateCode": "13",
      "latitude": "34.02111111",
      "longitude": "48.89166667"
   },
   {
      "name": "Bid Korpeh-ye Vosta",
      "countryCode": "IR",
      "stateCode": "13",
      "latitude": "34.01944444",
      "longitude": "48.88722222"
   },
   {
      "name": "Bifanaj",
      "countryCode": "IR",
      "stateCode": "13",
      "latitude": "34.61472222",
      "longitude": "48.01694444"
   },
   {
      "name": "Bighash",
      "countryCode": "IR",
      "stateCode": "13",
      "latitude": "34.09111111",
      "longitude": "49.06833333"
   },
   {
      "name": "Bish Aghaj",
      "countryCode": "IR",
      "stateCode": "13",
      "latitude": "34.46111111",
      "longitude": "48.78583333"
   },
   {
      "name": "Bitervan",
      "countryCode": "IR",
      "stateCode": "13",
      "latitude": "34.65444444",
      "longitude": "47.91055556"
   },
   {
      "name": "Borjaki",
      "countryCode": "IR",
      "stateCode": "13",
      "latitude": "34.32861111",
      "longitude": "48.03305556"
   },
   {
      "name": "Boyukabad",
      "countryCode": "IR",
      "stateCode": "13",
      "latitude": "35.05972222",
      "longitude": "48.84166667"
   },
   {
      "name": "Bozchalu",
      "countryCode": "IR",
      "stateCode": "13",
      "latitude": "35.16888889",
      "longitude": "49.22444444"
   },
   {
      "name": "Bozineh Jerd",
      "countryCode": "IR",
      "stateCode": "13",
      "latitude": "35.02472222",
      "longitude": "48.94388889"
   },
   {
      "name": "Bujin",
      "countryCode": "IR",
      "stateCode": "13",
      "latitude": "34.80722222",
      "longitude": "48.05916667"
   },
   {
      "name": "Bustandar",
      "countryCode": "IR",
      "stateCode": "13",
      "latitude": "34.44861111",
      "longitude": "48.41944444"
   },
   {
      "name": "Buyaqchi",
      "countryCode": "IR",
      "stateCode": "13",
      "latitude": "34.84750000",
      "longitude": "49.08916667"
   },
   {
      "name": "Chahar Bolagh",
      "countryCode": "IR",
      "stateCode": "13",
      "latitude": "35.58111111",
      "longitude": "48.65000000"
   },
   {
      "name": "Chal Boqa",
      "countryCode": "IR",
      "stateCode": "13",
      "latitude": "35.42055556",
      "longitude": "48.92750000"
   },
   {
      "name": "Chaleh Kand",
      "countryCode": "IR",
      "stateCode": "13",
      "latitude": "35.27500000",
      "longitude": "48.29944444"
   },
   {
      "name": "Charoq",
      "countryCode": "IR",
      "stateCode": "13",
      "latitude": "34.84416667",
      "longitude": "48.06611111"
   },
   {
      "name": "Chasht Khvoreh",
      "countryCode": "IR",
      "stateCode": "13",
      "latitude": "34.46444444",
      "longitude": "48.26694444"
   },
   {
      "name": "Chenari",
      "countryCode": "IR",
      "stateCode": "13",
      "latitude": "34.23194444",
      "longitude": "48.17611111"
   },
   {
      "name": "Cheshmeh Malek",
      "countryCode": "IR",
      "stateCode": "13",
      "latitude": "34.75500000",
      "longitude": "48.49305556"
   },
   {
      "name": "Cheshmeh Pahn-e Nanaj",
      "countryCode": "IR",
      "stateCode": "13",
      "latitude": "34.45888889",
      "longitude": "48.76750000"
   },
   {
      "name": "Cheshmeh Qandab",
      "countryCode": "IR",
      "stateCode": "13",
      "latitude": "34.62694444",
      "longitude": "48.09111111"
   },
   {
      "name": "Cheshmeh Qareh",
      "countryCode": "IR",
      "stateCode": "13",
      "latitude": "34.90611111",
      "longitude": "47.87111111"
   },
   {
      "name": "Cheshmeh Qassaban",
      "countryCode": "IR",
      "stateCode": "13",
      "latitude": "34.85777778",
      "longitude": "48.41888889"
   },
   {
      "name": "Cheshmeh Valad",
      "countryCode": "IR",
      "stateCode": "13",
      "latitude": "34.87805556",
      "longitude": "47.98388889"
   },
   {
      "name": "Cheshmeh Zowraq",
      "countryCode": "IR",
      "stateCode": "13",
      "latitude": "34.06611111",
      "longitude": "49.10083333"
   },
   {
      "name": "Choqa Sarahi",
      "countryCode": "IR",
      "stateCode": "13",
      "latitude": "34.31527778",
      "longitude": "48.04888889"
   },
   {
      "name": "Chowtash",
      "countryCode": "IR",
      "stateCode": "13",
      "latitude": "34.83694444",
      "longitude": "48.25194444"
   },
   {
      "name": "Chulak Qapanuri",
      "countryCode": "IR",
      "stateCode": "13",
      "latitude": "34.23472222",
      "longitude": "48.30000000"
   },
   {
      "name": "Dahnejerd",
      "countryCode": "IR",
      "stateCode": "13",
      "latitude": "34.96750000",
      "longitude": "48.50055600"
   },
   {
      "name": "Dali Chu",
      "countryCode": "IR",
      "stateCode": "13",
      "latitude": "35.52138889",
      "longitude": "48.02027778"
   },
   {
      "name": "Damaq",
      "countryCode": "IR",
      "stateCode": "13",
      "latitude": "35.44277778",
      "longitude": "48.82305556"
   },
   {
      "name": "Daqdaqabad",
      "countryCode": "IR",
      "stateCode": "13",
      "latitude": "35.18277778",
      "longitude": "48.78833333"
   },
   {
      "name": "Dar Qeshlaq",
      "countryCode": "IR",
      "stateCode": "13",
      "latitude": "35.49222222",
      "longitude": "48.05583333"
   },
   {
      "name": "Darani-ye Sofla",
      "countryCode": "IR",
      "stateCode": "13",
      "latitude": "34.49888889",
      "longitude": "48.41222222"
   },
   {
      "name": "Darcham",
      "countryCode": "IR",
      "stateCode": "13",
      "latitude": "34.26027778",
      "longitude": "48.82083333"
   },
   {
      "name": "Darreh Chenar",
      "countryCode": "IR",
      "stateCode": "13",
      "latitude": "34.09944444",
      "longitude": "48.80305556"
   },
   {
      "name": "Darreh Mianeh-ye Sofla",
      "countryCode": "IR",
      "stateCode": "13",
      "latitude": "34.07277778",
      "longitude": "48.83527778"
   },
   {
      "name": "Darreh Mirza",
      "countryCode": "IR",
      "stateCode": "13",
      "latitude": "34.37611111",
      "longitude": "48.00750000"
   },
   {
      "name": "Darreh-ye Ebrahim",
      "countryCode": "IR",
      "stateCode": "13",
      "latitude": "34.10166667",
      "longitude": "48.39444444"
   },
   {
      "name": "Darsibeh",
      "countryCode": "IR",
      "stateCode": "13",
      "latitude": "34.26972222",
      "longitude": "48.00694444"
   },
   {
      "name": "Davijan",
      "countryCode": "IR",
      "stateCode": "13",
      "latitude": "34.22027778",
      "longitude": "48.85833333"
   },
   {
      "name": "Deh Chaneh",
      "countryCode": "IR",
      "stateCode": "13",
      "latitude": "34.10527778",
      "longitude": "49.12027778"
   },
   {
      "name": "Deh Dalian",
      "countryCode": "IR",
      "stateCode": "13",
      "latitude": "34.80472222",
      "longitude": "48.71138889"
   },
   {
      "name": "Deh Ful",
      "countryCode": "IR",
      "stateCode": "13",
      "latitude": "34.22694444",
      "longitude": "48.31388889"
   },
   {
      "name": "Deh Mianeh",
      "countryCode": "IR",
      "stateCode": "13",
      "latitude": "34.17305556",
      "longitude": "49.04944444"
   },
   {
      "name": "Deh Nush",
      "countryCode": "IR",
      "stateCode": "13",
      "latitude": "34.76111111",
      "longitude": "48.00305556"
   },
   {
      "name": "Deh Piaz",
      "countryCode": "IR",
      "stateCode": "13",
      "latitude": "34.88194444",
      "longitude": "48.51472222"
   },
   {
      "name": "Deh-e Shaker",
      "countryCode": "IR",
      "stateCode": "13",
      "latitude": "34.37888889",
      "longitude": "48.54777778"
   },
   {
      "name": "Dehnow-e Avarzaman",
      "countryCode": "IR",
      "stateCode": "13",
      "latitude": "34.30694444",
      "longitude": "48.55694444"
   },
   {
      "name": "Dingeleh Kahriz",
      "countryCode": "IR",
      "stateCode": "13",
      "latitude": "34.81111111",
      "longitude": "48.68472222"
   },
   {
      "name": "Do Rudan",
      "countryCode": "IR",
      "stateCode": "13",
      "latitude": "34.55972222",
      "longitude": "48.41472222"
   },
   {
      "name": "Doraneh",
      "countryCode": "IR",
      "stateCode": "13",
      "latitude": "34.23138889",
      "longitude": "48.21944444"
   },
   {
      "name": "Dorudgaran",
      "countryCode": "IR",
      "stateCode": "13",
      "latitude": "34.02027800",
      "longitude": "48.92472200"
   },
   {
      "name": "Dow Baraleh",
      "countryCode": "IR",
      "stateCode": "13",
      "latitude": "34.90222222",
      "longitude": "48.03361111"
   },
   {
      "name": "Dowlatabad-e Hajjilu",
      "countryCode": "IR",
      "stateCode": "13",
      "latitude": "35.28111111",
      "longitude": "48.88694444"
   },
   {
      "name": "Dowlujerdin-e Bala",
      "countryCode": "IR",
      "stateCode": "13",
      "latitude": "35.34777778",
      "longitude": "49.10944444"
   },
   {
      "name": "Durijan",
      "countryCode": "IR",
      "stateCode": "13",
      "latitude": "34.30555556",
      "longitude": "48.48972222"
   },
   {
      "name": "Durnian",
      "countryCode": "IR",
      "stateCode": "13",
      "latitude": "35.48194444",
      "longitude": "49.04000000"
   },
   {
      "name": "Emamzadeh Khatun",
      "countryCode": "IR",
      "stateCode": "13",
      "latitude": "34.04972222",
      "longitude": "48.95222222"
   },
   {
      "name": "Emamzadeh Pir Nahan",
      "countryCode": "IR",
      "stateCode": "13",
      "latitude": "35.01138889",
      "longitude": "49.04111111"
   },
   {
      "name": "Eskanan",
      "countryCode": "IR",
      "stateCode": "13",
      "latitude": "34.35805556",
      "longitude": "48.59277778"
   },
   {
      "name": "Fahrumand",
      "countryCode": "IR",
      "stateCode": "13",
      "latitude": "34.22416667",
      "longitude": "48.31194444"
   },
   {
      "name": "Famast",
      "countryCode": "IR",
      "stateCode": "13",
      "latitude": "34.03897000",
      "longitude": "48.46260000"
   },
   {
      "name": "Famenin",
      "countryCode": "IR",
      "stateCode": "13",
      "latitude": "35.11388889",
      "longitude": "48.97166667"
   },
   {
      "name": "Farasfaj",
      "countryCode": "IR",
      "stateCode": "13",
      "latitude": "34.48611111",
      "longitude": "48.28555556"
   },
   {
      "name": "Farsban",
      "countryCode": "IR",
      "stateCode": "13",
      "latitude": "34.24416667",
      "longitude": "48.11916667"
   },
   {
      "name": "Farvaz",
      "countryCode": "IR",
      "stateCode": "13",
      "latitude": "34.22694444",
      "longitude": "48.90111111"
   },
   {
      "name": "Faryazan",
      "countryCode": "IR",
      "stateCode": "13",
      "latitude": "34.52305600",
      "longitude": "48.33250000"
   },
   {
      "name": "Fasijan",
      "countryCode": "IR",
      "stateCode": "13",
      "latitude": "34.83666667",
      "longitude": "48.30472222"
   },
   {
      "name": "Fiazaman",
      "countryCode": "IR",
      "stateCode": "13",
      "latitude": "34.13111111",
      "longitude": "48.39638889"
   },
   {
      "name": "Firuzabad-e Sofla",
      "countryCode": "IR",
      "stateCode": "13",
      "latitude": "34.34694444",
      "longitude": "48.09638889"
   },
   {
      "name": "Firuzan",
      "countryCode": "IR",
      "stateCode": "13",
      "latitude": "34.27861111",
      "longitude": "48.24000000"
   },
   {
      "name": "Gamasa",
      "countryCode": "IR",
      "stateCode": "13",
      "latitude": "34.23027778",
      "longitude": "49.08750000"
   },
   {
      "name": "Gamasb",
      "countryCode": "IR",
      "stateCode": "13",
      "latitude": "34.04000000",
      "longitude": "48.46500000"
   },
   {
      "name": "Ganj Tappeh",
      "countryCode": "IR",
      "stateCode": "13",
      "latitude": "34.93333300",
      "longitude": "48.46361100"
   },
   {
      "name": "Ganjab",
      "countryCode": "IR",
      "stateCode": "13",
      "latitude": "34.45277778",
      "longitude": "48.98722222"
   },
   {
      "name": "Gashani",
      "countryCode": "IR",
      "stateCode": "13",
      "latitude": "34.66055556",
      "longitude": "48.39138889"
   },
   {
      "name": "Gav Zaban",
      "countryCode": "IR",
      "stateCode": "13",
      "latitude": "35.22916667",
      "longitude": "48.30527778"
   },
   {
      "name": "Gavkaran",
      "countryCode": "IR",
      "stateCode": "13",
      "latitude": "34.48694444",
      "longitude": "48.12000000"
   },
   {
      "name": "Ghazyatan",
      "countryCode": "IR",
      "stateCode": "13",
      "latitude": "35.33222222",
      "longitude": "48.93166667"
   },
   {
      "name": "Gholam Veys",
      "countryCode": "IR",
      "stateCode": "13",
      "latitude": "35.63000000",
      "longitude": "48.52583333"
   },
   {
      "name": "Givaki",
      "countryCode": "IR",
      "stateCode": "13",
      "latitude": "34.27250000",
      "longitude": "48.08111111"
   },
   {
      "name": "Giyan",
      "countryCode": "IR",
      "stateCode": "13",
      "latitude": "34.17805556",
      "longitude": "48.24416667"
   },
   {
      "name": "Gol Darreh-ye Anuch",
      "countryCode": "IR",
      "stateCode": "13",
      "latitude": "34.10222222",
      "longitude": "48.59861111"
   },
   {
      "name": "Gol Heydar",
      "countryCode": "IR",
      "stateCode": "13",
      "latitude": "34.06250000",
      "longitude": "48.41666667"
   },
   {
      "name": "Golparabad",
      "countryCode": "IR",
      "stateCode": "13",
      "latitude": "34.15500000",
      "longitude": "49.05777778"
   },
   {
      "name": "Golshir",
      "countryCode": "IR",
      "stateCode": "13",
      "latitude": "34.40000000",
      "longitude": "48.68333333"
   },
   {
      "name": "Golushjerd",
      "countryCode": "IR",
      "stateCode": "13",
      "latitude": "34.36611111",
      "longitude": "48.79000000"
   },
   {
      "name": "Gomush Bolagh",
      "countryCode": "IR",
      "stateCode": "13",
      "latitude": "34.93194444",
      "longitude": "48.28972222"
   },
   {
      "name": "Gonbad Chay",
      "countryCode": "IR",
      "stateCode": "13",
      "latitude": "34.86833300",
      "longitude": "48.83138900"
   },
   {
      "name": "Gonbad-e Kabud",
      "countryCode": "IR",
      "stateCode": "13",
      "latitude": "34.21722222",
      "longitude": "48.14777778"
   },
   {
      "name": "Gostar",
      "countryCode": "IR",
      "stateCode": "13",
      "latitude": "35.46388889",
      "longitude": "48.87638889"
   },
   {
      "name": "Gozal Abdal",
      "countryCode": "IR",
      "stateCode": "13",
      "latitude": "35.32166667",
      "longitude": "48.23861111"
   },
   {
      "name": "Gug Qash",
      "countryCode": "IR",
      "stateCode": "13",
      "latitude": "35.68750000",
      "longitude": "48.02530000"
   },
   {
      "name": "Gujak",
      "countryCode": "IR",
      "stateCode": "13",
      "latitude": "34.54083333",
      "longitude": "48.84027778"
   },
   {
      "name": "Gulvand",
      "countryCode": "IR",
      "stateCode": "13",
      "latitude": "34.38083333",
      "longitude": "48.97527778"
   },
   {
      "name": "Gunestan",
      "countryCode": "IR",
      "stateCode": "13",
      "latitude": "34.03027778",
      "longitude": "48.91833333"
   },
   {
      "name": "Gur Gaz",
      "countryCode": "IR",
      "stateCode": "13",
      "latitude": "34.93333333",
      "longitude": "48.79111111"
   },
   {
      "name": "Gurjiu",
      "countryCode": "IR",
      "stateCode": "13",
      "latitude": "34.18583333",
      "longitude": "48.40555556"
   },
   {
      "name": "Gushalan",
      "countryCode": "IR",
      "stateCode": "13",
      "latitude": "34.83500000",
      "longitude": "48.32250000"
   },
   {
      "name": "Gusheh-ye Kasavand",
      "countryCode": "IR",
      "stateCode": "13",
      "latitude": "34.15527778",
      "longitude": "48.95944444"
   },
   {
      "name": "Hajji Kheder",
      "countryCode": "IR",
      "stateCode": "13",
      "latitude": "34.12722222",
      "longitude": "48.74833333"
   },
   {
      "name": "Hajji Maqsud",
      "countryCode": "IR",
      "stateCode": "13",
      "latitude": "34.96972222",
      "longitude": "48.87972222"
   },
   {
      "name": "Hajji Tu",
      "countryCode": "IR",
      "stateCode": "13",
      "latitude": "34.45083300",
      "longitude": "48.35361100"
   },
   {
      "name": "Hamadan",
      "countryCode": "IR",
      "stateCode": "13",
      "latitude": "34.80000000",
      "longitude": "48.51666667"
   },
   {
      "name": "Hamilabad",
      "countryCode": "IR",
      "stateCode": "13",
      "latitude": "34.40250000",
      "longitude": "48.46083333"
   },
   {
      "name": "Hamzehlu-ye Sofla",
      "countryCode": "IR",
      "stateCode": "13",
      "latitude": "34.05777778",
      "longitude": "49.07777778"
   },
   {
      "name": "Haramabad",
      "countryCode": "IR",
      "stateCode": "13",
      "latitude": "34.28166667",
      "longitude": "48.78250000"
   },
   {
      "name": "Hasan Kusej",
      "countryCode": "IR",
      "stateCode": "13",
      "latitude": "34.24833333",
      "longitude": "48.57527778"
   },
   {
      "name": "Hasan Teymur",
      "countryCode": "IR",
      "stateCode": "13",
      "latitude": "35.37583333",
      "longitude": "48.36361111"
   },
   {
      "name": "Hasanabad-e Emam",
      "countryCode": "IR",
      "stateCode": "13",
      "latitude": "34.95027778",
      "longitude": "48.05083333"
   },
   {
      "name": "Hasanabad-e Qush Bolagh",
      "countryCode": "IR",
      "stateCode": "13",
      "latitude": "34.42361111",
      "longitude": "48.65444444"
   },
   {
      "name": "Hasanabad-e Sheverin",
      "countryCode": "IR",
      "stateCode": "13",
      "latitude": "34.84250000",
      "longitude": "48.54916667"
   },
   {
      "name": "Heriraz",
      "countryCode": "IR",
      "stateCode": "13",
      "latitude": "34.20527778",
      "longitude": "48.74305556"
   },
   {
      "name": "Hesar-e Qarah Baghi",
      "countryCode": "IR",
      "stateCode": "13",
      "latitude": "34.82250000",
      "longitude": "48.26861111"
   },
   {
      "name": "Hesar-e Qujeh Baghi",
      "countryCode": "IR",
      "stateCode": "13",
      "latitude": "35.23861111",
      "longitude": "48.55972222"
   },
   {
      "name": "Heydareh-ye Dar-e Emam",
      "countryCode": "IR",
      "stateCode": "13",
      "latitude": "34.82055556",
      "longitude": "48.34694444"
   },
   {
      "name": "Heydareh-ye Posht-e Shahr",
      "countryCode": "IR",
      "stateCode": "13",
      "latitude": "34.80250000",
      "longitude": "48.45750000"
   },
   {
      "name": "Hizaj",
      "countryCode": "IR",
      "stateCode": "13",
      "latitude": "34.93000000",
      "longitude": "49.14333333"
   },
   {
      "name": "Holvar-e Sofla",
      "countryCode": "IR",
      "stateCode": "13",
      "latitude": "34.68000000",
      "longitude": "48.13472222"
   },
   {
      "name": "Hom-e Khosrow",
      "countryCode": "IR",
      "stateCode": "13",
      "latitude": "34.31472222",
      "longitude": "48.01000000"
   },
   {
      "name": "Horhoreh",
      "countryCode": "IR",
      "stateCode": "13",
      "latitude": "34.39111111",
      "longitude": "48.36027778"
   },
   {
      "name": "Hoseynabad-e Bahar",
      "countryCode": "IR",
      "stateCode": "13",
      "latitude": "34.86750000",
      "longitude": "48.36833333"
   },
   {
      "name": "Hoseynabad-e Nazem",
      "countryCode": "IR",
      "stateCode": "13",
      "latitude": "34.29527800",
      "longitude": "48.60416700"
   },
   {
      "name": "Hoseynabad-e Shamlu",
      "countryCode": "IR",
      "stateCode": "13",
      "latitude": "34.44611111",
      "longitude": "48.62055556"
   },
   {
      "name": "Hudaraj",
      "countryCode": "IR",
      "stateCode": "13",
      "latitude": "34.73361111",
      "longitude": "48.16194444"
   },
   {
      "name": "Iraneh",
      "countryCode": "IR",
      "stateCode": "13",
      "latitude": "34.24305556",
      "longitude": "48.59750000"
   },
   {
      "name": "Isti Bolagh",
      "countryCode": "IR",
      "stateCode": "13",
      "latitude": "35.69500000",
      "longitude": "48.26611111"
   },
   {
      "name": "Jamishlu",
      "countryCode": "IR",
      "stateCode": "13",
      "latitude": "35.24583333",
      "longitude": "48.97666667"
   },
   {
      "name": "Jaria",
      "countryCode": "IR",
      "stateCode": "13",
      "latitude": "34.35166667",
      "longitude": "48.46861111"
   },
   {
      "name": "Javar Sajin",
      "countryCode": "IR",
      "stateCode": "13",
      "latitude": "35.28583333",
      "longitude": "49.22138889"
   },
   {
      "name": "Jerbanlu",
      "countryCode": "IR",
      "stateCode": "13",
      "latitude": "35.58638889",
      "longitude": "48.92916667"
   },
   {
      "name": "Jighi",
      "countryCode": "IR",
      "stateCode": "13",
      "latitude": "35.20027778",
      "longitude": "48.49388889"
   },
   {
      "name": "Jijan Kuh",
      "countryCode": "IR",
      "stateCode": "13",
      "latitude": "34.48111111",
      "longitude": "48.50694444"
   },
   {
      "name": "Jijian Rud",
      "countryCode": "IR",
      "stateCode": "13",
      "latitude": "34.35638889",
      "longitude": "48.60861111"
   },
   {
      "name": "Jin Taraqayah",
      "countryCode": "IR",
      "stateCode": "13",
      "latitude": "35.34555556",
      "longitude": "48.43250000"
   },
   {
      "name": "Juraqan",
      "countryCode": "IR",
      "stateCode": "13",
      "latitude": "34.88472222",
      "longitude": "48.55444444"
   },
   {
      "name": "Kaboodrahang",
      "countryCode": "IR",
      "stateCode": "13",
      "latitude": "35.20833333",
      "longitude": "48.72388889"
   },
   {
      "name": "Kahard",
      "countryCode": "IR",
      "stateCode": "13",
      "latitude": "35.28555556",
      "longitude": "49.00527778"
   },
   {
      "name": "Kahkadan",
      "countryCode": "IR",
      "stateCode": "13",
      "latitude": "34.14388889",
      "longitude": "48.65805556"
   },
   {
      "name": "Kahriz-e Baba Hoseyn",
      "countryCode": "IR",
      "stateCode": "13",
      "latitude": "35.53388889",
      "longitude": "47.94027778"
   },
   {
      "name": "Kahriz-e Boqazi",
      "countryCode": "IR",
      "stateCode": "13",
      "latitude": "35.51138889",
      "longitude": "48.81833333"
   },
   {
      "name": "Kahriz-e Hoseynabad-e Nazem",
      "countryCode": "IR",
      "stateCode": "13",
      "latitude": "34.31888889",
      "longitude": "48.62777778"
   },
   {
      "name": "Kahriz-e Jamal",
      "countryCode": "IR",
      "stateCode": "13",
      "latitude": "34.33500000",
      "longitude": "48.14611111"
   },
   {
      "name": "Kahriz-e Salim",
      "countryCode": "IR",
      "stateCode": "13",
      "latitude": "34.32888889",
      "longitude": "48.16222222"
   },
   {
      "name": "Kal Kabud",
      "countryCode": "IR",
      "stateCode": "13",
      "latitude": "35.48083333",
      "longitude": "48.85277778"
   },
   {
      "name": "Kalb Hesari",
      "countryCode": "IR",
      "stateCode": "13",
      "latitude": "35.36694444",
      "longitude": "48.39583333"
   },
   {
      "name": "Kalilabad",
      "countryCode": "IR",
      "stateCode": "13",
      "latitude": "34.33916667",
      "longitude": "48.54472222"
   },
   {
      "name": "Kamak-e Sofla",
      "countryCode": "IR",
      "stateCode": "13",
      "latitude": "34.88750000",
      "longitude": "47.96861111"
   },
   {
      "name": "Kamar Boneh",
      "countryCode": "IR",
      "stateCode": "13",
      "latitude": "34.17500000",
      "longitude": "48.63500000"
   },
   {
      "name": "Kamazan",
      "countryCode": "IR",
      "stateCode": "13",
      "latitude": "34.15083333",
      "longitude": "48.95333333"
   },
   {
      "name": "Kand Halan",
      "countryCode": "IR",
      "stateCode": "13",
      "latitude": "34.50111111",
      "longitude": "48.78194444"
   },
   {
      "name": "Kand Tappeh",
      "countryCode": "IR",
      "stateCode": "13",
      "latitude": "35.20138889",
      "longitude": "48.30555556"
   },
   {
      "name": "Kand-e Bolaghi",
      "countryCode": "IR",
      "stateCode": "13",
      "latitude": "35.43000000",
      "longitude": "48.32277778"
   },
   {
      "name": "Kangavar-e Kohneh",
      "countryCode": "IR",
      "stateCode": "13",
      "latitude": "34.34194444",
      "longitude": "47.97611111"
   },
   {
      "name": "Karafs",
      "countryCode": "IR",
      "stateCode": "13",
      "latitude": "35.36333333",
      "longitude": "49.29888889"
   },
   {
      "name": "Kark-e Sofla",
      "countryCode": "IR",
      "stateCode": "13",
      "latitude": "34.16944444",
      "longitude": "48.29138889"
   },
   {
      "name": "Kartilabad",
      "countryCode": "IR",
      "stateCode": "13",
      "latitude": "34.31361111",
      "longitude": "48.64916667"
   },
   {
      "name": "Kasavand",
      "countryCode": "IR",
      "stateCode": "13",
      "latitude": "34.15222222",
      "longitude": "48.96972222"
   },
   {
      "name": "Kaslan Qayah",
      "countryCode": "IR",
      "stateCode": "13",
      "latitude": "35.19388889",
      "longitude": "48.18611111"
   },
   {
      "name": "Kavanaj",
      "countryCode": "IR",
      "stateCode": "13",
      "latitude": "34.66388889",
      "longitude": "47.89694444"
   },
   {
      "name": "Kesb",
      "countryCode": "IR",
      "stateCode": "13",
      "latitude": "34.41416667",
      "longitude": "48.72250000"
   },
   {
      "name": "Keykaleh",
      "countryCode": "IR",
      "stateCode": "13",
      "latitude": "34.11500000",
      "longitude": "48.93916667"
   },
   {
      "name": "Keyni Sayeh",
      "countryCode": "IR",
      "stateCode": "13",
      "latitude": "34.82583333",
      "longitude": "47.88638889"
   },
   {
      "name": "Khabar Arkhi",
      "countryCode": "IR",
      "stateCode": "13",
      "latitude": "35.36333333",
      "longitude": "48.27666667"
   },
   {
      "name": "Khaku",
      "countryCode": "IR",
      "stateCode": "13",
      "latitude": "34.72638889",
      "longitude": "48.53638889"
   },
   {
      "name": "Khaleq Verdi",
      "countryCode": "IR",
      "stateCode": "13",
      "latitude": "35.41083333",
      "longitude": "48.18111111"
   },
   {
      "name": "Khalil Kord",
      "countryCode": "IR",
      "stateCode": "13",
      "latitude": "34.97805556",
      "longitude": "48.25305556"
   },
   {
      "name": "Kheradmand",
      "countryCode": "IR",
      "stateCode": "13",
      "latitude": "34.62583333",
      "longitude": "48.93138889"
   },
   {
      "name": "Kheyr Qoli",
      "countryCode": "IR",
      "stateCode": "13",
      "latitude": "34.20222222",
      "longitude": "48.40138889"
   },
   {
      "name": "Khomeygan",
      "countryCode": "IR",
      "stateCode": "13",
      "latitude": "35.36972222",
      "longitude": "49.02333333"
   },
   {
      "name": "Khvajeh Hesar",
      "countryCode": "IR",
      "stateCode": "13",
      "latitude": "35.00000000",
      "longitude": "49.33916667"
   },
   {
      "name": "Khvajeh Hoseyni",
      "countryCode": "IR",
      "stateCode": "13",
      "latitude": "34.15500000",
      "longitude": "48.37861111"
   },
   {
      "name": "Khvajeh Kandi",
      "countryCode": "IR",
      "stateCode": "13",
      "latitude": "35.36194444",
      "longitude": "48.38500000"
   },
   {
      "name": "Khvoshab-e Sofla",
      "countryCode": "IR",
      "stateCode": "13",
      "latitude": "35.01777778",
      "longitude": "48.35750000"
   },
   {
      "name": "Kitu",
      "countryCode": "IR",
      "stateCode": "13",
      "latitude": "35.31972222",
      "longitude": "48.15333333"
   },
   {
      "name": "Kohnush",
      "countryCode": "IR",
      "stateCode": "13",
      "latitude": "34.72583333",
      "longitude": "48.27777778"
   },
   {
      "name": "Kolanjan",
      "countryCode": "IR",
      "stateCode": "13",
      "latitude": "34.59444444",
      "longitude": "48.39250000"
   },
   {
      "name": "Konjineh",
      "countryCode": "IR",
      "stateCode": "13",
      "latitude": "34.79222222",
      "longitude": "48.62972222"
   },
   {
      "name": "Kord Bolagh",
      "countryCode": "IR",
      "stateCode": "13",
      "latitude": "34.76722222",
      "longitude": "48.65277778"
   },
   {
      "name": "Korzan",
      "countryCode": "IR",
      "stateCode": "13",
      "latitude": "34.59444444",
      "longitude": "48.35361111"
   },
   {
      "name": "Kowzareh",
      "countryCode": "IR",
      "stateCode": "13",
      "latitude": "34.69861100",
      "longitude": "49.01138900"
   },
   {
      "name": "Kuhani",
      "countryCode": "IR",
      "stateCode": "13",
      "latitude": "34.15388900",
      "longitude": "48.40500000"
   },
   {
      "name": "Kur Kahriz",
      "countryCode": "IR",
      "stateCode": "13",
      "latitude": "34.71722222",
      "longitude": "48.77333333"
   },
   {
      "name": "Kusaj Khalil",
      "countryCode": "IR",
      "stateCode": "13",
      "latitude": "34.40416667",
      "longitude": "48.58805556"
   },
   {
      "name": "Kutah Darreh",
      "countryCode": "IR",
      "stateCode": "13",
      "latitude": "34.32055556",
      "longitude": "47.95388889"
   },
   {
      "name": "Laleh Dan",
      "countryCode": "IR",
      "stateCode": "13",
      "latitude": "35.58111111",
      "longitude": "48.95416667"
   },
   {
      "name": "Lalejin",
      "countryCode": "IR",
      "stateCode": "13",
      "latitude": "34.97444444",
      "longitude": "48.47555556"
   },
   {
      "name": "Lamiyan",
      "countryCode": "IR",
      "stateCode": "13",
      "latitude": "34.46277778",
      "longitude": "48.19277778"
   },
   {
      "name": "Latgah",
      "countryCode": "IR",
      "stateCode": "13",
      "latitude": "34.98944400",
      "longitude": "48.54638900"
   },
   {
      "name": "Lavashan",
      "countryCode": "IR",
      "stateCode": "13",
      "latitude": "34.25055556",
      "longitude": "48.27416667"
   },
   {
      "name": "Leyli Yadegar",
      "countryCode": "IR",
      "stateCode": "13",
      "latitude": "34.28583333",
      "longitude": "48.21027778"
   },
   {
      "name": "Luluhar",
      "countryCode": "IR",
      "stateCode": "13",
      "latitude": "34.31611111",
      "longitude": "48.45416667"
   },
   {
      "name": "Mahanabad",
      "countryCode": "IR",
      "stateCode": "13",
      "latitude": "34.18083333",
      "longitude": "48.20972222"
   },
   {
      "name": "Mahbar",
      "countryCode": "IR",
      "stateCode": "13",
      "latitude": "34.87611111",
      "longitude": "48.80777778"
   },
   {
      "name": "Mahdaviyeh",
      "countryCode": "IR",
      "stateCode": "13",
      "latitude": "34.08333333",
      "longitude": "48.88333333"
   },
   {
      "name": "Mahnian",
      "countryCode": "IR",
      "stateCode": "13",
      "latitude": "35.50250000",
      "longitude": "49.06583333"
   },
   {
      "name": "Malayer",
      "countryCode": "IR",
      "stateCode": "13",
      "latitude": "34.29416667",
      "longitude": "48.82000000"
   },
   {
      "name": "Malek-e Ashtar",
      "countryCode": "IR",
      "stateCode": "13",
      "latitude": "34.95222222",
      "longitude": "48.31500000"
   },
   {
      "name": "Malusan",
      "countryCode": "IR",
      "stateCode": "13",
      "latitude": "34.32333333",
      "longitude": "48.33000000"
   },
   {
      "name": "Mangavi",
      "countryCode": "IR",
      "stateCode": "13",
      "latitude": "34.65750000",
      "longitude": "48.70861111"
   },
   {
      "name": "Marvil",
      "countryCode": "IR",
      "stateCode": "13",
      "latitude": "34.16805556",
      "longitude": "48.88694444"
   },
   {
      "name": "Maryanaj",
      "countryCode": "IR",
      "stateCode": "13",
      "latitude": "34.83083333",
      "longitude": "48.45916667"
   },
   {
      "name": "Masjedin",
      "countryCode": "IR",
      "stateCode": "13",
      "latitude": "35.54277778",
      "longitude": "48.26333333"
   },
   {
      "name": "Menjan",
      "countryCode": "IR",
      "stateCode": "13",
      "latitude": "34.44805556",
      "longitude": "48.23555556"
   },
   {
      "name": "Mesinak",
      "countryCode": "IR",
      "stateCode": "13",
      "latitude": "35.27222222",
      "longitude": "49.15111111"
   },
   {
      "name": "Meyvaleh",
      "countryCode": "IR",
      "stateCode": "13",
      "latitude": "34.83194444",
      "longitude": "47.85527778"
   },
   {
      "name": "Mianzulan",
      "countryCode": "IR",
      "stateCode": "13",
      "latitude": "34.31222222",
      "longitude": "48.51555556"
   },
   {
      "name": "Mihamleh-ye Sofla",
      "countryCode": "IR",
      "stateCode": "13",
      "latitude": "35.10000000",
      "longitude": "48.30805556"
   },
   {
      "name": "Milab",
      "countryCode": "IR",
      "stateCode": "13",
      "latitude": "34.05277778",
      "longitude": "48.47972222"
   },
   {
      "name": "Mirza Hesari",
      "countryCode": "IR",
      "stateCode": "13",
      "latitude": "35.12750000",
      "longitude": "48.45944400"
   },
   {
      "name": "Mishen",
      "countryCode": "IR",
      "stateCode": "13",
      "latitude": "34.15750000",
      "longitude": "48.92722222"
   },
   {
      "name": "Mobarakin",
      "countryCode": "IR",
      "stateCode": "13",
      "latitude": "35.09805556",
      "longitude": "49.42416667"
   },
   {
      "name": "Mohajeran",
      "countryCode": "IR",
      "stateCode": "13",
      "latitude": "35.07388889",
      "longitude": "48.61666667"
   },
   {
      "name": "Mohammadabad-e Chulak",
      "countryCode": "IR",
      "stateCode": "13",
      "latitude": "34.24666667",
      "longitude": "48.30444444"
   },
   {
      "name": "Mohammadiyeh-e Sofla",
      "countryCode": "IR",
      "stateCode": "13",
      "latitude": "34.14611111",
      "longitude": "48.33861111"
   },
   {
      "name": "Mohara",
      "countryCode": "IR",
      "stateCode": "13",
      "latitude": "34.55527778",
      "longitude": "48.86861111"
   },
   {
      "name": "Mokarrabi",
      "countryCode": "IR",
      "stateCode": "13",
      "latitude": "34.62500000",
      "longitude": "48.69777778"
   },
   {
      "name": "Molham Darreh",
      "countryCode": "IR",
      "stateCode": "13",
      "latitude": "34.83138889",
      "longitude": "48.14527778"
   },
   {
      "name": "Molla Bodagh",
      "countryCode": "IR",
      "stateCode": "13",
      "latitude": "35.63138889",
      "longitude": "48.73888889"
   },
   {
      "name": "Monavvar Tappeh",
      "countryCode": "IR",
      "stateCode": "13",
      "latitude": "34.72027778",
      "longitude": "47.91111111"
   },
   {
      "name": "Morghabad",
      "countryCode": "IR",
      "stateCode": "13",
      "latitude": "35.18833333",
      "longitude": "49.28277778"
   },
   {
      "name": "Mowdaran",
      "countryCode": "IR",
      "stateCode": "13",
      "latitude": "34.33250000",
      "longitude": "48.47138889"
   },
   {
      "name": "Musa Bolaghi",
      "countryCode": "IR",
      "stateCode": "13",
      "latitude": "34.59888889",
      "longitude": "48.94111111"
   },
   {
      "name": "Nahandar",
      "countryCode": "IR",
      "stateCode": "13",
      "latitude": "34.14944444",
      "longitude": "48.96833333"
   },
   {
      "name": "Nahavand",
      "countryCode": "IR",
      "stateCode": "13",
      "latitude": "34.18833333",
      "longitude": "48.37694444"
   },
   {
      "name": "Najafiyeh",
      "countryCode": "IR",
      "stateCode": "13",
      "latitude": "34.55500000",
      "longitude": "48.38638889"
   },
   {
      "name": "Nakilabad",
      "countryCode": "IR",
      "stateCode": "13",
      "latitude": "34.36777778",
      "longitude": "48.65694444"
   },
   {
      "name": "Nakin",
      "countryCode": "IR",
      "stateCode": "13",
      "latitude": "35.38805556",
      "longitude": "49.26527778"
   },
   {
      "name": "Namileh",
      "countryCode": "IR",
      "stateCode": "13",
      "latitude": "34.27111111",
      "longitude": "48.82000000"
   },
   {
      "name": "Nanaj",
      "countryCode": "IR",
      "stateCode": "13",
      "latitude": "34.42000000",
      "longitude": "48.75388889"
   },
   {
      "name": "Nazul",
      "countryCode": "IR",
      "stateCode": "13",
      "latitude": "34.22833333",
      "longitude": "48.71805556"
   },
   {
      "name": "Negar Khatun",
      "countryCode": "IR",
      "stateCode": "13",
      "latitude": "35.11861111",
      "longitude": "48.92555556"
   },
   {
      "name": "Negarabad",
      "countryCode": "IR",
      "stateCode": "13",
      "latitude": "35.47583333",
      "longitude": "48.53277778"
   },
   {
      "name": "Nehenjeh",
      "countryCode": "IR",
      "stateCode": "13",
      "latitude": "34.54111111",
      "longitude": "48.71722222"
   },
   {
      "name": "Nesar",
      "countryCode": "IR",
      "stateCode": "13",
      "latitude": "34.07694444",
      "longitude": "48.46861111"
   },
   {
      "name": "Neshar",
      "countryCode": "IR",
      "stateCode": "13",
      "latitude": "34.67722222",
      "longitude": "48.86694444"
   },
   {
      "name": "Niyanj",
      "countryCode": "IR",
      "stateCode": "13",
      "latitude": "35.34861111",
      "longitude": "48.91722222"
   },
   {
      "name": "Nosratabad-e Behraz",
      "countryCode": "IR",
      "stateCode": "13",
      "latitude": "34.69222222",
      "longitude": "48.08555556"
   },
   {
      "name": "Nosratabad-e Laklak",
      "countryCode": "IR",
      "stateCode": "13",
      "latitude": "34.66472222",
      "longitude": "47.96277778"
   },
   {
      "name": "Nurabad-e Simineh",
      "countryCode": "IR",
      "stateCode": "13",
      "latitude": "34.82194444",
      "longitude": "48.29277778"
   },
   {
      "name": "Ojaq",
      "countryCode": "IR",
      "stateCode": "13",
      "latitude": "35.64000000",
      "longitude": "48.84583333"
   },
   {
      "name": "Ommatlar",
      "countryCode": "IR",
      "stateCode": "13",
      "latitude": "35.43611111",
      "longitude": "48.96861111"
   },
   {
      "name": "Oshtoran",
      "countryCode": "IR",
      "stateCode": "13",
      "latitude": "34.63805556",
      "longitude": "48.29555556"
   },
   {
      "name": "Oshtorjin",
      "countryCode": "IR",
      "stateCode": "13",
      "latitude": "34.77583333",
      "longitude": "48.17222222"
   },
   {
      "name": "Ovraqin",
      "countryCode": "IR",
      "stateCode": "13",
      "latitude": "35.28222222",
      "longitude": "48.69111111"
   },
   {
      "name": "Owrteh Qamish",
      "countryCode": "IR",
      "stateCode": "13",
      "latitude": "35.57083333",
      "longitude": "48.62916667"
   },
   {
      "name": "Owryad",
      "countryCode": "IR",
      "stateCode": "13",
      "latitude": "35.26277778",
      "longitude": "48.37250000"
   },
   {
      "name": "Pahnabad",
      "countryCode": "IR",
      "stateCode": "13",
      "latitude": "34.84166667",
      "longitude": "48.61472222"
   },
   {
      "name": "Panbeh Dar",
      "countryCode": "IR",
      "stateCode": "13",
      "latitude": "34.06527778",
      "longitude": "48.44555556"
   },
   {
      "name": "Parluk",
      "countryCode": "IR",
      "stateCode": "13",
      "latitude": "35.06555556",
      "longitude": "48.24611111"
   },
   {
      "name": "Parvaraq",
      "countryCode": "IR",
      "stateCode": "13",
      "latitude": "35.15583333",
      "longitude": "48.76777778"
   },
   {
      "name": "Payandeh",
      "countryCode": "IR",
      "stateCode": "13",
      "latitude": "35.44194444",
      "longitude": "48.85305556"
   },
   {
      "name": "Peyhan",
      "countryCode": "IR",
      "stateCode": "13",
      "latitude": "34.12972222",
      "longitude": "48.86750000"
   },
   {
      "name": "Pileh Jin",
      "countryCode": "IR",
      "stateCode": "13",
      "latitude": "35.38388889",
      "longitude": "48.85583333"
   },
   {
      "name": "Pir Anbar",
      "countryCode": "IR",
      "stateCode": "13",
      "latitude": "35.24250000",
      "longitude": "48.51361111"
   },
   {
      "name": "Pir Badam",
      "countryCode": "IR",
      "stateCode": "13",
      "latitude": "35.56722222",
      "longitude": "48.13888889"
   },
   {
      "name": "Pir Khodaverdi",
      "countryCode": "IR",
      "stateCode": "13",
      "latitude": "34.32500000",
      "longitude": "48.92861111"
   },
   {
      "name": "Pir Malu",
      "countryCode": "IR",
      "stateCode": "13",
      "latitude": "34.91222222",
      "longitude": "48.06611111"
   },
   {
      "name": "Pir Mishan",
      "countryCode": "IR",
      "stateCode": "13",
      "latitude": "34.39166667",
      "longitude": "48.66611111"
   },
   {
      "name": "Pir Savaran",
      "countryCode": "IR",
      "stateCode": "13",
      "latitude": "34.11805556",
      "longitude": "48.77861111"
   },
   {
      "name": "Pir Yusof",
      "countryCode": "IR",
      "stateCode": "13",
      "latitude": "34.68888889",
      "longitude": "47.89277778"
   },
   {
      "name": "Piruz",
      "countryCode": "IR",
      "stateCode": "13",
      "latitude": "34.13500000",
      "longitude": "49.04527778"
   },
   {
      "name": "Poshtjin",
      "countryCode": "IR",
      "stateCode": "13",
      "latitude": "35.31416667",
      "longitude": "49.07166667"
   },
   {
      "name": "Qabanqoli",
      "countryCode": "IR",
      "stateCode": "13",
      "latitude": "35.19833333",
      "longitude": "49.17833333"
   },
   {
      "name": "Qader Khalaj",
      "countryCode": "IR",
      "stateCode": "13",
      "latitude": "35.40111111",
      "longitude": "48.73000000"
   },
   {
      "name": "Qadimi",
      "countryCode": "IR",
      "stateCode": "13",
      "latitude": "34.65194444",
      "longitude": "48.73666667"
   },
   {
      "name": "Qahavand",
      "countryCode": "IR",
      "stateCode": "13",
      "latitude": "34.86027778",
      "longitude": "49.00472222"
   },
   {
      "name": "Qajar Ab-e Sofla",
      "countryCode": "IR",
      "stateCode": "13",
      "latitude": "34.43527778",
      "longitude": "48.97527778"
   },
   {
      "name": "Qarah Day",
      "countryCode": "IR",
      "stateCode": "13",
      "latitude": "35.12527778",
      "longitude": "49.28222222"
   },
   {
      "name": "Qarah Tegini",
      "countryCode": "IR",
      "stateCode": "13",
      "latitude": "34.44027778",
      "longitude": "48.93555556"
   },
   {
      "name": "Qaranqu Darreh",
      "countryCode": "IR",
      "stateCode": "13",
      "latitude": "35.51305556",
      "longitude": "48.17750000"
   },
   {
      "name": "Qasabestan",
      "countryCode": "IR",
      "stateCode": "13",
      "latitude": "34.42000000",
      "longitude": "48.18777778"
   },
   {
      "name": "Qasemabad-e Laklak",
      "countryCode": "IR",
      "stateCode": "13",
      "latitude": "34.67527778",
      "longitude": "47.97222222"
   },
   {
      "name": "Qater Owlan",
      "countryCode": "IR",
      "stateCode": "13",
      "latitude": "35.37527778",
      "longitude": "48.93166667"
   },
   {
      "name": "Qayesh",
      "countryCode": "IR",
      "stateCode": "13",
      "latitude": "35.49611111",
      "longitude": "48.86694444"
   },
   {
      "name": "Qazan Qarah",
      "countryCode": "IR",
      "stateCode": "13",
      "latitude": "35.66190000",
      "longitude": "48.08220000"
   },
   {
      "name": "Qazi Mardan",
      "countryCode": "IR",
      "stateCode": "13",
      "latitude": "34.77694444",
      "longitude": "48.01416667"
   },
   {
      "name": "Qeshlaq Baba Rostam",
      "countryCode": "IR",
      "stateCode": "13",
      "latitude": "34.14194444",
      "longitude": "48.36250000"
   },
   {
      "name": "Qeshlaq-e Anuch",
      "countryCode": "IR",
      "stateCode": "13",
      "latitude": "34.11611111",
      "longitude": "48.57777778"
   },
   {
      "name": "Qeshlaq-e Deh Ful",
      "countryCode": "IR",
      "stateCode": "13",
      "latitude": "34.24388889",
      "longitude": "48.33750000"
   },
   {
      "name": "Qeshlaq-e Dehnow",
      "countryCode": "IR",
      "stateCode": "13",
      "latitude": "34.50000000",
      "longitude": "48.56666667"
   },
   {
      "name": "Qeshlaq-e Mohammadi",
      "countryCode": "IR",
      "stateCode": "13",
      "latitude": "34.06666667",
      "longitude": "48.91666667"
   },
   {
      "name": "Qeshlaq-e Najaf",
      "countryCode": "IR",
      "stateCode": "13",
      "latitude": "34.37222222",
      "longitude": "48.24500000"
   },
   {
      "name": "Qeshlaq-e Pust Shuran",
      "countryCode": "IR",
      "stateCode": "13",
      "latitude": "34.40305556",
      "longitude": "48.21638889"
   },
   {
      "name": "Qeshlaq-e Qobad",
      "countryCode": "IR",
      "stateCode": "13",
      "latitude": "34.58777778",
      "longitude": "48.89583333"
   },
   {
      "name": "Qeshlaq-e Shirazi",
      "countryCode": "IR",
      "stateCode": "13",
      "latitude": "34.38388889",
      "longitude": "48.93916667"
   },
   {
      "name": "Qeshlaq-e Sofla",
      "countryCode": "IR",
      "stateCode": "13",
      "latitude": "34.70083333",
      "longitude": "49.06972222"
   },
   {
      "name": "Qeshlaq-e Valiollah",
      "countryCode": "IR",
      "stateCode": "13",
      "latitude": "34.35222222",
      "longitude": "48.22416667"
   },
   {
      "name": "Qeydli Bolagh",
      "countryCode": "IR",
      "stateCode": "13",
      "latitude": "35.01500000",
      "longitude": "48.28750000"
   },
   {
      "name": "Qilab",
      "countryCode": "IR",
      "stateCode": "13",
      "latitude": "34.30444444",
      "longitude": "48.06083333"
   },
   {
      "name": "Qohurd-e Sofla",
      "countryCode": "IR",
      "stateCode": "13",
      "latitude": "35.47111100",
      "longitude": "48.05944400"
   },
   {
      "name": "Qoli Laleh-ye Sofla",
      "countryCode": "IR",
      "stateCode": "13",
      "latitude": "34.52805556",
      "longitude": "48.25972222"
   },
   {
      "name": "Qolqolabad",
      "countryCode": "IR",
      "stateCode": "13",
      "latitude": "35.13083333",
      "longitude": "49.29083333"
   },
   {
      "name": "Quch Tappeh",
      "countryCode": "IR",
      "stateCode": "13",
      "latitude": "34.92722222",
      "longitude": "48.02611111"
   },
   {
      "name": "Qushjeh",
      "countryCode": "IR",
      "stateCode": "13",
      "latitude": "35.66416667",
      "longitude": "48.30555556"
   },
   {
      "name": "Rahmanabad, Malayer",
      "countryCode": "IR",
      "stateCode": "13",
      "latitude": "34.08861111",
      "longitude": "48.58555556"
   },
   {
      "name": "Ramishan",
      "countryCode": "IR",
      "stateCode": "13",
      "latitude": "35.15972222",
      "longitude": "48.80500000"
   },
   {
      "name": "Rastguyan",
      "countryCode": "IR",
      "stateCode": "13",
      "latitude": "34.91666667",
      "longitude": "48.21666667"
   },
   {
      "name": "Rasulabad-e Sofla",
      "countryCode": "IR",
      "stateCode": "13",
      "latitude": "34.87888889",
      "longitude": "48.21861111"
   },
   {
      "name": "Ravand-e Vosta",
      "countryCode": "IR",
      "stateCode": "13",
      "latitude": "34.13333333",
      "longitude": "48.34916667"
   },
   {
      "name": "Rayegan-e Sofla",
      "countryCode": "IR",
      "stateCode": "13",
      "latitude": "35.07111100",
      "longitude": "48.66333300"
   },
   {
      "name": "Razaj",
      "countryCode": "IR",
      "stateCode": "13",
      "latitude": "34.89527778",
      "longitude": "49.14666667"
   },
   {
      "name": "Razan",
      "countryCode": "IR",
      "stateCode": "13",
      "latitude": "35.38638889",
      "longitude": "49.03361111"
   },
   {
      "name": "Razini",
      "countryCode": "IR",
      "stateCode": "13",
      "latitude": "34.26777778",
      "longitude": "48.12611111"
   },
   {
      "name": "Reza Baghi",
      "countryCode": "IR",
      "stateCode": "13",
      "latitude": "35.18277778",
      "longitude": "49.31444444"
   },
   {
      "name": "Rezvankadeh",
      "countryCode": "IR",
      "stateCode": "13",
      "latitude": "34.25000000",
      "longitude": "48.83333333"
   },
   {
      "name": "Rivasijan",
      "countryCode": "IR",
      "stateCode": "13",
      "latitude": "34.57722222",
      "longitude": "48.43194444"
   },
   {
      "name": "Robat-e Sheverin",
      "countryCode": "IR",
      "stateCode": "13",
      "latitude": "34.86111111",
      "longitude": "48.60027778"
   },
   {
      "name": "Rud Avar",
      "countryCode": "IR",
      "stateCode": "13",
      "latitude": "34.55055556",
      "longitude": "48.41055556"
   },
   {
      "name": "Rud-e Hasan-e Sofla",
      "countryCode": "IR",
      "stateCode": "13",
      "latitude": "34.12444444",
      "longitude": "48.37166667"
   },
   {
      "name": "Safa Riz",
      "countryCode": "IR",
      "stateCode": "13",
      "latitude": "35.40694444",
      "longitude": "48.30611111"
   },
   {
      "name": "Sahamabad",
      "countryCode": "IR",
      "stateCode": "13",
      "latitude": "34.55388889",
      "longitude": "48.30472222"
   },
   {
      "name": "Salehabad",
      "countryCode": "IR",
      "stateCode": "13",
      "latitude": "34.92361111",
      "longitude": "48.34250000"
   },
   {
      "name": "Salilak",
      "countryCode": "IR",
      "stateCode": "13",
      "latitude": "35.25277778",
      "longitude": "49.11888889"
   },
   {
      "name": "Saluk",
      "countryCode": "IR",
      "stateCode": "13",
      "latitude": "34.34138889",
      "longitude": "48.99305556"
   },
   {
      "name": "Samen",
      "countryCode": "IR",
      "stateCode": "13",
      "latitude": "34.20916667",
      "longitude": "48.70583333"
   },
   {
      "name": "Sanaj",
      "countryCode": "IR",
      "stateCode": "13",
      "latitude": "35.12222222",
      "longitude": "49.02555556"
   },
   {
      "name": "Sanjuzan",
      "countryCode": "IR",
      "stateCode": "13",
      "latitude": "34.65611111",
      "longitude": "48.39333333"
   },
   {
      "name": "Sar Duran",
      "countryCode": "IR",
      "stateCode": "13",
      "latitude": "34.20305556",
      "longitude": "48.26388889"
   },
   {
      "name": "Sarab-e Tajar",
      "countryCode": "IR",
      "stateCode": "13",
      "latitude": "34.23222222",
      "longitude": "48.60638889"
   },
   {
      "name": "Saravak",
      "countryCode": "IR",
      "stateCode": "13",
      "latitude": "35.17916667",
      "longitude": "48.94638889"
   },
   {
      "name": "Sarayjuq",
      "countryCode": "IR",
      "stateCode": "13",
      "latitude": "35.42888889",
      "longitude": "47.96194444"
   },
   {
      "name": "Sarijlu",
      "countryCode": "IR",
      "stateCode": "13",
      "latitude": "35.61250000",
      "longitude": "48.89222222"
   },
   {
      "name": "Sarkan",
      "countryCode": "IR",
      "stateCode": "13",
      "latitude": "34.60166667",
      "longitude": "48.45055556"
   },
   {
      "name": "Saziyan",
      "countryCode": "IR",
      "stateCode": "13",
      "latitude": "34.57361111",
      "longitude": "48.15361111"
   },
   {
      "name": "Sefid Khaneh",
      "countryCode": "IR",
      "stateCode": "13",
      "latitude": "34.06972222",
      "longitude": "48.50805556"
   },
   {
      "name": "Segavi",
      "countryCode": "IR",
      "stateCode": "13",
      "latitude": "34.58527778",
      "longitude": "48.10083333"
   },
   {
      "name": "Setaq",
      "countryCode": "IR",
      "stateCode": "13",
      "latitude": "35.04583300",
      "longitude": "49.29638900"
   },
   {
      "name": "Shademaneh",
      "countryCode": "IR",
      "stateCode": "13",
      "latitude": "34.36166667",
      "longitude": "48.28055556"
   },
   {
      "name": "Shanabad",
      "countryCode": "IR",
      "stateCode": "13",
      "latitude": "34.60888889",
      "longitude": "48.10416667"
   },
   {
      "name": "Shanjur",
      "countryCode": "IR",
      "stateCode": "13",
      "latitude": "35.29722222",
      "longitude": "49.17638889"
   },
   {
      "name": "Sharifabad-e Quzan",
      "countryCode": "IR",
      "stateCode": "13",
      "latitude": "34.41222222",
      "longitude": "48.82583333"
   },
   {
      "name": "Sharifabad-e Tajar",
      "countryCode": "IR",
      "stateCode": "13",
      "latitude": "34.26472222",
      "longitude": "48.63833333"
   },
   {
      "name": "Shatzal",
      "countryCode": "IR",
      "stateCode": "13",
      "latitude": "34.30305556",
      "longitude": "47.97388889"
   },
   {
      "name": "Shavand",
      "countryCode": "IR",
      "stateCode": "13",
      "latitude": "35.37527778",
      "longitude": "49.20972222"
   },
   {
      "name": "Sheverin",
      "countryCode": "IR",
      "stateCode": "13",
      "latitude": "34.80750000",
      "longitude": "48.57027778"
   },
   {
      "name": "Sheykh Jarrah",
      "countryCode": "IR",
      "stateCode": "13",
      "latitude": "35.50222222",
      "longitude": "48.22250000"
   },
   {
      "name": "Shilandar-e Sofla",
      "countryCode": "IR",
      "stateCode": "13",
      "latitude": "34.66750000",
      "longitude": "48.16861111"
   },
   {
      "name": "Shir Barat",
      "countryCode": "IR",
      "stateCode": "13",
      "latitude": "35.63333333",
      "longitude": "48.38250000"
   },
   {
      "name": "Shirin Su",
      "countryCode": "IR",
      "stateCode": "13",
      "latitude": "35.49277778",
      "longitude": "48.45055556"
   },
   {
      "name": "Shush Ab",
      "countryCode": "IR",
      "stateCode": "13",
      "latitude": "34.35361111",
      "longitude": "48.63222222"
   },
   {
      "name": "Siah Goleh",
      "countryCode": "IR",
      "stateCode": "13",
      "latitude": "34.94583333",
      "longitude": "47.96833333"
   },
   {
      "name": "Sib Dar",
      "countryCode": "IR",
      "stateCode": "13",
      "latitude": "34.21694444",
      "longitude": "48.78472222"
   },
   {
      "name": "Silvar",
      "countryCode": "IR",
      "stateCode": "13",
      "latitude": "34.74583333",
      "longitude": "48.50666667"
   },
   {
      "name": "Simin-e Abaru",
      "countryCode": "IR",
      "stateCode": "13",
      "latitude": "34.68250000",
      "longitude": "48.58583300"
   },
   {
      "name": "Simin-e Zagheh",
      "countryCode": "IR",
      "stateCode": "13",
      "latitude": "34.87666667",
      "longitude": "48.32166667"
   },
   {
      "name": "Siravand",
      "countryCode": "IR",
      "stateCode": "13",
      "latitude": "34.79527778",
      "longitude": "47.99638889"
   },
   {
      "name": "Sistaneh",
      "countryCode": "IR",
      "stateCode": "13",
      "latitude": "34.66333333",
      "longitude": "48.32055556"
   },
   {
      "name": "Solulan",
      "countryCode": "IR",
      "stateCode": "13",
      "latitude": "34.82611111",
      "longitude": "48.42944444"
   },
   {
      "name": "Sorkh Kand",
      "countryCode": "IR",
      "stateCode": "13",
      "latitude": "34.08750000",
      "longitude": "48.42916667"
   },
   {
      "name": "Sulijeh",
      "countryCode": "IR",
      "stateCode": "13",
      "latitude": "35.26860000",
      "longitude": "48.33440000"
   },
   {
      "name": "Surtajin",
      "countryCode": "IR",
      "stateCode": "13",
      "latitude": "35.53560000",
      "longitude": "49.01390000"
   },
   {
      "name": "Sutlaq",
      "countryCode": "IR",
      "stateCode": "13",
      "latitude": "34.57640000",
      "longitude": "48.27750000"
   },
   {
      "name": "Tafrijan",
      "countryCode": "IR",
      "stateCode": "13",
      "latitude": "34.76330000",
      "longitude": "48.58190000"
   },
   {
      "name": "Tahunabad",
      "countryCode": "IR",
      "stateCode": "13",
      "latitude": "34.83860000",
      "longitude": "48.86640000"
   },
   {
      "name": "Tajar-e Samen",
      "countryCode": "IR",
      "stateCode": "13",
      "latitude": "34.22560000",
      "longitude": "48.66500000"
   },
   {
      "name": "Takhtiabad",
      "countryCode": "IR",
      "stateCode": "13",
      "latitude": "34.81220000",
      "longitude": "47.83780000"
   },
   {
      "name": "Taleh Jerd-e Sofla",
      "countryCode": "IR",
      "stateCode": "13",
      "latitude": "34.04580000",
      "longitude": "48.87780000"
   },
   {
      "name": "Tamuzan",
      "countryCode": "IR",
      "stateCode": "13",
      "latitude": "35.27970000",
      "longitude": "49.13280000"
   },
   {
      "name": "Tappeh Yazdan",
      "countryCode": "IR",
      "stateCode": "13",
      "latitude": "34.33670000",
      "longitude": "48.02250000"
   },
   {
      "name": "Tappeh-ye Dibi",
      "countryCode": "IR",
      "stateCode": "13",
      "latitude": "35.42920000",
      "longitude": "48.69420000"
   },
   {
      "name": "Taraqayah",
      "countryCode": "IR",
      "stateCode": "13",
      "latitude": "35.31890000",
      "longitude": "48.37110000"
   },
   {
      "name": "Tarik Darreh-ye Bala",
      "countryCode": "IR",
      "stateCode": "13",
      "latitude": "34.27330000",
      "longitude": "47.93920000"
   },
   {
      "name": "Tarkhinabad",
      "countryCode": "IR",
      "stateCode": "13",
      "latitude": "34.81530000",
      "longitude": "48.12250000"
   },
   {
      "name": "Tas Tappeh",
      "countryCode": "IR",
      "stateCode": "13",
      "latitude": "35.16390000",
      "longitude": "48.48330000"
   },
   {
      "name": "Tasbandi",
      "countryCode": "IR",
      "stateCode": "13",
      "latitude": "34.56140000",
      "longitude": "48.79060000"
   },
   {
      "name": "Tasran",
      "countryCode": "IR",
      "stateCode": "13",
      "latitude": "35.33830000",
      "longitude": "48.63390000"
   },
   {
      "name": "Tavaleh",
      "countryCode": "IR",
      "stateCode": "13",
      "latitude": "35.15440000",
      "longitude": "49.04390000"
   },
   {
      "name": "Tavaneh",
      "countryCode": "IR",
      "stateCode": "13",
      "latitude": "34.21138900",
      "longitude": "48.18583300"
   },
   {
      "name": "Taveh",
      "countryCode": "IR",
      "stateCode": "13",
      "latitude": "35.11670000",
      "longitude": "49.02720000"
   },
   {
      "name": "Tavilan-e Sofla",
      "countryCode": "IR",
      "stateCode": "13",
      "latitude": "34.79940000",
      "longitude": "47.86940000"
   },
   {
      "name": "Tazehnab-e Sofla",
      "countryCode": "IR",
      "stateCode": "13",
      "latitude": "34.09780000",
      "longitude": "48.31530000"
   },
   {
      "name": "Termianak",
      "countryCode": "IR",
      "stateCode": "13",
      "latitude": "34.63190000",
      "longitude": "48.17360000"
   },
   {
      "name": "Timi Jan",
      "countryCode": "IR",
      "stateCode": "13",
      "latitude": "34.69030000",
      "longitude": "48.34140000"
   },
   {
      "name": "Tuchaqaz",
      "countryCode": "IR",
      "stateCode": "13",
      "latitude": "34.29970000",
      "longitude": "48.71500000"
   },
   {
      "name": "Tulki Tappeh",
      "countryCode": "IR",
      "stateCode": "13",
      "latitude": "35.49530000",
      "longitude": "48.95780000"
   },
   {
      "name": "Tusk-e Sofla",
      "countryCode": "IR",
      "stateCode": "13",
      "latitude": "34.25000000",
      "longitude": "48.99000000"
   },
   {
      "name": "Tutal",
      "countryCode": "IR",
      "stateCode": "13",
      "latitude": "34.51500000",
      "longitude": "49.02140000"
   },
   {
      "name": "Tuyserkan",
      "countryCode": "IR",
      "stateCode": "13",
      "latitude": "34.54805556",
      "longitude": "48.44666667"
   },
   {
      "name": "Vafr-e Jin",
      "countryCode": "IR",
      "stateCode": "13",
      "latitude": "34.81030000",
      "longitude": "48.38420000"
   },
   {
      "name": "Vahandeh",
      "countryCode": "IR",
      "stateCode": "13",
      "latitude": "35.50940000",
      "longitude": "49.04750000"
   },
   {
      "name": "Vahman",
      "countryCode": "IR",
      "stateCode": "13",
      "latitude": "34.26080000",
      "longitude": "48.27080000"
   },
   {
      "name": "Vahnan",
      "countryCode": "IR",
      "stateCode": "13",
      "latitude": "34.79000000",
      "longitude": "48.28860000"
   },
   {
      "name": "Vali Mohammad",
      "countryCode": "IR",
      "stateCode": "13",
      "latitude": "35.15190000",
      "longitude": "48.38060000"
   },
   {
      "name": "Vali Sir Ab",
      "countryCode": "IR",
      "stateCode": "13",
      "latitude": "34.23280000",
      "longitude": "48.18940000"
   },
   {
      "name": "Vandarabad",
      "countryCode": "IR",
      "stateCode": "13",
      "latitude": "34.66970000",
      "longitude": "48.07890000"
   },
   {
      "name": "Varayeneh",
      "countryCode": "IR",
      "stateCode": "13",
      "latitude": "34.07920000",
      "longitude": "48.40560000"
   },
   {
      "name": "Varazaneh",
      "countryCode": "IR",
      "stateCode": "13",
      "latitude": "34.18640000",
      "longitude": "48.18610000"
   },
   {
      "name": "Varchaq",
      "countryCode": "IR",
      "stateCode": "13",
      "latitude": "34.37170000",
      "longitude": "48.89780000"
   },
   {
      "name": "Vardavard-e Sofla",
      "countryCode": "IR",
      "stateCode": "13",
      "latitude": "34.70030000",
      "longitude": "48.29390000"
   },
   {
      "name": "Vardavard-e Vosta",
      "countryCode": "IR",
      "stateCode": "13",
      "latitude": "34.70440000",
      "longitude": "48.30170000"
   },
   {
      "name": "Varkaneh",
      "countryCode": "IR",
      "stateCode": "13",
      "latitude": "34.67690000",
      "longitude": "48.61920000"
   },
   {
      "name": "Varqestan",
      "countryCode": "IR",
      "stateCode": "13",
      "latitude": "35.39640000",
      "longitude": "49.00920000"
   },
   {
      "name": "Varvazin",
      "countryCode": "IR",
      "stateCode": "13",
      "latitude": "35.36580000",
      "longitude": "48.96060000"
   },
   {
      "name": "Vasaj",
      "countryCode": "IR",
      "stateCode": "13",
      "latitude": "34.32060000",
      "longitude": "48.22580000"
   },
   {
      "name": "Vashur",
      "countryCode": "IR",
      "stateCode": "13",
      "latitude": "35.23170000",
      "longitude": "48.35170000"
   },
   {
      "name": "Vasleh",
      "countryCode": "IR",
      "stateCode": "13",
      "latitude": "35.21280000",
      "longitude": "48.34640000"
   },
   {
      "name": "Vesht",
      "countryCode": "IR",
      "stateCode": "13",
      "latitude": "34.13860000",
      "longitude": "48.46830000"
   },
   {
      "name": "Vezendan",
      "countryCode": "IR",
      "stateCode": "13",
      "latitude": "34.95810000",
      "longitude": "49.31250000"
   },
   {
      "name": "Yalfan",
      "countryCode": "IR",
      "stateCode": "13",
      "latitude": "34.73640000",
      "longitude": "48.61110000"
   },
   {
      "name": "Yarom Qayah",
      "countryCode": "IR",
      "stateCode": "13",
      "latitude": "35.06890000",
      "longitude": "49.38170000"
   },
   {
      "name": "Yaromjeh Bagh",
      "countryCode": "IR",
      "stateCode": "13",
      "latitude": "35.51750000",
      "longitude": "48.67640000"
   },
   {
      "name": "Yeganeh",
      "countryCode": "IR",
      "stateCode": "13",
      "latitude": "34.80720000",
      "longitude": "48.63780000"
   },
   {
      "name": "Yekanabad",
      "countryCode": "IR",
      "stateCode": "13",
      "latitude": "34.87360000",
      "longitude": "48.45420000"
   },
   {
      "name": "Yekleh",
      "countryCode": "IR",
      "stateCode": "13",
      "latitude": "34.87777800",
      "longitude": "49.00666700"
   },
   {
      "name": "Yeserlu",
      "countryCode": "IR",
      "stateCode": "13",
      "latitude": "35.06110000",
      "longitude": "48.78360000"
   },
   {
      "name": "Yunes",
      "countryCode": "IR",
      "stateCode": "13",
      "latitude": "34.15860000",
      "longitude": "48.67330000"
   },
   {
      "name": "Yunji",
      "countryCode": "IR",
      "stateCode": "13",
      "latitude": "34.35860000",
      "longitude": "48.78170000"
   },
   {
      "name": "Zagheh-ye Anuch",
      "countryCode": "IR",
      "stateCode": "13",
      "latitude": "34.14780000",
      "longitude": "48.55420000"
   },
   {
      "name": "Zagheh-ye Tasbandi",
      "countryCode": "IR",
      "stateCode": "13",
      "latitude": "34.60360000",
      "longitude": "48.81110000"
   },
   {
      "name": "Zaghlijeh",
      "countryCode": "IR",
      "stateCode": "13",
      "latitude": "35.15280000",
      "longitude": "49.37580000"
   },
   {
      "name": "Zamanabad-e Mohammadabad",
      "countryCode": "IR",
      "stateCode": "13",
      "latitude": "34.41250000",
      "longitude": "48.64220000"
   },
   {
      "name": "Zangeneh-ye Sofla",
      "countryCode": "IR",
      "stateCode": "13",
      "latitude": "34.14670000",
      "longitude": "49.01670000"
   },
   {
      "name": "Zapon",
      "countryCode": "IR",
      "stateCode": "13",
      "latitude": "34.38390000",
      "longitude": "48.18940000"
   },
   {
      "name": "Zaramin-e Sofla",
      "countryCode": "IR",
      "stateCode": "13",
      "latitude": "34.19360000",
      "longitude": "48.30000000"
   },
   {
      "name": "Zarrin Bagh",
      "countryCode": "IR",
      "stateCode": "13",
      "latitude": "34.29470000",
      "longitude": "48.05190000"
   },
   {
      "name": "Zeraq",
      "countryCode": "IR",
      "stateCode": "13",
      "latitude": "35.07140000",
      "longitude": "49.16940000"
   },
   {
      "name": "Zirabiyeh",
      "countryCode": "IR",
      "stateCode": "13",
      "latitude": "34.41330000",
      "longitude": "48.61690000"
   }
]