[
   {
      "name": "Acopinalco del Peñón",
      "countryCode": "MX",
      "stateCode": "TLA",
      "latitude": "19.65929000",
      "longitude": "-98.16299000"
   },
   {
      "name": "Acuamanala",
      "countryCode": "MX",
      "stateCode": "TLA",
      "latitude": "19.22361000",
      "longitude": "-98.20056000"
   },
   {
      "name": "Acuitlapilco",
      "countryCode": "MX",
      "stateCode": "TLA",
      "latitude": "19.27333000",
      "longitude": "-98.23542000"
   },
   {
      "name": "Acxotla del Monte",
      "countryCode": "MX",
      "stateCode": "TLA",
      "latitude": "19.25208000",
      "longitude": "-98.16777000"
   },
   {
      "name": "Acxotla del Río",
      "countryCode": "MX",
      "stateCode": "TLA",
      "latitude": "19.32417000",
      "longitude": "-98.23750000"
   },
   {
      "name": "Altzayanca",
      "countryCode": "MX",
      "stateCode": "TLA",
      "latitude": "19.43121000",
      "longitude": "-97.79555000"
   },
   {
      "name": "Amaxac de Guerrero",
      "countryCode": "MX",
      "stateCode": "TLA",
      "latitude": "19.34661000",
      "longitude": "-98.17057000"
   },
   {
      "name": "Apetatitlán Antonio Carbajal",
      "countryCode": "MX",
      "stateCode": "TLA",
      "latitude": "19.33622000",
      "longitude": "-98.17912000"
   },
   {
      "name": "Apizaco",
      "countryCode": "MX",
      "stateCode": "TLA",
      "latitude": "19.41333000",
      "longitude": "-98.14358000"
   },
   {
      "name": "Atexcatzingo",
      "countryCode": "MX",
      "stateCode": "TLA",
      "latitude": "19.46882000",
      "longitude": "-98.14716000"
   },
   {
      "name": "Atlangatepec",
      "countryCode": "MX",
      "stateCode": "TLA",
      "latitude": "19.53220000",
      "longitude": "-98.20888000"
   },
   {
      "name": "Atlzayanca",
      "countryCode": "MX",
      "stateCode": "TLA",
      "latitude": "19.43111000",
      "longitude": "-97.79556000"
   },
   {
      "name": "Ayometitla",
      "countryCode": "MX",
      "stateCode": "TLA",
      "latitude": "19.20722000",
      "longitude": "-98.19306000"
   },
   {
      "name": "Belén Atzitzimititlán",
      "countryCode": "MX",
      "stateCode": "TLA",
      "latitude": "19.34694000",
      "longitude": "-98.19000000"
   },
   {
      "name": "Benito Juárez",
      "countryCode": "MX",
      "stateCode": "TLA",
      "latitude": "19.37391000",
      "longitude": "-97.90900000"
   },
   {
      "name": "Calpulalpan",
      "countryCode": "MX",
      "stateCode": "TLA",
      "latitude": "19.58867000",
      "longitude": "-98.56972000"
   },
   {
      "name": "Capula",
      "countryCode": "MX",
      "stateCode": "TLA",
      "latitude": "19.53642000",
      "longitude": "-98.04219000"
   },
   {
      "name": "Ciudad de Nanacamilpa",
      "countryCode": "MX",
      "stateCode": "TLA",
      "latitude": "19.49339000",
      "longitude": "-98.53665000"
   },
   {
      "name": "Colonia Cuauhtémoc",
      "countryCode": "MX",
      "stateCode": "TLA",
      "latitude": "19.33182000",
      "longitude": "-97.96487000"
   },
   {
      "name": "Colonia Ignacio Allende",
      "countryCode": "MX",
      "stateCode": "TLA",
      "latitude": "19.35667000",
      "longitude": "-97.78389000"
   },
   {
      "name": "Colonia San Isidro",
      "countryCode": "MX",
      "stateCode": "TLA",
      "latitude": "19.41167000",
      "longitude": "-98.11278000"
   },
   {
      "name": "Colonia Venustiano Carranza",
      "countryCode": "MX",
      "stateCode": "TLA",
      "latitude": "19.40005000",
      "longitude": "-98.05822000"
   },
   {
      "name": "Concepción Chimalpa",
      "countryCode": "MX",
      "stateCode": "TLA",
      "latitude": "19.21639000",
      "longitude": "-98.19806000"
   },
   {
      "name": "Concepción Hidalgo",
      "countryCode": "MX",
      "stateCode": "TLA",
      "latitude": "19.39810000",
      "longitude": "-97.81951000"
   },
   {
      "name": "Contla",
      "countryCode": "MX",
      "stateCode": "TLA",
      "latitude": "19.32932000",
      "longitude": "-98.16640000"
   },
   {
      "name": "Cuapiaxtla",
      "countryCode": "MX",
      "stateCode": "TLA",
      "latitude": "19.29588000",
      "longitude": "-97.76880000"
   },
   {
      "name": "Cuaxomulco",
      "countryCode": "MX",
      "stateCode": "TLA",
      "latitude": "19.35264000",
      "longitude": "-98.09670000"
   },
   {
      "name": "El Carmen Aztama",
      "countryCode": "MX",
      "stateCode": "TLA",
      "latitude": "19.22972000",
      "longitude": "-98.21944000"
   },
   {
      "name": "El Carmen Xalpatlahuaya",
      "countryCode": "MX",
      "stateCode": "TLA",
      "latitude": "19.39193000",
      "longitude": "-97.98167000"
   },
   {
      "name": "El Rosario",
      "countryCode": "MX",
      "stateCode": "TLA",
      "latitude": "19.66109000",
      "longitude": "-98.22892000"
   },
   {
      "name": "Emiliano Zapata",
      "countryCode": "MX",
      "stateCode": "TLA",
      "latitude": "19.55861000",
      "longitude": "-97.91667000"
   },
   {
      "name": "Felipe Carrillo Puerto",
      "countryCode": "MX",
      "stateCode": "TLA",
      "latitude": "19.39922000",
      "longitude": "-97.85520000"
   },
   {
      "name": "Fraccionamiento la Virgen",
      "countryCode": "MX",
      "stateCode": "TLA",
      "latitude": "19.32306000",
      "longitude": "-98.27389000"
   },
   {
      "name": "Francisco I. Madero",
      "countryCode": "MX",
      "stateCode": "TLA",
      "latitude": "19.52096000",
      "longitude": "-98.49052000"
   },
   {
      "name": "Francisco Villa",
      "countryCode": "MX",
      "stateCode": "TLA",
      "latitude": "19.58630000",
      "longitude": "-98.46225000"
   },
   {
      "name": "Guadalupe Hidalgo",
      "countryCode": "MX",
      "stateCode": "TLA",
      "latitude": "19.22611000",
      "longitude": "-98.18750000"
   },
   {
      "name": "Guadalupe Texcalac",
      "countryCode": "MX",
      "stateCode": "TLA",
      "latitude": "19.43839000",
      "longitude": "-98.07806000"
   },
   {
      "name": "Guadalupe Tlachco",
      "countryCode": "MX",
      "stateCode": "TLA",
      "latitude": "19.32852000",
      "longitude": "-98.11044000"
   },
   {
      "name": "Hualcaltzinco",
      "countryCode": "MX",
      "stateCode": "TLA",
      "latitude": "19.40056000",
      "longitude": "-98.16000000"
   },
   {
      "name": "Huamantla",
      "countryCode": "MX",
      "stateCode": "TLA",
      "latitude": "19.31451000",
      "longitude": "-97.92520000"
   },
   {
      "name": "Hueyotlipan",
      "countryCode": "MX",
      "stateCode": "TLA",
      "latitude": "19.47088000",
      "longitude": "-98.34778000"
   },
   {
      "name": "Huiloapan",
      "countryCode": "MX",
      "stateCode": "TLA",
      "latitude": "19.38679000",
      "longitude": "-98.26992000"
   },
   {
      "name": "Ignacio Zaragoza",
      "countryCode": "MX",
      "stateCode": "TLA",
      "latitude": "19.29228000",
      "longitude": "-97.92122000"
   },
   {
      "name": "Jesús Huitznahuac",
      "countryCode": "MX",
      "stateCode": "TLA",
      "latitude": "19.34251000",
      "longitude": "-98.12807000"
   },
   {
      "name": "Jesús Tepactepec",
      "countryCode": "MX",
      "stateCode": "TLA",
      "latitude": "19.22917000",
      "longitude": "-98.31417000"
   },
   {
      "name": "José María Morelos",
      "countryCode": "MX",
      "stateCode": "TLA",
      "latitude": "19.31750000",
      "longitude": "-97.97789000"
   },
   {
      "name": "La Aurora",
      "countryCode": "MX",
      "stateCode": "TLA",
      "latitude": "19.25680000",
      "longitude": "-98.22320000"
   },
   {
      "name": "La Candelaria Teotlalpan",
      "countryCode": "MX",
      "stateCode": "TLA",
      "latitude": "19.33306000",
      "longitude": "-98.22556000"
   },
   {
      "name": "La Magdalena Tlaltelulco",
      "countryCode": "MX",
      "stateCode": "TLA",
      "latitude": "19.28287000",
      "longitude": "-98.19609000"
   },
   {
      "name": "La Soledad",
      "countryCode": "MX",
      "stateCode": "TLA",
      "latitude": "19.53841000",
      "longitude": "-98.61750000"
   },
   {
      "name": "La Trinidad Chimalpa",
      "countryCode": "MX",
      "stateCode": "TLA",
      "latitude": "19.32944000",
      "longitude": "-98.24528000"
   },
   {
      "name": "La Trinidad Tenexyecac",
      "countryCode": "MX",
      "stateCode": "TLA",
      "latitude": "19.33596000",
      "longitude": "-98.31476000"
   },
   {
      "name": "Lagunilla",
      "countryCode": "MX",
      "stateCode": "TLA",
      "latitude": "19.63607000",
      "longitude": "-98.27434000"
   },
   {
      "name": "Los Pilares",
      "countryCode": "MX",
      "stateCode": "TLA",
      "latitude": "19.27159000",
      "longitude": "-97.94703000"
   },
   {
      "name": "Los Reyes Quiahuixtlan",
      "countryCode": "MX",
      "stateCode": "TLA",
      "latitude": "19.33955000",
      "longitude": "-98.25155000"
   },
   {
      "name": "Lázaro Cárdenas",
      "countryCode": "MX",
      "stateCode": "TLA",
      "latitude": "19.53750000",
      "longitude": "-97.98222000"
   },
   {
      "name": "Mazapa",
      "countryCode": "MX",
      "stateCode": "TLA",
      "latitude": "19.54083000",
      "longitude": "-98.55684000"
   },
   {
      "name": "Mazatecochco",
      "countryCode": "MX",
      "stateCode": "TLA",
      "latitude": "19.17865000",
      "longitude": "-98.18677000"
   },
   {
      "name": "Muñoz",
      "countryCode": "MX",
      "stateCode": "TLA",
      "latitude": "19.47458000",
      "longitude": "-98.20963000"
   },
   {
      "name": "Natívitas",
      "countryCode": "MX",
      "stateCode": "TLA",
      "latitude": "19.23333000",
      "longitude": "-98.31472000"
   },
   {
      "name": "Nicolás Bravo",
      "countryCode": "MX",
      "stateCode": "TLA",
      "latitude": "19.42213000",
      "longitude": "-97.96759000"
   },
   {
      "name": "Panotla",
      "countryCode": "MX",
      "stateCode": "TLA",
      "latitude": "19.31619000",
      "longitude": "-98.27013000"
   },
   {
      "name": "Papalotla",
      "countryCode": "MX",
      "stateCode": "TLA",
      "latitude": "19.16861000",
      "longitude": "-98.20389000"
   },
   {
      "name": "Ranchería de Pocitos",
      "countryCode": "MX",
      "stateCode": "TLA",
      "latitude": "19.39389000",
      "longitude": "-97.75944000"
   },
   {
      "name": "San Andrés Ahuashuatepec",
      "countryCode": "MX",
      "stateCode": "TLA",
      "latitude": "19.37831000",
      "longitude": "-98.10654000"
   },
   {
      "name": "San Bartolomé Cuahuixmatlac",
      "countryCode": "MX",
      "stateCode": "TLA",
      "latitude": "19.29333000",
      "longitude": "-98.14806000"
   },
   {
      "name": "San Bartolomé Tenango",
      "countryCode": "MX",
      "stateCode": "TLA",
      "latitude": "19.25253000",
      "longitude": "-98.29172000"
   },
   {
      "name": "San Benito Xaltocan",
      "countryCode": "MX",
      "stateCode": "TLA",
      "latitude": "19.40594000",
      "longitude": "-98.16683000"
   },
   {
      "name": "San Buenaventura Atempan",
      "countryCode": "MX",
      "stateCode": "TLA",
      "latitude": "19.32667000",
      "longitude": "-98.22194000"
   },
   {
      "name": "San Cosme Atlamaxac",
      "countryCode": "MX",
      "stateCode": "TLA",
      "latitude": "19.23840000",
      "longitude": "-98.22513000"
   },
   {
      "name": "San Damián Texoloc",
      "countryCode": "MX",
      "stateCode": "TLA",
      "latitude": "19.27833000",
      "longitude": "-98.28544000"
   },
   {
      "name": "San Esteban Tizatlán",
      "countryCode": "MX",
      "stateCode": "TLA",
      "latitude": "19.33911000",
      "longitude": "-98.21374000"
   },
   {
      "name": "San Felipe Sultepec",
      "countryCode": "MX",
      "stateCode": "TLA",
      "latitude": "19.59083000",
      "longitude": "-98.61528000"
   },
   {
      "name": "San Francisco Cuexcontzi",
      "countryCode": "MX",
      "stateCode": "TLA",
      "latitude": "19.32023000",
      "longitude": "-97.71092000"
   },
   {
      "name": "San Francisco Temetzontla",
      "countryCode": "MX",
      "stateCode": "TLA",
      "latitude": "19.35028000",
      "longitude": "-98.28861000"
   },
   {
      "name": "San Francisco Tlacuilohcan",
      "countryCode": "MX",
      "stateCode": "TLA",
      "latitude": "19.40167000",
      "longitude": "-98.19278000"
   },
   {
      "name": "San Hipólito Chimalpa",
      "countryCode": "MX",
      "stateCode": "TLA",
      "latitude": "19.31963000",
      "longitude": "-98.25004000"
   },
   {
      "name": "San Isidro Buen Suceso",
      "countryCode": "MX",
      "stateCode": "TLA",
      "latitude": "19.15489000",
      "longitude": "-98.10492000"
   },
   {
      "name": "San Jerónimo Zacualpan",
      "countryCode": "MX",
      "stateCode": "TLA",
      "latitude": "19.24083000",
      "longitude": "-98.26139000"
   },
   {
      "name": "San Jorge Tezoquipan",
      "countryCode": "MX",
      "stateCode": "TLA",
      "latitude": "19.32094000",
      "longitude": "-98.31319000"
   },
   {
      "name": "San José Atoyatenco",
      "countryCode": "MX",
      "stateCode": "TLA",
      "latitude": "19.25083000",
      "longitude": "-98.35528000"
   },
   {
      "name": "San José Aztatla",
      "countryCode": "MX",
      "stateCode": "TLA",
      "latitude": "19.31004000",
      "longitude": "-98.12655000"
   },
   {
      "name": "San José Cuamantzingo",
      "countryCode": "MX",
      "stateCode": "TLA",
      "latitude": "19.51555000",
      "longitude": "-98.25373000"
   },
   {
      "name": "San José Teacalco",
      "countryCode": "MX",
      "stateCode": "TLA",
      "latitude": "19.33558000",
      "longitude": "-98.06455000"
   },
   {
      "name": "San José Tepeyahualco",
      "countryCode": "MX",
      "stateCode": "TLA",
      "latitude": "19.59944000",
      "longitude": "-98.26889000"
   },
   {
      "name": "San José Tetel",
      "countryCode": "MX",
      "stateCode": "TLA",
      "latitude": "19.43313000",
      "longitude": "-98.15948000"
   },
   {
      "name": "San José Villarreal",
      "countryCode": "MX",
      "stateCode": "TLA",
      "latitude": "19.53278000",
      "longitude": "-97.89750000"
   },
   {
      "name": "San José Xicohténcatl",
      "countryCode": "MX",
      "stateCode": "TLA",
      "latitude": "19.35440000",
      "longitude": "-97.83081000"
   },
   {
      "name": "San Juan Quetzalcoapan",
      "countryCode": "MX",
      "stateCode": "TLA",
      "latitude": "19.37947000",
      "longitude": "-98.07113000"
   },
   {
      "name": "San Lorenzo Axocomanitla",
      "countryCode": "MX",
      "stateCode": "TLA",
      "latitude": "19.22389000",
      "longitude": "-98.24861000"
   },
   {
      "name": "San Lorenzo Sóltepec",
      "countryCode": "MX",
      "stateCode": "TLA",
      "latitude": "19.60422000",
      "longitude": "-98.31356000"
   },
   {
      "name": "San Lorenzo Xaltelulco",
      "countryCode": "MX",
      "stateCode": "TLA",
      "latitude": "19.34075000",
      "longitude": "-98.10585000"
   },
   {
      "name": "San Lucas Tecopilco",
      "countryCode": "MX",
      "stateCode": "TLA",
      "latitude": "19.48626000",
      "longitude": "-98.25605000"
   },
   {
      "name": "San Lucas Tlacochcalco",
      "countryCode": "MX",
      "stateCode": "TLA",
      "latitude": "19.34261000",
      "longitude": "-98.14641000"
   },
   {
      "name": "San Luis Apizaquito",
      "countryCode": "MX",
      "stateCode": "TLA",
      "latitude": "19.42524000",
      "longitude": "-98.11709000"
   },
   {
      "name": "San Marcos Contla",
      "countryCode": "MX",
      "stateCode": "TLA",
      "latitude": "19.19923000",
      "longitude": "-98.19950000"
   },
   {
      "name": "San Matías Tepetomatitlán",
      "countryCode": "MX",
      "stateCode": "TLA",
      "latitude": "19.35389000",
      "longitude": "-98.19490000"
   },
   {
      "name": "San Miguel Contla",
      "countryCode": "MX",
      "stateCode": "TLA",
      "latitude": "19.36111000",
      "longitude": "-98.13250000"
   },
   {
      "name": "San Miguel Tlamahuco",
      "countryCode": "MX",
      "stateCode": "TLA",
      "latitude": "19.32417000",
      "longitude": "-98.23972000"
   },
   {
      "name": "San Miguel Xochitecatitla",
      "countryCode": "MX",
      "stateCode": "TLA",
      "latitude": "19.23877000",
      "longitude": "-98.35422000"
   },
   {
      "name": "San Pedro Ecatepec",
      "countryCode": "MX",
      "stateCode": "TLA",
      "latitude": "19.52158000",
      "longitude": "-98.15468000"
   },
   {
      "name": "San Pedro Muñoztla",
      "countryCode": "MX",
      "stateCode": "TLA",
      "latitude": "19.28167000",
      "longitude": "-98.16693000"
   },
   {
      "name": "San Pedro Tlacotepec",
      "countryCode": "MX",
      "stateCode": "TLA",
      "latitude": "19.39579000",
      "longitude": "-98.04589000"
   },
   {
      "name": "San Pedro Xalcaltzinco",
      "countryCode": "MX",
      "stateCode": "TLA",
      "latitude": "19.22778000",
      "longitude": "-98.22806000"
   },
   {
      "name": "San Pedro Xochiteotla",
      "countryCode": "MX",
      "stateCode": "TLA",
      "latitude": "19.30788000",
      "longitude": "-98.13858000"
   },
   {
      "name": "San Rafael Tenanyecac",
      "countryCode": "MX",
      "stateCode": "TLA",
      "latitude": "19.24786000",
      "longitude": "-98.37121000"
   },
   {
      "name": "San Rafael Tepatlaxco",
      "countryCode": "MX",
      "stateCode": "TLA",
      "latitude": "19.29833000",
      "longitude": "-98.11972000"
   },
   {
      "name": "San Simeón Xipetzingo",
      "countryCode": "MX",
      "stateCode": "TLA",
      "latitude": "19.48004000",
      "longitude": "-98.29284000"
   },
   {
      "name": "San Simón Tlatlahuquitepec",
      "countryCode": "MX",
      "stateCode": "TLA",
      "latitude": "19.39842000",
      "longitude": "-98.22396000"
   },
   {
      "name": "Sanctórum",
      "countryCode": "MX",
      "stateCode": "TLA",
      "latitude": "19.49333000",
      "longitude": "-98.47156000"
   },
   {
      "name": "Santa Ana Chiautempan",
      "countryCode": "MX",
      "stateCode": "TLA",
      "latitude": "19.30661000",
      "longitude": "-98.18773000"
   },
   {
      "name": "Santa Anita Huiloac",
      "countryCode": "MX",
      "stateCode": "TLA",
      "latitude": "19.38841000",
      "longitude": "-98.14362000"
   },
   {
      "name": "Santa Apolonia Teacalco",
      "countryCode": "MX",
      "stateCode": "TLA",
      "latitude": "19.24153000",
      "longitude": "-98.31188000"
   },
   {
      "name": "Santa Catarina Ayometla",
      "countryCode": "MX",
      "stateCode": "TLA",
      "latitude": "19.19833000",
      "longitude": "-98.21361000"
   },
   {
      "name": "Santa Cruz Aquiahuac",
      "countryCode": "MX",
      "stateCode": "TLA",
      "latitude": "19.23944000",
      "longitude": "-98.28222000"
   },
   {
      "name": "Santa Cruz Pocitos",
      "countryCode": "MX",
      "stateCode": "TLA",
      "latitude": "19.37924000",
      "longitude": "-97.76116000"
   },
   {
      "name": "Santa Cruz Tetela",
      "countryCode": "MX",
      "stateCode": "TLA",
      "latitude": "19.29250000",
      "longitude": "-98.20778000"
   },
   {
      "name": "Santa Isabel Xiloxoxtla",
      "countryCode": "MX",
      "stateCode": "TLA",
      "latitude": "19.26786000",
      "longitude": "-98.21399000"
   },
   {
      "name": "Santa Justina Ecatepec",
      "countryCode": "MX",
      "stateCode": "TLA",
      "latitude": "19.31083000",
      "longitude": "-98.35500000"
   },
   {
      "name": "Santa María Atlihuetzian",
      "countryCode": "MX",
      "stateCode": "TLA",
      "latitude": "19.37697000",
      "longitude": "-98.17775000"
   },
   {
      "name": "Santa María Ixtulco",
      "countryCode": "MX",
      "stateCode": "TLA",
      "latitude": "19.32529000",
      "longitude": "-98.20843000"
   },
   {
      "name": "Santa María Texcalac",
      "countryCode": "MX",
      "stateCode": "TLA",
      "latitude": "19.42333000",
      "longitude": "-98.08663000"
   },
   {
      "name": "Santiago Michac",
      "countryCode": "MX",
      "stateCode": "TLA",
      "latitude": "19.21985000",
      "longitude": "-98.33932000"
   },
   {
      "name": "Santiago Tepeticpac",
      "countryCode": "MX",
      "stateCode": "TLA",
      "latitude": "19.33476000",
      "longitude": "-98.22692000"
   },
   {
      "name": "Santiago Tlacochcalco",
      "countryCode": "MX",
      "stateCode": "TLA",
      "latitude": "19.26861000",
      "longitude": "-98.22306000"
   },
   {
      "name": "Santo Tomás la Concordia",
      "countryCode": "MX",
      "stateCode": "TLA",
      "latitude": "19.22917000",
      "longitude": "-98.31944000"
   },
   {
      "name": "Tenancingo",
      "countryCode": "MX",
      "stateCode": "TLA",
      "latitude": "19.14725000",
      "longitude": "-98.20132000"
   },
   {
      "name": "Teolocholco",
      "countryCode": "MX",
      "stateCode": "TLA",
      "latitude": "19.24333000",
      "longitude": "-98.19083000"
   },
   {
      "name": "Tepetitla",
      "countryCode": "MX",
      "stateCode": "TLA",
      "latitude": "19.26531000",
      "longitude": "-98.37645000"
   },
   {
      "name": "Tepeyanco",
      "countryCode": "MX",
      "stateCode": "TLA",
      "latitude": "19.24558000",
      "longitude": "-98.23409000"
   },
   {
      "name": "Terrenate",
      "countryCode": "MX",
      "stateCode": "TLA",
      "latitude": "19.47666000",
      "longitude": "-97.92020000"
   },
   {
      "name": "Tetla",
      "countryCode": "MX",
      "stateCode": "TLA",
      "latitude": "19.44204000",
      "longitude": "-98.10325000"
   },
   {
      "name": "Tetlanohcán",
      "countryCode": "MX",
      "stateCode": "TLA",
      "latitude": "19.26030000",
      "longitude": "-98.16433000"
   },
   {
      "name": "Tlatempan",
      "countryCode": "MX",
      "stateCode": "TLA",
      "latitude": "19.33167000",
      "longitude": "-98.20306000"
   },
   {
      "name": "Tlaxcala",
      "countryCode": "MX",
      "stateCode": "TLA",
      "latitude": "19.31905000",
      "longitude": "-98.19982000"
   },
   {
      "name": "Tlaxco",
      "countryCode": "MX",
      "stateCode": "TLA",
      "latitude": "19.61442000",
      "longitude": "-98.11997000"
   },
   {
      "name": "Tocatlán",
      "countryCode": "MX",
      "stateCode": "TLA",
      "latitude": "19.38865000",
      "longitude": "-98.02740000"
   },
   {
      "name": "Toluca de Guadalupe",
      "countryCode": "MX",
      "stateCode": "TLA",
      "latitude": "19.46898000",
      "longitude": "-97.95588000"
   },
   {
      "name": "Topilco de Juárez",
      "countryCode": "MX",
      "stateCode": "TLA",
      "latitude": "19.42095000",
      "longitude": "-98.19990000"
   },
   {
      "name": "Totolac",
      "countryCode": "MX",
      "stateCode": "TLA",
      "latitude": "19.32580000",
      "longitude": "-98.25834000"
   },
   {
      "name": "Tzompantepec",
      "countryCode": "MX",
      "stateCode": "TLA",
      "latitude": "19.37608000",
      "longitude": "-98.09014000"
   },
   {
      "name": "Unión Ejidal Tierra y Libertad",
      "countryCode": "MX",
      "stateCode": "TLA",
      "latitude": "19.65750000",
      "longitude": "-98.33750000"
   },
   {
      "name": "Villa Alta",
      "countryCode": "MX",
      "stateCode": "TLA",
      "latitude": "19.29263000",
      "longitude": "-98.40110000"
   },
   {
      "name": "Villa Vicente Guerrero",
      "countryCode": "MX",
      "stateCode": "TLA",
      "latitude": "19.12123000",
      "longitude": "-98.16572000"
   },
   {
      "name": "Villa de El Carmen Tequexquitla",
      "countryCode": "MX",
      "stateCode": "TLA",
      "latitude": "19.32426000",
      "longitude": "-97.65350000"
   },
   {
      "name": "Xaltocan",
      "countryCode": "MX",
      "stateCode": "TLA",
      "latitude": "19.42427000",
      "longitude": "-98.21033000"
   },
   {
      "name": "Xicohtzinco",
      "countryCode": "MX",
      "stateCode": "TLA",
      "latitude": "19.17371000",
      "longitude": "-98.23377000"
   },
   {
      "name": "Xocoyucan",
      "countryCode": "MX",
      "stateCode": "TLA",
      "latitude": "19.30932000",
      "longitude": "-98.37471000"
   },
   {
      "name": "Yauhquemehcan",
      "countryCode": "MX",
      "stateCode": "TLA",
      "latitude": "19.40697000",
      "longitude": "-98.18230000"
   },
   {
      "name": "Zacatelco",
      "countryCode": "MX",
      "stateCode": "TLA",
      "latitude": "19.21583000",
      "longitude": "-98.23972000"
   },
   {
      "name": "Zaragoza",
      "countryCode": "MX",
      "stateCode": "TLA",
      "latitude": "19.31861000",
      "longitude": "-98.26389000"
   },
   {
      "name": "Zimatepec",
      "countryCode": "MX",
      "stateCode": "TLA",
      "latitude": "19.42131000",
      "longitude": "-98.16462000"
   },
   {
      "name": "Zitlaltépec",
      "countryCode": "MX",
      "stateCode": "TLA",
      "latitude": "19.20389000",
      "longitude": "-97.90722000"
   },
   {
      "name": "Zumpango",
      "countryCode": "MX",
      "stateCode": "TLA",
      "latitude": "19.55770000",
      "longitude": "-98.22407000"
   }
]