[
   {
      "name": "Hagi",
      "countryCode": "JP",
      "stateCode": "35",
      "latitude": "34.40000000",
      "longitude": "131.41667000"
   },
   {
      "name": "Hagi Shi",
      "countryCode": "JP",
      "stateCode": "35",
      "latitude": "34.43206000",
      "longitude": "131.50623000"
   },
   {
      "name": "Hikari",
      "countryCode": "JP",
      "stateCode": "35",
      "latitude": "33.95500000",
      "longitude": "131.95000000"
   },
   {
      "name": "Hikari Shi",
      "countryCode": "JP",
      "stateCode": "35",
      "latitude": "33.98247000",
      "longitude": "131.97485000"
   },
   {
      "name": "Hofu Shi",
      "countryCode": "JP",
      "stateCode": "35",
      "latitude": "34.07287000",
      "longitude": "131.56808000"
   },
   {
      "name": "Hōfu",
      "countryCode": "JP",
      "stateCode": "35",
      "latitude": "34.05000000",
      "longitude": "131.56667000"
   },
   {
      "name": "Iwakuni Shi",
      "countryCode": "JP",
      "stateCode": "35",
      "latitude": "34.20608000",
      "longitude": "132.06286000"
   },
   {
      "name": "Kudamatsu",
      "countryCode": "JP",
      "stateCode": "35",
      "latitude": "34.00000000",
      "longitude": "131.86667000"
   },
   {
      "name": "Kudamatsu Shi",
      "countryCode": "JP",
      "stateCode": "35",
      "latitude": "34.03243000",
      "longitude": "131.88683000"
   },
   {
      "name": "Mine Shi",
      "countryCode": "JP",
      "stateCode": "35",
      "latitude": "34.21083000",
      "longitude": "131.25170000"
   },
   {
      "name": "Nagato",
      "countryCode": "JP",
      "stateCode": "35",
      "latitude": "34.38333000",
      "longitude": "131.20000000"
   },
   {
      "name": "Nagato Shi",
      "countryCode": "JP",
      "stateCode": "35",
      "latitude": "34.34880000",
      "longitude": "131.14703000"
   },
   {
      "name": "Ogōri-shimogō",
      "countryCode": "JP",
      "stateCode": "35",
      "latitude": "34.10000000",
      "longitude": "131.40000000"
   },
   {
      "name": "Onoda",
      "countryCode": "JP",
      "stateCode": "35",
      "latitude": "34.00139000",
      "longitude": "131.18361000"
   },
   {
      "name": "Sanyōonoda Shi",
      "countryCode": "JP",
      "stateCode": "35",
      "latitude": "34.03956000",
      "longitude": "131.15417000"
   },
   {
      "name": "Shimonoseki Shi",
      "countryCode": "JP",
      "stateCode": "35",
      "latitude": "34.17277000",
      "longitude": "130.98766000"
   },
   {
      "name": "Shūnan Shi",
      "countryCode": "JP",
      "stateCode": "35",
      "latitude": "34.15136000",
      "longitude": "131.82498000"
   },
   {
      "name": "Tokuyama",
      "countryCode": "JP",
      "stateCode": "35",
      "latitude": "34.05000000",
      "longitude": "131.81667000"
   },
   {
      "name": "Ube",
      "countryCode": "JP",
      "stateCode": "35",
      "latitude": "33.94306000",
      "longitude": "131.25111000"
   },
   {
      "name": "Yamaguchi Shi",
      "countryCode": "JP",
      "stateCode": "35",
      "latitude": "34.17753000",
      "longitude": "131.54667000"
   },
   {
      "name": "Yanai Shi",
      "countryCode": "JP",
      "stateCode": "35",
      "latitude": "33.96243000",
      "longitude": "132.13111000"
   }
]