[
   {
      "name": "Alfândega da Fé",
      "countryCode": "PT",
      "stateCode": "04",
      "latitude": "41.34315000",
      "longitude": "-6.96112000"
   },
   {
      "name": "Belver",
      "countryCode": "PT",
      "stateCode": "04",
      "latitude": "41.24696000",
      "longitude": "-7.27594000"
   },
   {
      "name": "Bragança Municipality",
      "countryCode": "PT",
      "stateCode": "04",
      "latitude": "41.75608000",
      "longitude": "-6.75535000"
   },
   {
      "name": "Carrazeda de Anciães",
      "countryCode": "PT",
      "stateCode": "04",
      "latitude": "41.24247000",
      "longitude": "-7.30721000"
   },
   {
      "name": "Carrazeda de Ansiães",
      "countryCode": "PT",
      "stateCode": "04",
      "latitude": "41.23424000",
      "longitude": "-7.31129000"
   },
   {
      "name": "Freixo de Espada à Cinta",
      "countryCode": "PT",
      "stateCode": "04",
      "latitude": "41.09033000",
      "longitude": "-6.80648000"
   },
   {
      "name": "Macedo de Cavaleiros",
      "countryCode": "PT",
      "stateCode": "04",
      "latitude": "41.55132000",
      "longitude": "-6.93355000"
   },
   {
      "name": "Miranda do Douro",
      "countryCode": "PT",
      "stateCode": "04",
      "latitude": "41.49692000",
      "longitude": "-6.27308000"
   },
   {
      "name": "Mirandela",
      "countryCode": "PT",
      "stateCode": "04",
      "latitude": "41.50098000",
      "longitude": "-7.19185000"
   },
   {
      "name": "Mogadouro",
      "countryCode": "PT",
      "stateCode": "04",
      "latitude": "41.34034000",
      "longitude": "-6.71187000"
   },
   {
      "name": "Samil",
      "countryCode": "PT",
      "stateCode": "04",
      "latitude": "41.77632000",
      "longitude": "-6.75698000"
   },
   {
      "name": "Sendim",
      "countryCode": "PT",
      "stateCode": "04",
      "latitude": "41.38739000",
      "longitude": "-6.42625000"
   },
   {
      "name": "Torre de Moncorvo",
      "countryCode": "PT",
      "stateCode": "04",
      "latitude": "41.17454000",
      "longitude": "-7.05364000"
   },
   {
      "name": "Vila Flor",
      "countryCode": "PT",
      "stateCode": "04",
      "latitude": "41.31429000",
      "longitude": "-7.15071000"
   },
   {
      "name": "Vimioso",
      "countryCode": "PT",
      "stateCode": "04",
      "latitude": "41.57287000",
      "longitude": "-6.52087000"
   },
   {
      "name": "Vinhais",
      "countryCode": "PT",
      "stateCode": "04",
      "latitude": "41.83509000",
      "longitude": "-7.00501000"
   }
]