[
   {
      "name": "28 de Noviembre",
      "countryCode": "AR",
      "stateCode": "Z",
      "latitude": "-51.58390000",
      "longitude": "-72.21382000"
   },
   {
      "name": "Caleta Olivia",
      "countryCode": "AR",
      "stateCode": "Z",
      "latitude": "-46.43929000",
      "longitude": "-67.52814000"
   },
   {
      "name": "Comandante Luis Piedra Buena",
      "countryCode": "AR",
      "stateCode": "Z",
      "latitude": "-49.98513000",
      "longitude": "-68.91467000"
   },
   {
      "name": "Departamento de Deseado",
      "countryCode": "AR",
      "stateCode": "Z",
      "latitude": "-47.33333000",
      "longitude": "-67.83333000"
   },
   {
      "name": "Departamento de Güer Aike",
      "countryCode": "AR",
      "stateCode": "Z",
      "latitude": "-51.33333000",
      "longitude": "-70.33333000"
   },
   {
      "name": "Departamento de Lago Argentino",
      "countryCode": "AR",
      "stateCode": "Z",
      "latitude": "-49.75000000",
      "longitude": "-72.00000000"
   },
   {
      "name": "Departamento de Magallanes",
      "countryCode": "AR",
      "stateCode": "Z",
      "latitude": "-48.75000000",
      "longitude": "-68.50000000"
   },
   {
      "name": "Departamento de Río Chico",
      "countryCode": "AR",
      "stateCode": "Z",
      "latitude": "-48.25000000",
      "longitude": "-71.00000000"
   },
   {
      "name": "El Calafate",
      "countryCode": "AR",
      "stateCode": "Z",
      "latitude": "-50.34075000",
      "longitude": "-72.27682000"
   },
   {
      "name": "Gobernador Gregores",
      "countryCode": "AR",
      "stateCode": "Z",
      "latitude": "-48.75057000",
      "longitude": "-70.24741000"
   },
   {
      "name": "Las Heras",
      "countryCode": "AR",
      "stateCode": "Z",
      "latitude": "-46.54186000",
      "longitude": "-68.93593000"
   },
   {
      "name": "Los Antiguos",
      "countryCode": "AR",
      "stateCode": "Z",
      "latitude": "-46.54972000",
      "longitude": "-71.63086000"
   },
   {
      "name": "Perito Moreno",
      "countryCode": "AR",
      "stateCode": "Z",
      "latitude": "-46.58995000",
      "longitude": "-70.92975000"
   },
   {
      "name": "Pico Truncado",
      "countryCode": "AR",
      "stateCode": "Z",
      "latitude": "-46.79490000",
      "longitude": "-67.95731000"
   },
   {
      "name": "Puerto Deseado",
      "countryCode": "AR",
      "stateCode": "Z",
      "latitude": "-47.75034000",
      "longitude": "-65.89382000"
   },
   {
      "name": "Puerto Santa Cruz",
      "countryCode": "AR",
      "stateCode": "Z",
      "latitude": "-50.01910000",
      "longitude": "-68.52321000"
   },
   {
      "name": "Río Gallegos",
      "countryCode": "AR",
      "stateCode": "Z",
      "latitude": "-51.62261000",
      "longitude": "-69.21813000"
   },
   {
      "name": "Río Turbio",
      "countryCode": "AR",
      "stateCode": "Z",
      "latitude": "-51.53587000",
      "longitude": "-72.33673000"
   },
   {
      "name": "San Julián",
      "countryCode": "AR",
      "stateCode": "Z",
      "latitude": "-49.30554000",
      "longitude": "-67.72743000"
   },
   {
      "name": "Yacimiento Río Turbio",
      "countryCode": "AR",
      "stateCode": "Z",
      "latitude": "-51.57321000",
      "longitude": "-72.35080000"
   }
]