[
   {
      "name": "Alaior",
      "countryCode": "ES",
      "stateCode": "PM",
      "latitude": "39.93034000",
      "longitude": "4.14039000"
   },
   {
      "name": "Alaró",
      "countryCode": "ES",
      "stateCode": "PM",
      "latitude": "39.70441000",
      "longitude": "2.79181000"
   },
   {
      "name": "Alcúdia",
      "countryCode": "ES",
      "stateCode": "PM",
      "latitude": "39.85316000",
      "longitude": "3.12138000"
   },
   {
      "name": "Algaida",
      "countryCode": "ES",
      "stateCode": "PM",
      "latitude": "39.55899000",
      "longitude": "2.89541000"
   },
   {
      "name": "Andratx",
      "countryCode": "ES",
      "stateCode": "PM",
      "latitude": "39.57553000",
      "longitude": "2.42017000"
   },
   {
      "name": "Ariany",
      "countryCode": "ES",
      "stateCode": "PM",
      "latitude": "39.65048000",
      "longitude": "3.11055000"
   },
   {
      "name": "Artà",
      "countryCode": "ES",
      "stateCode": "PM",
      "latitude": "39.69315000",
      "longitude": "3.34979000"
   },
   {
      "name": "Banyalbufar",
      "countryCode": "ES",
      "stateCode": "PM",
      "latitude": "39.68734000",
      "longitude": "2.51409000"
   },
   {
      "name": "Binissalem",
      "countryCode": "ES",
      "stateCode": "PM",
      "latitude": "39.68744000",
      "longitude": "2.84396000"
   },
   {
      "name": "Bunyola",
      "countryCode": "ES",
      "stateCode": "PM",
      "latitude": "39.69634000",
      "longitude": "2.69955000"
   },
   {
      "name": "Búger",
      "countryCode": "ES",
      "stateCode": "PM",
      "latitude": "39.75809000",
      "longitude": "2.98349000"
   },
   {
      "name": "Cala Rajada",
      "countryCode": "ES",
      "stateCode": "PM",
      "latitude": "39.71174000",
      "longitude": "3.46310000"
   },
   {
      "name": "Cala d'Or",
      "countryCode": "ES",
      "stateCode": "PM",
      "latitude": "39.37810000",
      "longitude": "3.23479000"
   },
   {
      "name": "Calonge",
      "countryCode": "ES",
      "stateCode": "PM",
      "latitude": "39.40039000",
      "longitude": "3.20335000"
   },
   {
      "name": "Calvià",
      "countryCode": "ES",
      "stateCode": "PM",
      "latitude": "39.56570000",
      "longitude": "2.50621000"
   },
   {
      "name": "Camp de Mar",
      "countryCode": "ES",
      "stateCode": "PM",
      "latitude": "39.53827000",
      "longitude": "2.42386000"
   },
   {
      "name": "Campanet",
      "countryCode": "ES",
      "stateCode": "PM",
      "latitude": "39.77470000",
      "longitude": "2.96506000"
   },
   {
      "name": "Campos",
      "countryCode": "ES",
      "stateCode": "PM",
      "latitude": "39.43099000",
      "longitude": "3.01935000"
   },
   {
      "name": "Can Pastilla",
      "countryCode": "ES",
      "stateCode": "PM",
      "latitude": "39.53615000",
      "longitude": "2.71766000"
   },
   {
      "name": "Can Picafort",
      "countryCode": "ES",
      "stateCode": "PM",
      "latitude": "39.76567000",
      "longitude": "3.15488000"
   },
   {
      "name": "Capdepera",
      "countryCode": "ES",
      "stateCode": "PM",
      "latitude": "39.70237000",
      "longitude": "3.43532000"
   },
   {
      "name": "Ciutadella",
      "countryCode": "ES",
      "stateCode": "PM",
      "latitude": "40.00112000",
      "longitude": "3.84144000"
   },
   {
      "name": "Coll d'en Rabassa",
      "countryCode": "ES",
      "stateCode": "PM",
      "latitude": "39.55083000",
      "longitude": "2.69468000"
   },
   {
      "name": "Colònia de Sant Jordi",
      "countryCode": "ES",
      "stateCode": "PM",
      "latitude": "39.31810000",
      "longitude": "2.99197000"
   },
   {
      "name": "Consell",
      "countryCode": "ES",
      "stateCode": "PM",
      "latitude": "39.66861000",
      "longitude": "2.81267000"
   },
   {
      "name": "Costitx",
      "countryCode": "ES",
      "stateCode": "PM",
      "latitude": "39.65675000",
      "longitude": "2.94953000"
   },
   {
      "name": "Deià",
      "countryCode": "ES",
      "stateCode": "PM",
      "latitude": "39.74806000",
      "longitude": "2.64823000"
   },
   {
      "name": "El Toro",
      "countryCode": "ES",
      "stateCode": "PM",
      "latitude": "39.48477000",
      "longitude": "2.48222000"
   },
   {
      "name": "Es Castell",
      "countryCode": "ES",
      "stateCode": "PM",
      "latitude": "39.87760000",
      "longitude": "4.28990000"
   },
   {
      "name": "Es Molinar",
      "countryCode": "ES",
      "stateCode": "PM",
      "latitude": "39.56140000",
      "longitude": "2.67517000"
   },
   {
      "name": "Escorca",
      "countryCode": "ES",
      "stateCode": "PM",
      "latitude": "39.82138000",
      "longitude": "2.86941000"
   },
   {
      "name": "Esporles",
      "countryCode": "ES",
      "stateCode": "PM",
      "latitude": "39.66794000",
      "longitude": "2.57867000"
   },
   {
      "name": "Estellencs",
      "countryCode": "ES",
      "stateCode": "PM",
      "latitude": "39.65338000",
      "longitude": "2.48130000"
   },
   {
      "name": "Felanitx",
      "countryCode": "ES",
      "stateCode": "PM",
      "latitude": "39.46960000",
      "longitude": "3.14831000"
   },
   {
      "name": "Ferreries",
      "countryCode": "ES",
      "stateCode": "PM",
      "latitude": "39.98324000",
      "longitude": "4.01181000"
   },
   {
      "name": "Fornalutx",
      "countryCode": "ES",
      "stateCode": "PM",
      "latitude": "39.78232000",
      "longitude": "2.74107000"
   },
   {
      "name": "Ibiza",
      "countryCode": "ES",
      "stateCode": "PM",
      "latitude": "38.90883000",
      "longitude": "1.43296000"
   },
   {
      "name": "Illes Balears",
      "countryCode": "ES",
      "stateCode": "PM",
      "latitude": "39.60992000",
      "longitude": "3.02948000"
   },
   {
      "name": "Inca",
      "countryCode": "ES",
      "stateCode": "PM",
      "latitude": "39.72110000",
      "longitude": "2.91093000"
   },
   {
      "name": "Lloret de Vistalegre",
      "countryCode": "ES",
      "stateCode": "PM",
      "latitude": "39.61835000",
      "longitude": "2.97493000"
   },
   {
      "name": "Lloseta",
      "countryCode": "ES",
      "stateCode": "PM",
      "latitude": "39.71849000",
      "longitude": "2.86690000"
   },
   {
      "name": "Llubí",
      "countryCode": "ES",
      "stateCode": "PM",
      "latitude": "39.69933000",
      "longitude": "3.00681000"
   },
   {
      "name": "Llucmajor",
      "countryCode": "ES",
      "stateCode": "PM",
      "latitude": "39.49093000",
      "longitude": "2.89108000"
   },
   {
      "name": "Magaluf",
      "countryCode": "ES",
      "stateCode": "PM",
      "latitude": "39.51110000",
      "longitude": "2.53530000"
   },
   {
      "name": "Manacor",
      "countryCode": "ES",
      "stateCode": "PM",
      "latitude": "39.56964000",
      "longitude": "3.20955000"
   },
   {
      "name": "Mancor de la Vall",
      "countryCode": "ES",
      "stateCode": "PM",
      "latitude": "39.74966000",
      "longitude": "2.87284000"
   },
   {
      "name": "Maria de la Salut",
      "countryCode": "ES",
      "stateCode": "PM",
      "latitude": "39.66306000",
      "longitude": "3.07300000"
   },
   {
      "name": "Marratxí",
      "countryCode": "ES",
      "stateCode": "PM",
      "latitude": "39.62142000",
      "longitude": "2.72530000"
   },
   {
      "name": "Maó",
      "countryCode": "ES",
      "stateCode": "PM",
      "latitude": "39.88853000",
      "longitude": "4.26583000"
   },
   {
      "name": "Mercadal",
      "countryCode": "ES",
      "stateCode": "PM",
      "latitude": "39.99014000",
      "longitude": "4.09387000"
   },
   {
      "name": "Montuïri",
      "countryCode": "ES",
      "stateCode": "PM",
      "latitude": "39.56742000",
      "longitude": "2.98189000"
   },
   {
      "name": "Muro",
      "countryCode": "ES",
      "stateCode": "PM",
      "latitude": "39.73661000",
      "longitude": "3.05559000"
   },
   {
      "name": "Palma",
      "countryCode": "ES",
      "stateCode": "PM",
      "latitude": "39.56939000",
      "longitude": "2.65024000"
   },
   {
      "name": "Palmanova",
      "countryCode": "ES",
      "stateCode": "PM",
      "latitude": "39.52470000",
      "longitude": "2.53922000"
   },
   {
      "name": "Peguera",
      "countryCode": "ES",
      "stateCode": "PM",
      "latitude": "39.53751000",
      "longitude": "2.44806000"
   },
   {
      "name": "Petra",
      "countryCode": "ES",
      "stateCode": "PM",
      "latitude": "39.61351000",
      "longitude": "3.11312000"
   },
   {
      "name": "Pollença",
      "countryCode": "ES",
      "stateCode": "PM",
      "latitude": "39.87678000",
      "longitude": "3.01626000"
   },
   {
      "name": "Porreres",
      "countryCode": "ES",
      "stateCode": "PM",
      "latitude": "39.51434000",
      "longitude": "3.02197000"
   },
   {
      "name": "Port d'Alcúdia",
      "countryCode": "ES",
      "stateCode": "PM",
      "latitude": "39.84182000",
      "longitude": "3.13291000"
   },
   {
      "name": "Port de Pollença",
      "countryCode": "ES",
      "stateCode": "PM",
      "latitude": "39.90750000",
      "longitude": "3.08140000"
   },
   {
      "name": "Port de Sóller",
      "countryCode": "ES",
      "stateCode": "PM",
      "latitude": "39.79759000",
      "longitude": "2.69637000"
   },
   {
      "name": "Porto Cristo",
      "countryCode": "ES",
      "stateCode": "PM",
      "latitude": "39.53953000",
      "longitude": "3.33302000"
   },
   {
      "name": "Portocolom",
      "countryCode": "ES",
      "stateCode": "PM",
      "latitude": "39.41589000",
      "longitude": "3.25697000"
   },
   {
      "name": "Puigpunyent",
      "countryCode": "ES",
      "stateCode": "PM",
      "latitude": "39.62514000",
      "longitude": "2.52759000"
   },
   {
      "name": "Sant Antoni de Portmany",
      "countryCode": "ES",
      "stateCode": "PM",
      "latitude": "38.98068000",
      "longitude": "1.30362000"
   },
   {
      "name": "Sant Francesc de Formentera",
      "countryCode": "ES",
      "stateCode": "PM",
      "latitude": "38.70566000",
      "longitude": "1.42893000"
   },
   {
      "name": "Sant Joan",
      "countryCode": "ES",
      "stateCode": "PM",
      "latitude": "39.59621000",
      "longitude": "3.03920000"
   },
   {
      "name": "Sant Joan de Labritja",
      "countryCode": "ES",
      "stateCode": "PM",
      "latitude": "39.07891000",
      "longitude": "1.51397000"
   },
   {
      "name": "Sant Josep de sa Talaia",
      "countryCode": "ES",
      "stateCode": "PM",
      "latitude": "38.92239000",
      "longitude": "1.29437000"
   },
   {
      "name": "Sant Llorenç des Cardassar",
      "countryCode": "ES",
      "stateCode": "PM",
      "latitude": "39.61009000",
      "longitude": "3.28380000"
   },
   {
      "name": "Sant Lluís",
      "countryCode": "ES",
      "stateCode": "PM",
      "latitude": "39.84939000",
      "longitude": "4.25819000"
   },
   {
      "name": "Santa Eugènia",
      "countryCode": "ES",
      "stateCode": "PM",
      "latitude": "39.62361000",
      "longitude": "2.83864000"
   },
   {
      "name": "Santa Eulària des Riu",
      "countryCode": "ES",
      "stateCode": "PM",
      "latitude": "38.98457000",
      "longitude": "1.53409000"
   },
   {
      "name": "Santa Margalida",
      "countryCode": "ES",
      "stateCode": "PM",
      "latitude": "39.70143000",
      "longitude": "3.10215000"
   },
   {
      "name": "Santa Ponsa",
      "countryCode": "ES",
      "stateCode": "PM",
      "latitude": "39.50868000",
      "longitude": "2.47660000"
   },
   {
      "name": "Santanyí",
      "countryCode": "ES",
      "stateCode": "PM",
      "latitude": "39.35461000",
      "longitude": "3.12907000"
   },
   {
      "name": "Selva",
      "countryCode": "ES",
      "stateCode": "PM",
      "latitude": "39.75504000",
      "longitude": "2.90069000"
   },
   {
      "name": "Sencelles",
      "countryCode": "ES",
      "stateCode": "PM",
      "latitude": "39.64598000",
      "longitude": "2.89769000"
   },
   {
      "name": "Ses Salines",
      "countryCode": "ES",
      "stateCode": "PM",
      "latitude": "39.33831000",
      "longitude": "3.05274000"
   },
   {
      "name": "Sineu",
      "countryCode": "ES",
      "stateCode": "PM",
      "latitude": "39.64254000",
      "longitude": "3.01034000"
   },
   {
      "name": "Son Ferrer",
      "countryCode": "ES",
      "stateCode": "PM",
      "latitude": "39.49666000",
      "longitude": "2.50102000"
   },
   {
      "name": "Son Servera",
      "countryCode": "ES",
      "stateCode": "PM",
      "latitude": "39.62073000",
      "longitude": "3.36008000"
   },
   {
      "name": "Sóller",
      "countryCode": "ES",
      "stateCode": "PM",
      "latitude": "39.76623000",
      "longitude": "2.71521000"
   },
   {
      "name": "Valldemossa",
      "countryCode": "ES",
      "stateCode": "PM",
      "latitude": "39.71042000",
      "longitude": "2.62230000"
   },
   {
      "name": "Vilafranca de Bonany",
      "countryCode": "ES",
      "stateCode": "PM",
      "latitude": "39.56894000",
      "longitude": "3.08815000"
   },
   {
      "name": "s'Arenal",
      "countryCode": "ES",
      "stateCode": "PM",
      "latitude": "39.50000000",
      "longitude": "2.75000000"
   },
   {
      "name": "sa Pobla",
      "countryCode": "ES",
      "stateCode": "PM",
      "latitude": "39.76920000",
      "longitude": "3.02394000"
   }
]