[
   {
      "name": "Bakadagy",
      "countryCode": "GM",
      "stateCode": "U",
      "latitude": "13.30000000",
      "longitude": "-14.38333000"
   },
   {
      "name": "Basse Santa Su",
      "countryCode": "GM",
      "stateCode": "U",
      "latitude": "13.30995000",
      "longitude": "-14.21373000"
   },
   {
      "name": "Brifu",
      "countryCode": "GM",
      "stateCode": "U",
      "latitude": "13.50000000",
      "longitude": "-13.93333000"
   },
   {
      "name": "Daba Kunda",
      "countryCode": "GM",
      "stateCode": "U",
      "latitude": "13.31667000",
      "longitude": "-14.30000000"
   },
   {
      "name": "Demba Kunda",
      "countryCode": "GM",
      "stateCode": "U",
      "latitude": "13.25000000",
      "longitude": "-14.26667000"
   },
   {
      "name": "Diabugu",
      "countryCode": "GM",
      "stateCode": "U",
      "latitude": "13.38333000",
      "longitude": "-14.40000000"
   },
   {
      "name": "Diabugu Basilla",
      "countryCode": "GM",
      "stateCode": "U",
      "latitude": "13.33333000",
      "longitude": "-13.95000000"
   },
   {
      "name": "Fulladu East",
      "countryCode": "GM",
      "stateCode": "U",
      "latitude": "13.33333000",
      "longitude": "-14.25000000"
   },
   {
      "name": "Gunjur Kuta",
      "countryCode": "GM",
      "stateCode": "U",
      "latitude": "13.53333000",
      "longitude": "-14.11667000"
   },
   {
      "name": "Kantora",
      "countryCode": "GM",
      "stateCode": "U",
      "latitude": "13.41667000",
      "longitude": "-13.91667000"
   },
   {
      "name": "Koina",
      "countryCode": "GM",
      "stateCode": "U",
      "latitude": "13.48333000",
      "longitude": "-13.86667000"
   },
   {
      "name": "Kumbija",
      "countryCode": "GM",
      "stateCode": "U",
      "latitude": "13.26667000",
      "longitude": "-14.18333000"
   },
   {
      "name": "Nyamanari",
      "countryCode": "GM",
      "stateCode": "U",
      "latitude": "13.33333000",
      "longitude": "-13.86667000"
   },
   {
      "name": "Perai",
      "countryCode": "GM",
      "stateCode": "U",
      "latitude": "13.38333000",
      "longitude": "-14.03333000"
   },
   {
      "name": "Sabi",
      "countryCode": "GM",
      "stateCode": "U",
      "latitude": "13.23333000",
      "longitude": "-14.20000000"
   },
   {
      "name": "Sandu",
      "countryCode": "GM",
      "stateCode": "U",
      "latitude": "13.41667000",
      "longitude": "-14.36667000"
   },
   {
      "name": "Sudowol",
      "countryCode": "GM",
      "stateCode": "U",
      "latitude": "13.36667000",
      "longitude": "-13.96667000"
   },
   {
      "name": "Sun Kunda",
      "countryCode": "GM",
      "stateCode": "U",
      "latitude": "13.38333000",
      "longitude": "-13.85000000"
   },
   {
      "name": "Sutukoba",
      "countryCode": "GM",
      "stateCode": "U",
      "latitude": "13.50000000",
      "longitude": "-14.01667000"
   },
   {
      "name": "Wuli",
      "countryCode": "GM",
      "stateCode": "U",
      "latitude": "13.50000000",
      "longitude": "-14.08333000"
   }
]