[
   {
      "name": "Adda-Douéni",
      "countryCode": "KM",
      "stateCode": "A",
      "latitude": "-12.29250000",
      "longitude": "44.49722000"
   },
   {
      "name": "Antsahé",
      "countryCode": "KM",
      "stateCode": "A",
      "latitude": "-12.35639000",
      "longitude": "44.52250000"
   },
   {
      "name": "Assimpao",
      "countryCode": "KM",
      "stateCode": "A",
      "latitude": "-12.23306000",
      "longitude": "44.31972000"
   },
   {
      "name": "Bambao",
      "countryCode": "KM",
      "stateCode": "A",
      "latitude": "-12.20325000",
      "longitude": "44.51638000"
   },
   {
      "name": "Bandajou",
      "countryCode": "KM",
      "stateCode": "A",
      "latitude": "-12.19167000",
      "longitude": "44.28694000"
   },
   {
      "name": "Barakani",
      "countryCode": "KM",
      "stateCode": "A",
      "latitude": "-12.13861000",
      "longitude": "44.43026000"
   },
   {
      "name": "Bimbini",
      "countryCode": "KM",
      "stateCode": "A",
      "latitude": "-12.18833000",
      "longitude": "44.23556000"
   },
   {
      "name": "Boungouéni",
      "countryCode": "KM",
      "stateCode": "A",
      "latitude": "-12.20556000",
      "longitude": "44.29944000"
   },
   {
      "name": "Chandra",
      "countryCode": "KM",
      "stateCode": "A",
      "latitude": "-12.19500000",
      "longitude": "44.46472000"
   },
   {
      "name": "Chironkamba",
      "countryCode": "KM",
      "stateCode": "A",
      "latitude": "-12.19111000",
      "longitude": "44.35250000"
   },
   {
      "name": "Chitrouni",
      "countryCode": "KM",
      "stateCode": "A",
      "latitude": "-12.18583000",
      "longitude": "44.33556000"
   },
   {
      "name": "Daji",
      "countryCode": "KM",
      "stateCode": "A",
      "latitude": "-12.32583000",
      "longitude": "44.48861000"
   },
   {
      "name": "Domoni",
      "countryCode": "KM",
      "stateCode": "A",
      "latitude": "-12.25694000",
      "longitude": "44.53194000"
   },
   {
      "name": "Dziani",
      "countryCode": "KM",
      "stateCode": "A",
      "latitude": "-12.18333000",
      "longitude": "44.48333000"
   },
   {
      "name": "Hajoho",
      "countryCode": "KM",
      "stateCode": "A",
      "latitude": "-12.12434000",
      "longitude": "44.48881000"
   },
   {
      "name": "Harembo",
      "countryCode": "KM",
      "stateCode": "A",
      "latitude": "-12.15108000",
      "longitude": "44.49828000"
   },
   {
      "name": "Kangani",
      "countryCode": "KM",
      "stateCode": "A",
      "latitude": "-12.32102000",
      "longitude": "44.47270000"
   },
   {
      "name": "Kavani",
      "countryCode": "KM",
      "stateCode": "A",
      "latitude": "-12.19194000",
      "longitude": "44.26944000"
   },
   {
      "name": "Koki",
      "countryCode": "KM",
      "stateCode": "A",
      "latitude": "-12.17139000",
      "longitude": "44.44167000"
   },
   {
      "name": "Koni-Djodjo",
      "countryCode": "KM",
      "stateCode": "A",
      "latitude": "-12.22972000",
      "longitude": "44.48167000"
   },
   {
      "name": "Koni-Ngani",
      "countryCode": "KM",
      "stateCode": "A",
      "latitude": "-12.21583000",
      "longitude": "44.48000000"
   },
   {
      "name": "Kyo",
      "countryCode": "KM",
      "stateCode": "A",
      "latitude": "-12.33222000",
      "longitude": "44.51917000"
   },
   {
      "name": "Limbi",
      "countryCode": "KM",
      "stateCode": "A",
      "latitude": "-12.23944000",
      "longitude": "44.50528000"
   },
   {
      "name": "Lingoni",
      "countryCode": "KM",
      "stateCode": "A",
      "latitude": "-12.25583000",
      "longitude": "44.41833000"
   },
   {
      "name": "Magnassini-Nindri",
      "countryCode": "KM",
      "stateCode": "A",
      "latitude": "-12.27806000",
      "longitude": "44.41583000"
   },
   {
      "name": "Maraharé",
      "countryCode": "KM",
      "stateCode": "A",
      "latitude": "-12.23083000",
      "longitude": "44.31333000"
   },
   {
      "name": "Mirontsi",
      "countryCode": "KM",
      "stateCode": "A",
      "latitude": "-12.15667000",
      "longitude": "44.40806000"
   },
   {
      "name": "Mjamaoué",
      "countryCode": "KM",
      "stateCode": "A",
      "latitude": "-12.19361000",
      "longitude": "44.31000000"
   },
   {
      "name": "Mjimandra",
      "countryCode": "KM",
      "stateCode": "A",
      "latitude": "-12.19167000",
      "longitude": "44.37028000"
   },
   {
      "name": "Moutsamoudou",
      "countryCode": "KM",
      "stateCode": "A",
      "latitude": "-12.16672000",
      "longitude": "44.39944000"
   },
   {
      "name": "Moya",
      "countryCode": "KM",
      "stateCode": "A",
      "latitude": "-12.30967000",
      "longitude": "44.43685000"
   },
   {
      "name": "Mramani",
      "countryCode": "KM",
      "stateCode": "A",
      "latitude": "-12.34639000",
      "longitude": "44.52861000"
   },
   {
      "name": "Mrémani",
      "countryCode": "KM",
      "stateCode": "A",
      "latitude": "-12.30833000",
      "longitude": "44.49861000"
   },
   {
      "name": "Ongoni",
      "countryCode": "KM",
      "stateCode": "A",
      "latitude": "-12.17028000",
      "longitude": "44.50694000"
   },
   {
      "name": "Ouani",
      "countryCode": "KM",
      "stateCode": "A",
      "latitude": "-12.13554000",
      "longitude": "44.42493000"
   },
   {
      "name": "Ouzini",
      "countryCode": "KM",
      "stateCode": "A",
      "latitude": "-12.26722000",
      "longitude": "44.47972000"
   },
   {
      "name": "Pajé",
      "countryCode": "KM",
      "stateCode": "A",
      "latitude": "-12.16972000",
      "longitude": "44.38806000"
   },
   {
      "name": "Patsi",
      "countryCode": "KM",
      "stateCode": "A",
      "latitude": "-12.15556000",
      "longitude": "44.43722000"
   },
   {
      "name": "Sima",
      "countryCode": "KM",
      "stateCode": "A",
      "latitude": "-12.19556000",
      "longitude": "44.27667000"
   },
   {
      "name": "Tsimbeo",
      "countryCode": "KM",
      "stateCode": "A",
      "latitude": "-12.20583000",
      "longitude": "44.46472000"
   },
   {
      "name": "Vouani",
      "countryCode": "KM",
      "stateCode": "A",
      "latitude": "-12.24417000",
      "longitude": "44.37444000"
   }
]