[
   {
      "name": "Cam Ranh",
      "countryCode": "VN",
      "stateCode": "34",
      "latitude": "11.92144000",
      "longitude": "109.15913000"
   },
   {
      "name": "Huyện Diên Khánh",
      "countryCode": "VN",
      "stateCode": "34",
      "latitude": "12.27341000",
      "longitude": "109.03890000"
   },
   {
      "name": "Huyện Khánh Sơn",
      "countryCode": "VN",
      "stateCode": "34",
      "latitude": "12.02858000",
      "longitude": "108.90814000"
   },
   {
      "name": "Huyện Khánh Vĩnh",
      "countryCode": "VN",
      "stateCode": "34",
      "latitude": "12.30593000",
      "longitude": "108.83073000"
   },
   {
      "name": "Huyện Vạn Ninh",
      "countryCode": "VN",
      "stateCode": "34",
      "latitude": "12.72344000",
      "longitude": "109.24586000"
   },
   {
      "name": "Nha Trang",
      "countryCode": "VN",
      "stateCode": "34",
      "latitude": "12.24507000",
      "longitude": "109.19432000"
   },
   {
      "name": "Thành Phố Cam Ranh",
      "countryCode": "VN",
      "stateCode": "34",
      "latitude": "11.90707000",
      "longitude": "109.14861000"
   },
   {
      "name": "Thành Phố Nha Trang",
      "countryCode": "VN",
      "stateCode": "34",
      "latitude": "12.25458000",
      "longitude": "109.16655000"
   },
   {
      "name": "Thị Xã Ninh Hòa",
      "countryCode": "VN",
      "stateCode": "34",
      "latitude": "12.53796000",
      "longitude": "109.06057000"
   }
]