[
   {
      "name": "Gereshk",
      "countryCode": "AF",
      "stateCode": "HEL",
      "latitude": "31.82089000",
      "longitude": "64.57005000"
   },
   {
      "name": "Lashkar Gāh",
      "countryCode": "AF",
      "stateCode": "HEL",
      "latitude": "31.59382000",
      "longitude": "64.37161000"
   },
   {
      "name": "Markaz-e Ḩukūmat-e Darwēshān",
      "countryCode": "AF",
      "stateCode": "HEL",
      "latitude": "31.13231000",
      "longitude": "64.19340000"
   },
   {
      "name": "Sangīn",
      "countryCode": "AF",
      "stateCode": "HEL",
      "latitude": "32.07275000",
      "longitude": "64.83590000"
   },
   {
      "name": "‘Alāqahdārī Dīshū",
      "countryCode": "AF",
      "stateCode": "HEL",
      "latitude": "30.43206000",
      "longitude": "63.29802000"
   }
]