[
   {
     "name": "Arghakhanchi",
     "countryCode": "NP",
     "stateCode": "5",
     "latitude": "27.93203300",
     "longitude": "82.87452540"
   },
   {
     "name": "Banke",
     "countryCode": "NP",
     "stateCode": "5",
     "latitude": "28.09533130",
     "longitude": "81.51664750"
   },
   {
     "name": "Bardiya",
     "countryCode": "NP",
     "stateCode": "5",
     "latitude": "28.37141240",
     "longitude": "81.08318750"
   },
   {
     "name": "Dang",
     "countryCode": "NP",
     "stateCode": "5",
     "latitude": "27.97938140",
     "longitude": "82.03578400"
   },
   {
     "name": "Gulmi",
     "countryCode": "NP",
     "stateCode": "5",
     "latitude": "27.61916410",
     "longitude": "82.79965750"
   },
   {
     "name": "Kapilvastu",
     "countryCode": "NP",
     "stateCode": "5",
     "latitude": "28.09566790",
     "longitude": "83.14866140"
   },
   {
     "name": "Parasi",
     "countryCode": "NP",
     "stateCode": "5",
     "latitude": "27.81008000",
     "longitude": "83.30002140"
   },
   {
     "name": "Palpa",
     "countryCode": "NP",
     "stateCode": "5",
     "latitude": "27.53149590",
     "longitude": "83.59204540"
   },
   {
     "name": "Pyuthan",
     "countryCode": "NP",
     "stateCode": "5",
     "latitude": "27.97938140",
     "longitude": "82.03578400"
   },
   {
     "name": "Rolpa",
     "countryCode": "NP",
     "stateCode": "5",
     "latitude": "28.11971800",
     "longitude": "82.51310670"
   },
   {
     "name": "Rukum",
     "countryCode": "NP",
     "stateCode": "5",
     "latitude": "28.40314780",
     "longitude": "82.04703660"
   },
   {
     "name": "Rupandehi",
     "countryCode": "NP",
     "stateCode": "5",
     "latitude": "28.75605000",
     "longitude": "82.11275010"
   }
 ]