[
   {
      "name": "Bhunya",
      "countryCode": "SZ",
      "stateCode": "MA",
      "latitude": "-26.55000000",
      "longitude": "31.01667000"
   },
   {
      "name": "Ekukhanyeni",
      "countryCode": "SZ",
      "stateCode": "MA",
      "latitude": "-26.38750000",
      "longitude": "31.52806000"
   },
   {
      "name": "Kwaluseni",
      "countryCode": "SZ",
      "stateCode": "MA",
      "latitude": "-26.48333000",
      "longitude": "31.33333000"
   },
   {
      "name": "Malkerns",
      "countryCode": "SZ",
      "stateCode": "MA",
      "latitude": "-26.56667000",
      "longitude": "31.18333000"
   },
   {
      "name": "Manzini",
      "countryCode": "SZ",
      "stateCode": "MA",
      "latitude": "-26.49884000",
      "longitude": "31.38004000"
   },
   {
      "name": "Manzini South",
      "countryCode": "SZ",
      "stateCode": "MA",
      "latitude": "-26.48333000",
      "longitude": "31.36667000"
   },
   {
      "name": "Mhlambanyatsi",
      "countryCode": "SZ",
      "stateCode": "MA",
      "latitude": "-26.45000000",
      "longitude": "31.01667000"
   },
   {
      "name": "Ngwempisi",
      "countryCode": "SZ",
      "stateCode": "MA",
      "latitude": "-26.69990000",
      "longitude": "31.28876000"
   },
   {
      "name": "Ntondozi",
      "countryCode": "SZ",
      "stateCode": "MA",
      "latitude": "-26.63500000",
      "longitude": "31.22556000"
   },
   {
      "name": "Sidvokodvo",
      "countryCode": "SZ",
      "stateCode": "MA",
      "latitude": "-26.62820000",
      "longitude": "31.42021000"
   }
]