[
   {
      "name": "Alcalá",
      "countryCode": "CO",
      "stateCode": "VAC",
      "latitude": "4.67458000",
      "longitude": "-75.77188000"
   },
   {
      "name": "Andalucía",
      "countryCode": "CO",
      "stateCode": "VAC",
      "latitude": "4.14035000",
      "longitude": "-76.14739000"
   },
   {
      "name": "Ansermanuevo",
      "countryCode": "CO",
      "stateCode": "VAC",
      "latitude": "4.79722000",
      "longitude": "-75.99500000"
   },
   {
      "name": "Argelia",
      "countryCode": "CO",
      "stateCode": "VAC",
      "latitude": "4.72904000",
      "longitude": "-76.11637000"
   },
   {
      "name": "Bolívar",
      "countryCode": "CO",
      "stateCode": "VAC",
      "latitude": "4.37710000",
      "longitude": "-76.34870000"
   },
   {
      "name": "Buenaventura",
      "countryCode": "CO",
      "stateCode": "VAC",
      "latitude": "3.88010000",
      "longitude": "-77.03116000"
   },
   {
      "name": "Bugalagrande",
      "countryCode": "CO",
      "stateCode": "VAC",
      "latitude": "4.21207000",
      "longitude": "-76.15564000"
   },
   {
      "name": "Caicedonia",
      "countryCode": "CO",
      "stateCode": "VAC",
      "latitude": "4.33240000",
      "longitude": "-75.82665000"
   },
   {
      "name": "Cali",
      "countryCode": "CO",
      "stateCode": "VAC",
      "latitude": "3.41033000",
      "longitude": "-76.58097000"
   },
   {
      "name": "Calima",
      "countryCode": "CO",
      "stateCode": "VAC",
      "latitude": "3.92511000",
      "longitude": "-76.62654000"
   },
   {
      "name": "Candelaria",
      "countryCode": "CO",
      "stateCode": "VAC",
      "latitude": "3.38367000",
      "longitude": "-76.42466000"
   },
   {
      "name": "Cartago",
      "countryCode": "CO",
      "stateCode": "VAC",
      "latitude": "4.74639000",
      "longitude": "-75.91167000"
   },
   {
      "name": "Dagua",
      "countryCode": "CO",
      "stateCode": "VAC",
      "latitude": "3.65685000",
      "longitude": "-76.68859000"
   },
   {
      "name": "El Cairo",
      "countryCode": "CO",
      "stateCode": "VAC",
      "latitude": "4.74889000",
      "longitude": "-76.24443000"
   },
   {
      "name": "El Cerrito",
      "countryCode": "CO",
      "stateCode": "VAC",
      "latitude": "3.64273000",
      "longitude": "-76.20960000"
   },
   {
      "name": "El Dovio",
      "countryCode": "CO",
      "stateCode": "VAC",
      "latitude": "4.50790000",
      "longitude": "-76.23619000"
   },
   {
      "name": "El Águila",
      "countryCode": "CO",
      "stateCode": "VAC",
      "latitude": "4.91946000",
      "longitude": "-76.05680000"
   },
   {
      "name": "Florida",
      "countryCode": "CO",
      "stateCode": "VAC",
      "latitude": "3.30940000",
      "longitude": "-76.18989000"
   },
   {
      "name": "Ginebra",
      "countryCode": "CO",
      "stateCode": "VAC",
      "latitude": "3.74296000",
      "longitude": "-76.19412000"
   },
   {
      "name": "Guacarí",
      "countryCode": "CO",
      "stateCode": "VAC",
      "latitude": "3.76383000",
      "longitude": "-76.33292000"
   },
   {
      "name": "Guadalajara de Buga",
      "countryCode": "CO",
      "stateCode": "VAC",
      "latitude": "3.90089000",
      "longitude": "-76.29783000"
   },
   {
      "name": "Jamundí",
      "countryCode": "CO",
      "stateCode": "VAC",
      "latitude": "3.26074000",
      "longitude": "-76.53499000"
   },
   {
      "name": "La Cumbre",
      "countryCode": "CO",
      "stateCode": "VAC",
      "latitude": "3.72250000",
      "longitude": "-76.02083000"
   },
   {
      "name": "La Unión",
      "countryCode": "CO",
      "stateCode": "VAC",
      "latitude": "4.53282000",
      "longitude": "-76.10318000"
   },
   {
      "name": "La Victoria",
      "countryCode": "CO",
      "stateCode": "VAC",
      "latitude": "4.52483000",
      "longitude": "-76.03921000"
   },
   {
      "name": "Obando",
      "countryCode": "CO",
      "stateCode": "VAC",
      "latitude": "4.59590000",
      "longitude": "-75.94879000"
   },
   {
      "name": "Palmira",
      "countryCode": "CO",
      "stateCode": "VAC",
      "latitude": "3.53969000",
      "longitude": "-76.22607000"
   },
   {
      "name": "Pradera",
      "countryCode": "CO",
      "stateCode": "VAC",
      "latitude": "3.42793000",
      "longitude": "-76.17159000"
   },
   {
      "name": "Restrepo",
      "countryCode": "CO",
      "stateCode": "VAC",
      "latitude": "3.82203000",
      "longitude": "-76.52242000"
   },
   {
      "name": "Riofrío",
      "countryCode": "CO",
      "stateCode": "VAC",
      "latitude": "4.15710000",
      "longitude": "-76.28852000"
   },
   {
      "name": "Roldanillo",
      "countryCode": "CO",
      "stateCode": "VAC",
      "latitude": "4.41256000",
      "longitude": "-76.15457000"
   },
   {
      "name": "San Pedro",
      "countryCode": "CO",
      "stateCode": "VAC",
      "latitude": "3.99936000",
      "longitude": "-76.26123000"
   },
   {
      "name": "Sevilla",
      "countryCode": "CO",
      "stateCode": "VAC",
      "latitude": "4.19345000",
      "longitude": "-75.88829000"
   },
   {
      "name": "Toro",
      "countryCode": "CO",
      "stateCode": "VAC",
      "latitude": "4.61167000",
      "longitude": "-76.08139000"
   },
   {
      "name": "Trujillo",
      "countryCode": "CO",
      "stateCode": "VAC",
      "latitude": "4.23696000",
      "longitude": "-76.34730000"
   },
   {
      "name": "Tuluá",
      "countryCode": "CO",
      "stateCode": "VAC",
      "latitude": "4.08466000",
      "longitude": "-76.19536000"
   },
   {
      "name": "Ulloa",
      "countryCode": "CO",
      "stateCode": "VAC",
      "latitude": "4.70745000",
      "longitude": "-75.77781000"
   },
   {
      "name": "Versalles",
      "countryCode": "CO",
      "stateCode": "VAC",
      "latitude": "4.66335000",
      "longitude": "-76.24649000"
   },
   {
      "name": "Vijes",
      "countryCode": "CO",
      "stateCode": "VAC",
      "latitude": "3.73283000",
      "longitude": "-76.49363000"
   },
   {
      "name": "Yotoco",
      "countryCode": "CO",
      "stateCode": "VAC",
      "latitude": "3.86048000",
      "longitude": "-76.38364000"
   },
   {
      "name": "Yumbo",
      "countryCode": "CO",
      "stateCode": "VAC",
      "latitude": "3.58234000",
      "longitude": "-76.49146000"
   },
   {
      "name": "Zarzal",
      "countryCode": "CO",
      "stateCode": "VAC",
      "latitude": "4.39462000",
      "longitude": "-76.07150000"
   }
]