[
   {
      "name": "Abfaltersbach",
      "countryCode": "AT",
      "stateCode": "7",
      "latitude": "46.75715000",
      "longitude": "12.52828000"
   },
   {
      "name": "Absam",
      "countryCode": "AT",
      "stateCode": "7",
      "latitude": "47.29572000",
      "longitude": "11.50593000"
   },
   {
      "name": "Achenkirch",
      "countryCode": "AT",
      "stateCode": "7",
      "latitude": "47.52659000",
      "longitude": "11.70559000"
   },
   {
      "name": "Ainet",
      "countryCode": "AT",
      "stateCode": "7",
      "latitude": "46.86603000",
      "longitude": "12.68968000"
   },
   {
      "name": "Aldrans",
      "countryCode": "AT",
      "stateCode": "7",
      "latitude": "47.25000000",
      "longitude": "11.45000000"
   },
   {
      "name": "Alpbach",
      "countryCode": "AT",
      "stateCode": "7",
      "latitude": "47.39878000",
      "longitude": "11.94373000"
   },
   {
      "name": "Amlach",
      "countryCode": "AT",
      "stateCode": "7",
      "latitude": "46.81639000",
      "longitude": "12.76361000"
   },
   {
      "name": "Ampass",
      "countryCode": "AT",
      "stateCode": "7",
      "latitude": "47.26251000",
      "longitude": "11.46226000"
   },
   {
      "name": "Amras",
      "countryCode": "AT",
      "stateCode": "7",
      "latitude": "47.25000000",
      "longitude": "11.41667000"
   },
   {
      "name": "Angath",
      "countryCode": "AT",
      "stateCode": "7",
      "latitude": "47.50758000",
      "longitude": "12.06513000"
   },
   {
      "name": "Angerberg",
      "countryCode": "AT",
      "stateCode": "7",
      "latitude": "47.50563000",
      "longitude": "12.03119000"
   },
   {
      "name": "Anras",
      "countryCode": "AT",
      "stateCode": "7",
      "latitude": "46.77389000",
      "longitude": "12.56083000"
   },
   {
      "name": "Arzl",
      "countryCode": "AT",
      "stateCode": "7",
      "latitude": "47.28333000",
      "longitude": "11.43333000"
   },
   {
      "name": "Arzl im Pitztal",
      "countryCode": "AT",
      "stateCode": "7",
      "latitude": "47.20712000",
      "longitude": "10.76261000"
   },
   {
      "name": "Aschau",
      "countryCode": "AT",
      "stateCode": "7",
      "latitude": "47.26667000",
      "longitude": "11.90000000"
   },
   {
      "name": "Aschau im Zillertal",
      "countryCode": "AT",
      "stateCode": "7",
      "latitude": "47.26613000",
      "longitude": "11.89536000"
   },
   {
      "name": "Aurach",
      "countryCode": "AT",
      "stateCode": "7",
      "latitude": "47.41223000",
      "longitude": "12.42734000"
   },
   {
      "name": "Außervillgraten",
      "countryCode": "AT",
      "stateCode": "7",
      "latitude": "46.78750000",
      "longitude": "12.43139000"
   },
   {
      "name": "Axams",
      "countryCode": "AT",
      "stateCode": "7",
      "latitude": "47.23111000",
      "longitude": "11.27892000"
   },
   {
      "name": "Bad Häring",
      "countryCode": "AT",
      "stateCode": "7",
      "latitude": "47.51071000",
      "longitude": "12.11912000"
   },
   {
      "name": "Barwies",
      "countryCode": "AT",
      "stateCode": "7",
      "latitude": "47.30000000",
      "longitude": "10.96667000"
   },
   {
      "name": "Baumkirchen",
      "countryCode": "AT",
      "stateCode": "7",
      "latitude": "47.30000000",
      "longitude": "11.56667000"
   },
   {
      "name": "Berwang",
      "countryCode": "AT",
      "stateCode": "7",
      "latitude": "47.40807000",
      "longitude": "10.74735000"
   },
   {
      "name": "Biberwier",
      "countryCode": "AT",
      "stateCode": "7",
      "latitude": "47.38333000",
      "longitude": "10.90000000"
   },
   {
      "name": "Bichlbach",
      "countryCode": "AT",
      "stateCode": "7",
      "latitude": "47.42033000",
      "longitude": "10.79042000"
   },
   {
      "name": "Birgitz",
      "countryCode": "AT",
      "stateCode": "7",
      "latitude": "47.23536000",
      "longitude": "11.29922000"
   },
   {
      "name": "Brandenberg",
      "countryCode": "AT",
      "stateCode": "7",
      "latitude": "47.49053000",
      "longitude": "11.89459000"
   },
   {
      "name": "Breitenbach am Inn",
      "countryCode": "AT",
      "stateCode": "7",
      "latitude": "47.47829000",
      "longitude": "11.97372000"
   },
   {
      "name": "Breitenwang",
      "countryCode": "AT",
      "stateCode": "7",
      "latitude": "47.48713000",
      "longitude": "10.73420000"
   },
   {
      "name": "Brixen im Thale",
      "countryCode": "AT",
      "stateCode": "7",
      "latitude": "47.45000000",
      "longitude": "12.25000000"
   },
   {
      "name": "Brixlegg",
      "countryCode": "AT",
      "stateCode": "7",
      "latitude": "47.42942000",
      "longitude": "11.87794000"
   },
   {
      "name": "Bruck am Ziller",
      "countryCode": "AT",
      "stateCode": "7",
      "latitude": "47.38998000",
      "longitude": "11.85124000"
   },
   {
      "name": "Buch in Tirol",
      "countryCode": "AT",
      "stateCode": "7",
      "latitude": "47.37447000",
      "longitude": "11.75400000"
   },
   {
      "name": "Debant",
      "countryCode": "AT",
      "stateCode": "7",
      "latitude": "46.83333000",
      "longitude": "12.81667000"
   },
   {
      "name": "Dölsach",
      "countryCode": "AT",
      "stateCode": "7",
      "latitude": "46.82833000",
      "longitude": "12.84528000"
   },
   {
      "name": "Ebbs",
      "countryCode": "AT",
      "stateCode": "7",
      "latitude": "47.63333000",
      "longitude": "12.21667000"
   },
   {
      "name": "Eben am Achensee",
      "countryCode": "AT",
      "stateCode": "7",
      "latitude": "47.41380000",
      "longitude": "11.76138000"
   },
   {
      "name": "Ehenbichl",
      "countryCode": "AT",
      "stateCode": "7",
      "latitude": "47.46667000",
      "longitude": "10.70000000"
   },
   {
      "name": "Ehrwald",
      "countryCode": "AT",
      "stateCode": "7",
      "latitude": "47.40000000",
      "longitude": "10.91667000"
   },
   {
      "name": "Elbigenalp",
      "countryCode": "AT",
      "stateCode": "7",
      "latitude": "47.29041000",
      "longitude": "10.43607000"
   },
   {
      "name": "Ellbögen",
      "countryCode": "AT",
      "stateCode": "7",
      "latitude": "47.16667000",
      "longitude": "11.45000000"
   },
   {
      "name": "Ellmau",
      "countryCode": "AT",
      "stateCode": "7",
      "latitude": "47.51378000",
      "longitude": "12.29937000"
   },
   {
      "name": "Elmen",
      "countryCode": "AT",
      "stateCode": "7",
      "latitude": "47.34039000",
      "longitude": "10.54318000"
   },
   {
      "name": "Endach",
      "countryCode": "AT",
      "stateCode": "7",
      "latitude": "47.56796000",
      "longitude": "12.15603000"
   },
   {
      "name": "Erl",
      "countryCode": "AT",
      "stateCode": "7",
      "latitude": "47.68333000",
      "longitude": "12.18333000"
   },
   {
      "name": "Erpfendorf",
      "countryCode": "AT",
      "stateCode": "7",
      "latitude": "47.58333000",
      "longitude": "12.46667000"
   },
   {
      "name": "Fendels",
      "countryCode": "AT",
      "stateCode": "7",
      "latitude": "47.05390000",
      "longitude": "10.67777000"
   },
   {
      "name": "Fieberbrunn",
      "countryCode": "AT",
      "stateCode": "7",
      "latitude": "47.47626000",
      "longitude": "12.54347000"
   },
   {
      "name": "Fiecht",
      "countryCode": "AT",
      "stateCode": "7",
      "latitude": "47.35000000",
      "longitude": "11.70000000"
   },
   {
      "name": "Finkenberg",
      "countryCode": "AT",
      "stateCode": "7",
      "latitude": "47.15279000",
      "longitude": "11.82212000"
   },
   {
      "name": "Fiss",
      "countryCode": "AT",
      "stateCode": "7",
      "latitude": "47.05714000",
      "longitude": "10.61747000"
   },
   {
      "name": "Flaurling",
      "countryCode": "AT",
      "stateCode": "7",
      "latitude": "47.29143000",
      "longitude": "11.12319000"
   },
   {
      "name": "Fliess",
      "countryCode": "AT",
      "stateCode": "7",
      "latitude": "47.11667000",
      "longitude": "10.61667000"
   },
   {
      "name": "Flirsch",
      "countryCode": "AT",
      "stateCode": "7",
      "latitude": "47.15000000",
      "longitude": "10.40000000"
   },
   {
      "name": "Forchach",
      "countryCode": "AT",
      "stateCode": "7",
      "latitude": "47.41667000",
      "longitude": "10.58333000"
   },
   {
      "name": "Fritzens",
      "countryCode": "AT",
      "stateCode": "7",
      "latitude": "47.30535000",
      "longitude": "11.58950000"
   },
   {
      "name": "Fulpmes",
      "countryCode": "AT",
      "stateCode": "7",
      "latitude": "47.15202000",
      "longitude": "11.34922000"
   },
   {
      "name": "Fügen",
      "countryCode": "AT",
      "stateCode": "7",
      "latitude": "47.34700000",
      "longitude": "11.84939000"
   },
   {
      "name": "Fügenberg",
      "countryCode": "AT",
      "stateCode": "7",
      "latitude": "47.35210000",
      "longitude": "11.84173000"
   },
   {
      "name": "Gallzein",
      "countryCode": "AT",
      "stateCode": "7",
      "latitude": "47.36807000",
      "longitude": "11.77159000"
   },
   {
      "name": "Galtür",
      "countryCode": "AT",
      "stateCode": "7",
      "latitude": "46.96667000",
      "longitude": "10.18333000"
   },
   {
      "name": "Gerlos",
      "countryCode": "AT",
      "stateCode": "7",
      "latitude": "47.22464000",
      "longitude": "12.03012000"
   },
   {
      "name": "Gerlosberg",
      "countryCode": "AT",
      "stateCode": "7",
      "latitude": "47.21667000",
      "longitude": "11.93333000"
   },
   {
      "name": "Gnadenwald",
      "countryCode": "AT",
      "stateCode": "7",
      "latitude": "47.31667000",
      "longitude": "11.56667000"
   },
   {
      "name": "Going",
      "countryCode": "AT",
      "stateCode": "7",
      "latitude": "47.51332000",
      "longitude": "12.33164000"
   },
   {
      "name": "Gramais",
      "countryCode": "AT",
      "stateCode": "7",
      "latitude": "47.26667000",
      "longitude": "10.53333000"
   },
   {
      "name": "Gries am Brenner",
      "countryCode": "AT",
      "stateCode": "7",
      "latitude": "47.03849000",
      "longitude": "11.48131000"
   },
   {
      "name": "Gries im Sellrain",
      "countryCode": "AT",
      "stateCode": "7",
      "latitude": "47.19554000",
      "longitude": "11.15619000"
   },
   {
      "name": "Grins",
      "countryCode": "AT",
      "stateCode": "7",
      "latitude": "47.14034000",
      "longitude": "10.51409000"
   },
   {
      "name": "Grinzens",
      "countryCode": "AT",
      "stateCode": "7",
      "latitude": "47.22927000",
      "longitude": "11.25318000"
   },
   {
      "name": "Grän",
      "countryCode": "AT",
      "stateCode": "7",
      "latitude": "47.50000000",
      "longitude": "10.55000000"
   },
   {
      "name": "Gschnitz",
      "countryCode": "AT",
      "stateCode": "7",
      "latitude": "47.04469000",
      "longitude": "11.35089000"
   },
   {
      "name": "Götzens",
      "countryCode": "AT",
      "stateCode": "7",
      "latitude": "47.23606000",
      "longitude": "11.31154000"
   },
   {
      "name": "Haiming",
      "countryCode": "AT",
      "stateCode": "7",
      "latitude": "47.25000000",
      "longitude": "10.88333000"
   },
   {
      "name": "Hainzenberg",
      "countryCode": "AT",
      "stateCode": "7",
      "latitude": "47.21788000",
      "longitude": "11.90034000"
   },
   {
      "name": "Hall in Tirol",
      "countryCode": "AT",
      "stateCode": "7",
      "latitude": "47.28333000",
      "longitude": "11.51667000"
   },
   {
      "name": "Hart im Zillertal",
      "countryCode": "AT",
      "stateCode": "7",
      "latitude": "47.35106000",
      "longitude": "11.86476000"
   },
   {
      "name": "Hatting",
      "countryCode": "AT",
      "stateCode": "7",
      "latitude": "47.27870000",
      "longitude": "11.16838000"
   },
   {
      "name": "Heinfels",
      "countryCode": "AT",
      "stateCode": "7",
      "latitude": "46.75000000",
      "longitude": "12.45000000"
   },
   {
      "name": "Heiterwang",
      "countryCode": "AT",
      "stateCode": "7",
      "latitude": "47.45000000",
      "longitude": "10.75000000"
   },
   {
      "name": "Hippach",
      "countryCode": "AT",
      "stateCode": "7",
      "latitude": "47.20435000",
      "longitude": "11.86523000"
   },
   {
      "name": "Hochfilzen",
      "countryCode": "AT",
      "stateCode": "7",
      "latitude": "47.46667000",
      "longitude": "12.61667000"
   },
   {
      "name": "Holzgau",
      "countryCode": "AT",
      "stateCode": "7",
      "latitude": "47.26045000",
      "longitude": "10.34419000"
   },
   {
      "name": "Hopfgarten im Brixental",
      "countryCode": "AT",
      "stateCode": "7",
      "latitude": "47.44980000",
      "longitude": "12.15659000"
   },
   {
      "name": "Hopfgarten in Defereggen",
      "countryCode": "AT",
      "stateCode": "7",
      "latitude": "46.91917000",
      "longitude": "12.53639000"
   },
   {
      "name": "Häselgehr",
      "countryCode": "AT",
      "stateCode": "7",
      "latitude": "47.31667000",
      "longitude": "10.50000000"
   },
   {
      "name": "Höfen",
      "countryCode": "AT",
      "stateCode": "7",
      "latitude": "47.46667000",
      "longitude": "10.68333000"
   },
   {
      "name": "Hötting",
      "countryCode": "AT",
      "stateCode": "7",
      "latitude": "47.26815000",
      "longitude": "11.36868000"
   },
   {
      "name": "Igls",
      "countryCode": "AT",
      "stateCode": "7",
      "latitude": "47.23127000",
      "longitude": "11.41018000"
   },
   {
      "name": "Imst",
      "countryCode": "AT",
      "stateCode": "7",
      "latitude": "47.24504000",
      "longitude": "10.73974000"
   },
   {
      "name": "Imsterberg",
      "countryCode": "AT",
      "stateCode": "7",
      "latitude": "47.20517000",
      "longitude": "10.69605000"
   },
   {
      "name": "Innervillgraten",
      "countryCode": "AT",
      "stateCode": "7",
      "latitude": "46.81194000",
      "longitude": "12.37472000"
   },
   {
      "name": "Innsbruck",
      "countryCode": "AT",
      "stateCode": "7",
      "latitude": "47.26266000",
      "longitude": "11.39454000"
   },
   {
      "name": "Innsbruck Stadt",
      "countryCode": "AT",
      "stateCode": "7",
      "latitude": "47.28433000",
      "longitude": "11.37706000"
   },
   {
      "name": "Inzing",
      "countryCode": "AT",
      "stateCode": "7",
      "latitude": "47.27370000",
      "longitude": "11.19751000"
   },
   {
      "name": "Ischgl",
      "countryCode": "AT",
      "stateCode": "7",
      "latitude": "47.01257000",
      "longitude": "10.29179000"
   },
   {
      "name": "Itter",
      "countryCode": "AT",
      "stateCode": "7",
      "latitude": "47.46667000",
      "longitude": "12.13333000"
   },
   {
      "name": "Jenbach",
      "countryCode": "AT",
      "stateCode": "7",
      "latitude": "47.39173000",
      "longitude": "11.77245000"
   },
   {
      "name": "Jerzens",
      "countryCode": "AT",
      "stateCode": "7",
      "latitude": "47.15120000",
      "longitude": "10.74686000"
   },
   {
      "name": "Jochberg",
      "countryCode": "AT",
      "stateCode": "7",
      "latitude": "47.37920000",
      "longitude": "12.41807000"
   },
   {
      "name": "Jungholz",
      "countryCode": "AT",
      "stateCode": "7",
      "latitude": "47.57409000",
      "longitude": "10.44723000"
   },
   {
      "name": "Kaltenbach",
      "countryCode": "AT",
      "stateCode": "7",
      "latitude": "47.28333000",
      "longitude": "11.86667000"
   },
   {
      "name": "Kapfing",
      "countryCode": "AT",
      "stateCode": "7",
      "latitude": "47.33333000",
      "longitude": "11.85000000"
   },
   {
      "name": "Kappl",
      "countryCode": "AT",
      "stateCode": "7",
      "latitude": "47.06667000",
      "longitude": "10.38333000"
   },
   {
      "name": "Karres",
      "countryCode": "AT",
      "stateCode": "7",
      "latitude": "47.21667000",
      "longitude": "10.78333000"
   },
   {
      "name": "Karrösten",
      "countryCode": "AT",
      "stateCode": "7",
      "latitude": "47.22540000",
      "longitude": "10.76561000"
   },
   {
      "name": "Kartitsch",
      "countryCode": "AT",
      "stateCode": "7",
      "latitude": "46.72889000",
      "longitude": "12.50083000"
   },
   {
      "name": "Kauns",
      "countryCode": "AT",
      "stateCode": "7",
      "latitude": "47.07822000",
      "longitude": "10.69219000"
   },
   {
      "name": "Kematen in Tirol",
      "countryCode": "AT",
      "stateCode": "7",
      "latitude": "47.25000000",
      "longitude": "11.26667000"
   },
   {
      "name": "Kirchberg in Tirol",
      "countryCode": "AT",
      "stateCode": "7",
      "latitude": "47.44539000",
      "longitude": "12.31602000"
   },
   {
      "name": "Kirchbichl",
      "countryCode": "AT",
      "stateCode": "7",
      "latitude": "47.51743000",
      "longitude": "12.09629000"
   },
   {
      "name": "Kirchdorf in Tirol",
      "countryCode": "AT",
      "stateCode": "7",
      "latitude": "47.55626000",
      "longitude": "12.44511000"
   },
   {
      "name": "Kitzbühel",
      "countryCode": "AT",
      "stateCode": "7",
      "latitude": "47.44637000",
      "longitude": "12.39215000"
   },
   {
      "name": "Kolsass",
      "countryCode": "AT",
      "stateCode": "7",
      "latitude": "47.30000000",
      "longitude": "11.63333000"
   },
   {
      "name": "Kolsassberg",
      "countryCode": "AT",
      "stateCode": "7",
      "latitude": "47.28150000",
      "longitude": "11.65289000"
   },
   {
      "name": "Kramsach",
      "countryCode": "AT",
      "stateCode": "7",
      "latitude": "47.44312000",
      "longitude": "11.87545000"
   },
   {
      "name": "Kufstein",
      "countryCode": "AT",
      "stateCode": "7",
      "latitude": "47.58333000",
      "longitude": "12.16667000"
   },
   {
      "name": "Kundl",
      "countryCode": "AT",
      "stateCode": "7",
      "latitude": "47.46667000",
      "longitude": "11.98333000"
   },
   {
      "name": "Kössen",
      "countryCode": "AT",
      "stateCode": "7",
      "latitude": "47.66990000",
      "longitude": "12.40545000"
   },
   {
      "name": "Ladis",
      "countryCode": "AT",
      "stateCode": "7",
      "latitude": "47.07459000",
      "longitude": "10.64949000"
   },
   {
      "name": "Landeck",
      "countryCode": "AT",
      "stateCode": "7",
      "latitude": "47.13988000",
      "longitude": "10.56593000"
   },
   {
      "name": "Lans",
      "countryCode": "AT",
      "stateCode": "7",
      "latitude": "47.23833000",
      "longitude": "11.43139000"
   },
   {
      "name": "Lavant",
      "countryCode": "AT",
      "stateCode": "7",
      "latitude": "46.79889000",
      "longitude": "12.83806000"
   },
   {
      "name": "Lechaschau",
      "countryCode": "AT",
      "stateCode": "7",
      "latitude": "47.48804000",
      "longitude": "10.70652000"
   },
   {
      "name": "Leisach",
      "countryCode": "AT",
      "stateCode": "7",
      "latitude": "46.81250000",
      "longitude": "12.74861000"
   },
   {
      "name": "Lermoos",
      "countryCode": "AT",
      "stateCode": "7",
      "latitude": "47.40358000",
      "longitude": "10.88070000"
   },
   {
      "name": "Leutasch",
      "countryCode": "AT",
      "stateCode": "7",
      "latitude": "47.36890000",
      "longitude": "11.14404000"
   },
   {
      "name": "Lienz",
      "countryCode": "AT",
      "stateCode": "7",
      "latitude": "46.82890000",
      "longitude": "12.76903000"
   },
   {
      "name": "Längenfeld",
      "countryCode": "AT",
      "stateCode": "7",
      "latitude": "47.07398000",
      "longitude": "10.96951000"
   },
   {
      "name": "Mariastein",
      "countryCode": "AT",
      "stateCode": "7",
      "latitude": "47.52772000",
      "longitude": "12.05479000"
   },
   {
      "name": "Mariatal",
      "countryCode": "AT",
      "stateCode": "7",
      "latitude": "47.44788000",
      "longitude": "11.87210000"
   },
   {
      "name": "Matrei am Brenner",
      "countryCode": "AT",
      "stateCode": "7",
      "latitude": "47.12794000",
      "longitude": "11.45176000"
   },
   {
      "name": "Matrei in Osttirol",
      "countryCode": "AT",
      "stateCode": "7",
      "latitude": "47.00000000",
      "longitude": "12.53333000"
   },
   {
      "name": "Maurach",
      "countryCode": "AT",
      "stateCode": "7",
      "latitude": "47.42124000",
      "longitude": "11.75305000"
   },
   {
      "name": "Mayrhofen",
      "countryCode": "AT",
      "stateCode": "7",
      "latitude": "47.16667000",
      "longitude": "11.86667000"
   },
   {
      "name": "Medraz",
      "countryCode": "AT",
      "stateCode": "7",
      "latitude": "47.14256000",
      "longitude": "11.34287000"
   },
   {
      "name": "Mieders",
      "countryCode": "AT",
      "stateCode": "7",
      "latitude": "47.16667000",
      "longitude": "11.38333000"
   },
   {
      "name": "Mieming",
      "countryCode": "AT",
      "stateCode": "7",
      "latitude": "47.30000000",
      "longitude": "10.98333000"
   },
   {
      "name": "Mils bei Imst",
      "countryCode": "AT",
      "stateCode": "7",
      "latitude": "47.20616000",
      "longitude": "10.67485000"
   },
   {
      "name": "Mils bei Solbad Hall",
      "countryCode": "AT",
      "stateCode": "7",
      "latitude": "47.28333000",
      "longitude": "11.53333000"
   },
   {
      "name": "Mitterndorf",
      "countryCode": "AT",
      "stateCode": "7",
      "latitude": "47.57728000",
      "longitude": "12.16968000"
   },
   {
      "name": "Musau",
      "countryCode": "AT",
      "stateCode": "7",
      "latitude": "47.53195000",
      "longitude": "10.67339000"
   },
   {
      "name": "Mutters",
      "countryCode": "AT",
      "stateCode": "7",
      "latitude": "47.23333000",
      "longitude": "11.38333000"
   },
   {
      "name": "Mötz",
      "countryCode": "AT",
      "stateCode": "7",
      "latitude": "47.28333000",
      "longitude": "10.95000000"
   },
   {
      "name": "Mühlau",
      "countryCode": "AT",
      "stateCode": "7",
      "latitude": "47.28333000",
      "longitude": "11.40000000"
   },
   {
      "name": "Mühlbachl",
      "countryCode": "AT",
      "stateCode": "7",
      "latitude": "47.13333000",
      "longitude": "11.45000000"
   },
   {
      "name": "Münster",
      "countryCode": "AT",
      "stateCode": "7",
      "latitude": "47.42164000",
      "longitude": "11.83356000"
   },
   {
      "name": "Namlos",
      "countryCode": "AT",
      "stateCode": "7",
      "latitude": "47.35000000",
      "longitude": "10.66667000"
   },
   {
      "name": "Nassereith",
      "countryCode": "AT",
      "stateCode": "7",
      "latitude": "47.31667000",
      "longitude": "10.83333000"
   },
   {
      "name": "Natters",
      "countryCode": "AT",
      "stateCode": "7",
      "latitude": "47.23414000",
      "longitude": "11.37342000"
   },
   {
      "name": "Nauders",
      "countryCode": "AT",
      "stateCode": "7",
      "latitude": "46.88859000",
      "longitude": "10.50126000"
   },
   {
      "name": "Nesselwängle",
      "countryCode": "AT",
      "stateCode": "7",
      "latitude": "47.48333000",
      "longitude": "10.61667000"
   },
   {
      "name": "Neustift im Stubaital",
      "countryCode": "AT",
      "stateCode": "7",
      "latitude": "47.11667000",
      "longitude": "11.31667000"
   },
   {
      "name": "Niederau",
      "countryCode": "AT",
      "stateCode": "7",
      "latitude": "47.45000000",
      "longitude": "12.08333000"
   },
   {
      "name": "Niederbreitenbach",
      "countryCode": "AT",
      "stateCode": "7",
      "latitude": "47.53333000",
      "longitude": "12.08333000"
   },
   {
      "name": "Niederndorf",
      "countryCode": "AT",
      "stateCode": "7",
      "latitude": "47.65000000",
      "longitude": "12.21667000"
   },
   {
      "name": "Nikolsdorf",
      "countryCode": "AT",
      "stateCode": "7",
      "latitude": "46.78583000",
      "longitude": "12.91333000"
   },
   {
      "name": "Oberau",
      "countryCode": "AT",
      "stateCode": "7",
      "latitude": "47.44336000",
      "longitude": "12.04891000"
   },
   {
      "name": "Oberhofen im Inntal",
      "countryCode": "AT",
      "stateCode": "7",
      "latitude": "47.30000000",
      "longitude": "11.08333000"
   },
   {
      "name": "Oberlienz",
      "countryCode": "AT",
      "stateCode": "7",
      "latitude": "46.84722000",
      "longitude": "12.73139000"
   },
   {
      "name": "Obermieming",
      "countryCode": "AT",
      "stateCode": "7",
      "latitude": "47.30000000",
      "longitude": "10.98333000"
   },
   {
      "name": "Obernberg am Brenner",
      "countryCode": "AT",
      "stateCode": "7",
      "latitude": "47.01667000",
      "longitude": "11.41667000"
   },
   {
      "name": "Oberndorf in Tirol",
      "countryCode": "AT",
      "stateCode": "7",
      "latitude": "47.50000000",
      "longitude": "12.38333000"
   },
   {
      "name": "Oberperfuss",
      "countryCode": "AT",
      "stateCode": "7",
      "latitude": "47.24451000",
      "longitude": "11.24755000"
   },
   {
      "name": "Obertilliach",
      "countryCode": "AT",
      "stateCode": "7",
      "latitude": "46.71056000",
      "longitude": "12.61444000"
   },
   {
      "name": "Obsteig",
      "countryCode": "AT",
      "stateCode": "7",
      "latitude": "47.30000000",
      "longitude": "10.93333000"
   },
   {
      "name": "Oetz",
      "countryCode": "AT",
      "stateCode": "7",
      "latitude": "47.20000000",
      "longitude": "10.90000000"
   },
   {
      "name": "Patsch",
      "countryCode": "AT",
      "stateCode": "7",
      "latitude": "47.20527000",
      "longitude": "11.41510000"
   },
   {
      "name": "Pettnau",
      "countryCode": "AT",
      "stateCode": "7",
      "latitude": "47.29204000",
      "longitude": "11.15962000"
   },
   {
      "name": "Pettneu",
      "countryCode": "AT",
      "stateCode": "7",
      "latitude": "47.14595000",
      "longitude": "10.33655000"
   },
   {
      "name": "Pfaffenhofen",
      "countryCode": "AT",
      "stateCode": "7",
      "latitude": "47.30000000",
      "longitude": "11.08333000"
   },
   {
      "name": "Pflach",
      "countryCode": "AT",
      "stateCode": "7",
      "latitude": "47.51667000",
      "longitude": "10.71667000"
   },
   {
      "name": "Pfons",
      "countryCode": "AT",
      "stateCode": "7",
      "latitude": "47.14201000",
      "longitude": "11.46071000"
   },
   {
      "name": "Pfunds",
      "countryCode": "AT",
      "stateCode": "7",
      "latitude": "46.96667000",
      "longitude": "10.55000000"
   },
   {
      "name": "Pians",
      "countryCode": "AT",
      "stateCode": "7",
      "latitude": "47.13486000",
      "longitude": "10.51237000"
   },
   {
      "name": "Pill",
      "countryCode": "AT",
      "stateCode": "7",
      "latitude": "47.32352000",
      "longitude": "11.68018000"
   },
   {
      "name": "Politischer Bezirk Imst",
      "countryCode": "AT",
      "stateCode": "7",
      "latitude": "47.08333000",
      "longitude": "10.86667000"
   },
   {
      "name": "Politischer Bezirk Innsbruck Land",
      "countryCode": "AT",
      "stateCode": "7",
      "latitude": "47.20000000",
      "longitude": "11.33333000"
   },
   {
      "name": "Politischer Bezirk Kitzbühel",
      "countryCode": "AT",
      "stateCode": "7",
      "latitude": "47.43333000",
      "longitude": "12.38333000"
   },
   {
      "name": "Politischer Bezirk Kufstein",
      "countryCode": "AT",
      "stateCode": "7",
      "latitude": "47.50000000",
      "longitude": "12.03333000"
   },
   {
      "name": "Politischer Bezirk Landeck",
      "countryCode": "AT",
      "stateCode": "7",
      "latitude": "47.12575000",
      "longitude": "10.56679000"
   },
   {
      "name": "Politischer Bezirk Lienz",
      "countryCode": "AT",
      "stateCode": "7",
      "latitude": "46.90000000",
      "longitude": "12.50000000"
   },
   {
      "name": "Politischer Bezirk Reutte",
      "countryCode": "AT",
      "stateCode": "7",
      "latitude": "47.41667000",
      "longitude": "10.55000000"
   },
   {
      "name": "Politischer Bezirk Schwaz",
      "countryCode": "AT",
      "stateCode": "7",
      "latitude": "47.26667000",
      "longitude": "11.76667000"
   },
   {
      "name": "Polling in Tirol",
      "countryCode": "AT",
      "stateCode": "7",
      "latitude": "47.28333000",
      "longitude": "11.15000000"
   },
   {
      "name": "Pradl",
      "countryCode": "AT",
      "stateCode": "7",
      "latitude": "47.26539000",
      "longitude": "11.41520000"
   },
   {
      "name": "Prutz",
      "countryCode": "AT",
      "stateCode": "7",
      "latitude": "47.08333000",
      "longitude": "10.66667000"
   },
   {
      "name": "Radfeld",
      "countryCode": "AT",
      "stateCode": "7",
      "latitude": "47.44806000",
      "longitude": "11.91424000"
   },
   {
      "name": "Ramsau im Zillertal",
      "countryCode": "AT",
      "stateCode": "7",
      "latitude": "47.20383000",
      "longitude": "11.87545000"
   },
   {
      "name": "Ranggen",
      "countryCode": "AT",
      "stateCode": "7",
      "latitude": "47.25727000",
      "longitude": "11.21120000"
   },
   {
      "name": "Rattenberg",
      "countryCode": "AT",
      "stateCode": "7",
      "latitude": "47.43941000",
      "longitude": "11.89407000"
   },
   {
      "name": "Reith bei Kitzbühel",
      "countryCode": "AT",
      "stateCode": "7",
      "latitude": "47.46667000",
      "longitude": "12.35000000"
   },
   {
      "name": "Reith bei Seefeld",
      "countryCode": "AT",
      "stateCode": "7",
      "latitude": "47.30000000",
      "longitude": "11.20000000"
   },
   {
      "name": "Reith im Alpbachtal",
      "countryCode": "AT",
      "stateCode": "7",
      "latitude": "47.41694000",
      "longitude": "11.87785000"
   },
   {
      "name": "Rettenschöss",
      "countryCode": "AT",
      "stateCode": "7",
      "latitude": "47.65718000",
      "longitude": "12.26872000"
   },
   {
      "name": "Reutte",
      "countryCode": "AT",
      "stateCode": "7",
      "latitude": "47.48333000",
      "longitude": "10.71667000"
   },
   {
      "name": "Ried im Oberinntal",
      "countryCode": "AT",
      "stateCode": "7",
      "latitude": "47.05000000",
      "longitude": "10.65000000"
   },
   {
      "name": "Ried im Zillertal",
      "countryCode": "AT",
      "stateCode": "7",
      "latitude": "47.30000000",
      "longitude": "11.86667000"
   },
   {
      "name": "Rietz",
      "countryCode": "AT",
      "stateCode": "7",
      "latitude": "47.28593000",
      "longitude": "11.03075000"
   },
   {
      "name": "Rinn",
      "countryCode": "AT",
      "stateCode": "7",
      "latitude": "47.25000000",
      "longitude": "11.50000000"
   },
   {
      "name": "Rohrberg",
      "countryCode": "AT",
      "stateCode": "7",
      "latitude": "47.23333000",
      "longitude": "11.91667000"
   },
   {
      "name": "Roppen",
      "countryCode": "AT",
      "stateCode": "7",
      "latitude": "47.21667000",
      "longitude": "10.81667000"
   },
   {
      "name": "Rum",
      "countryCode": "AT",
      "stateCode": "7",
      "latitude": "47.28333000",
      "longitude": "11.45000000"
   },
   {
      "name": "Sankt Johann in Tirol",
      "countryCode": "AT",
      "stateCode": "7",
      "latitude": "47.52330000",
      "longitude": "12.42320000"
   },
   {
      "name": "Sankt Ulrich am Pillersee",
      "countryCode": "AT",
      "stateCode": "7",
      "latitude": "47.52740000",
      "longitude": "12.57239000"
   },
   {
      "name": "Sankt Veit in Defereggen",
      "countryCode": "AT",
      "stateCode": "7",
      "latitude": "46.92722000",
      "longitude": "12.42972000"
   },
   {
      "name": "Sautens",
      "countryCode": "AT",
      "stateCode": "7",
      "latitude": "47.20000000",
      "longitude": "10.86667000"
   },
   {
      "name": "Scharnitz",
      "countryCode": "AT",
      "stateCode": "7",
      "latitude": "47.38899000",
      "longitude": "11.26455000"
   },
   {
      "name": "Schattwald",
      "countryCode": "AT",
      "stateCode": "7",
      "latitude": "47.51427000",
      "longitude": "10.46143000"
   },
   {
      "name": "Scheffau am Wilden Kaiser",
      "countryCode": "AT",
      "stateCode": "7",
      "latitude": "47.52943000",
      "longitude": "12.25139000"
   },
   {
      "name": "Schlaiten",
      "countryCode": "AT",
      "stateCode": "7",
      "latitude": "46.87944000",
      "longitude": "12.65417000"
   },
   {
      "name": "Schlitters",
      "countryCode": "AT",
      "stateCode": "7",
      "latitude": "47.38045000",
      "longitude": "11.83888000"
   },
   {
      "name": "Schwaz",
      "countryCode": "AT",
      "stateCode": "7",
      "latitude": "47.35169000",
      "longitude": "11.71014000"
   },
   {
      "name": "Schwendau",
      "countryCode": "AT",
      "stateCode": "7",
      "latitude": "47.19753000",
      "longitude": "11.85897000"
   },
   {
      "name": "Schwendt",
      "countryCode": "AT",
      "stateCode": "7",
      "latitude": "47.63182000",
      "longitude": "12.39266000"
   },
   {
      "name": "Schwoich",
      "countryCode": "AT",
      "stateCode": "7",
      "latitude": "47.54600000",
      "longitude": "12.14049000"
   },
   {
      "name": "Schönberg im Stubaital",
      "countryCode": "AT",
      "stateCode": "7",
      "latitude": "47.18333000",
      "longitude": "11.41667000"
   },
   {
      "name": "Schönwies",
      "countryCode": "AT",
      "stateCode": "7",
      "latitude": "47.19665000",
      "longitude": "10.65742000"
   },
   {
      "name": "See",
      "countryCode": "AT",
      "stateCode": "7",
      "latitude": "47.08333000",
      "longitude": "10.46667000"
   },
   {
      "name": "Seefeld in Tirol",
      "countryCode": "AT",
      "stateCode": "7",
      "latitude": "47.33016000",
      "longitude": "11.18786000"
   },
   {
      "name": "Sellrain",
      "countryCode": "AT",
      "stateCode": "7",
      "latitude": "47.21667000",
      "longitude": "11.21667000"
   },
   {
      "name": "Serfaus",
      "countryCode": "AT",
      "stateCode": "7",
      "latitude": "47.04018000",
      "longitude": "10.60339000"
   },
   {
      "name": "Sillian",
      "countryCode": "AT",
      "stateCode": "7",
      "latitude": "46.75278000",
      "longitude": "12.42111000"
   },
   {
      "name": "Silz",
      "countryCode": "AT",
      "stateCode": "7",
      "latitude": "47.26667000",
      "longitude": "10.93333000"
   },
   {
      "name": "Sistrans",
      "countryCode": "AT",
      "stateCode": "7",
      "latitude": "47.23333000",
      "longitude": "11.45000000"
   },
   {
      "name": "St Anton am Arlberg",
      "countryCode": "AT",
      "stateCode": "7",
      "latitude": "47.12750000",
      "longitude": "10.26372000"
   },
   {
      "name": "Stams",
      "countryCode": "AT",
      "stateCode": "7",
      "latitude": "47.27603000",
      "longitude": "10.98315000"
   },
   {
      "name": "Stans",
      "countryCode": "AT",
      "stateCode": "7",
      "latitude": "47.36667000",
      "longitude": "11.71667000"
   },
   {
      "name": "Stanz bei Landeck",
      "countryCode": "AT",
      "stateCode": "7",
      "latitude": "47.14758000",
      "longitude": "10.55340000"
   },
   {
      "name": "Stanzach",
      "countryCode": "AT",
      "stateCode": "7",
      "latitude": "47.38333000",
      "longitude": "10.56667000"
   },
   {
      "name": "Steeg",
      "countryCode": "AT",
      "stateCode": "7",
      "latitude": "47.24393000",
      "longitude": "10.29436000"
   },
   {
      "name": "Steinach am Brenner",
      "countryCode": "AT",
      "stateCode": "7",
      "latitude": "47.08333000",
      "longitude": "11.46667000"
   },
   {
      "name": "Strass im Zillertal",
      "countryCode": "AT",
      "stateCode": "7",
      "latitude": "47.39556000",
      "longitude": "11.81966000"
   },
   {
      "name": "Strassen",
      "countryCode": "AT",
      "stateCode": "7",
      "latitude": "46.75389000",
      "longitude": "12.48417000"
   },
   {
      "name": "Strengen",
      "countryCode": "AT",
      "stateCode": "7",
      "latitude": "47.12589000",
      "longitude": "10.46199000"
   },
   {
      "name": "Stumm",
      "countryCode": "AT",
      "stateCode": "7",
      "latitude": "47.29052000",
      "longitude": "11.88755000"
   },
   {
      "name": "Stummerberg",
      "countryCode": "AT",
      "stateCode": "7",
      "latitude": "47.28333000",
      "longitude": "11.91667000"
   },
   {
      "name": "Sölden",
      "countryCode": "AT",
      "stateCode": "7",
      "latitude": "46.96667000",
      "longitude": "11.00000000"
   },
   {
      "name": "Söll",
      "countryCode": "AT",
      "stateCode": "7",
      "latitude": "47.50378000",
      "longitude": "12.19221000"
   },
   {
      "name": "Tannheim",
      "countryCode": "AT",
      "stateCode": "7",
      "latitude": "47.49934000",
      "longitude": "10.51641000"
   },
   {
      "name": "Tarrenz",
      "countryCode": "AT",
      "stateCode": "7",
      "latitude": "47.26667000",
      "longitude": "10.76667000"
   },
   {
      "name": "Telfes im Stubai",
      "countryCode": "AT",
      "stateCode": "7",
      "latitude": "47.16667000",
      "longitude": "11.36667000"
   },
   {
      "name": "Telfs",
      "countryCode": "AT",
      "stateCode": "7",
      "latitude": "47.30707000",
      "longitude": "11.06817000"
   },
   {
      "name": "Terfens",
      "countryCode": "AT",
      "stateCode": "7",
      "latitude": "47.32355000",
      "longitude": "11.64388000"
   },
   {
      "name": "Thaur",
      "countryCode": "AT",
      "stateCode": "7",
      "latitude": "47.29476000",
      "longitude": "11.47529000"
   },
   {
      "name": "Thurn",
      "countryCode": "AT",
      "stateCode": "7",
      "latitude": "46.85056000",
      "longitude": "12.76861000"
   },
   {
      "name": "Tobadill",
      "countryCode": "AT",
      "stateCode": "7",
      "latitude": "47.12513000",
      "longitude": "10.51404000"
   },
   {
      "name": "Trins",
      "countryCode": "AT",
      "stateCode": "7",
      "latitude": "47.08333000",
      "longitude": "11.41667000"
   },
   {
      "name": "Tristach",
      "countryCode": "AT",
      "stateCode": "7",
      "latitude": "46.81611000",
      "longitude": "12.78972000"
   },
   {
      "name": "Tulfes",
      "countryCode": "AT",
      "stateCode": "7",
      "latitude": "47.25806000",
      "longitude": "11.53333000"
   },
   {
      "name": "Tux",
      "countryCode": "AT",
      "stateCode": "7",
      "latitude": "47.15559000",
      "longitude": "11.72872000"
   },
   {
      "name": "Uderns",
      "countryCode": "AT",
      "stateCode": "7",
      "latitude": "47.31667000",
      "longitude": "11.86667000"
   },
   {
      "name": "Umhausen",
      "countryCode": "AT",
      "stateCode": "7",
      "latitude": "47.13503000",
      "longitude": "10.92826000"
   },
   {
      "name": "Unterlangkampfen",
      "countryCode": "AT",
      "stateCode": "7",
      "latitude": "47.55000000",
      "longitude": "12.10000000"
   },
   {
      "name": "Unterperfuss",
      "countryCode": "AT",
      "stateCode": "7",
      "latitude": "47.26667000",
      "longitude": "11.25000000"
   },
   {
      "name": "Untertilliach",
      "countryCode": "AT",
      "stateCode": "7",
      "latitude": "46.70346000",
      "longitude": "12.67758000"
   },
   {
      "name": "Vals",
      "countryCode": "AT",
      "stateCode": "7",
      "latitude": "47.04507000",
      "longitude": "11.53281000"
   },
   {
      "name": "Vils",
      "countryCode": "AT",
      "stateCode": "7",
      "latitude": "47.55000000",
      "longitude": "10.63333000"
   },
   {
      "name": "Virgen",
      "countryCode": "AT",
      "stateCode": "7",
      "latitude": "47.00159000",
      "longitude": "12.45661000"
   },
   {
      "name": "Volders",
      "countryCode": "AT",
      "stateCode": "7",
      "latitude": "47.28333000",
      "longitude": "11.56667000"
   },
   {
      "name": "Voldöpp",
      "countryCode": "AT",
      "stateCode": "7",
      "latitude": "47.44469000",
      "longitude": "11.88343000"
   },
   {
      "name": "Vomp",
      "countryCode": "AT",
      "stateCode": "7",
      "latitude": "47.33333000",
      "longitude": "11.68333000"
   },
   {
      "name": "Vorderhornbach",
      "countryCode": "AT",
      "stateCode": "7",
      "latitude": "47.37009000",
      "longitude": "10.53947000"
   },
   {
      "name": "Vorderthiersee",
      "countryCode": "AT",
      "stateCode": "7",
      "latitude": "47.58333000",
      "longitude": "12.10000000"
   },
   {
      "name": "Völs",
      "countryCode": "AT",
      "stateCode": "7",
      "latitude": "47.25000000",
      "longitude": "11.33333000"
   },
   {
      "name": "Waidring",
      "countryCode": "AT",
      "stateCode": "7",
      "latitude": "47.58333000",
      "longitude": "12.56667000"
   },
   {
      "name": "Walchsee",
      "countryCode": "AT",
      "stateCode": "7",
      "latitude": "47.65163000",
      "longitude": "12.31868000"
   },
   {
      "name": "Wattenberg",
      "countryCode": "AT",
      "stateCode": "7",
      "latitude": "47.28333000",
      "longitude": "11.60000000"
   },
   {
      "name": "Wattens",
      "countryCode": "AT",
      "stateCode": "7",
      "latitude": "47.29419000",
      "longitude": "11.59070000"
   },
   {
      "name": "Weer",
      "countryCode": "AT",
      "stateCode": "7",
      "latitude": "47.30375000",
      "longitude": "11.64498000"
   },
   {
      "name": "Weerberg",
      "countryCode": "AT",
      "stateCode": "7",
      "latitude": "47.29841000",
      "longitude": "11.66592000"
   },
   {
      "name": "Weissach",
      "countryCode": "AT",
      "stateCode": "7",
      "latitude": "47.57091000",
      "longitude": "12.16255000"
   },
   {
      "name": "Weissenbach am Lech",
      "countryCode": "AT",
      "stateCode": "7",
      "latitude": "47.44162000",
      "longitude": "10.64071000"
   },
   {
      "name": "Wenns",
      "countryCode": "AT",
      "stateCode": "7",
      "latitude": "47.16667000",
      "longitude": "10.73333000"
   },
   {
      "name": "Westendorf",
      "countryCode": "AT",
      "stateCode": "7",
      "latitude": "47.43208000",
      "longitude": "12.21406000"
   },
   {
      "name": "Wiesing",
      "countryCode": "AT",
      "stateCode": "7",
      "latitude": "47.40486000",
      "longitude": "11.79708000"
   },
   {
      "name": "Wildermieming",
      "countryCode": "AT",
      "stateCode": "7",
      "latitude": "47.31667000",
      "longitude": "11.01667000"
   },
   {
      "name": "Wildschönau",
      "countryCode": "AT",
      "stateCode": "7",
      "latitude": "47.40619000",
      "longitude": "12.03784000"
   },
   {
      "name": "Wilten",
      "countryCode": "AT",
      "stateCode": "7",
      "latitude": "47.25829000",
      "longitude": "11.38808000"
   },
   {
      "name": "Wängle",
      "countryCode": "AT",
      "stateCode": "7",
      "latitude": "47.48658000",
      "longitude": "10.68995000"
   },
   {
      "name": "Wörgl",
      "countryCode": "AT",
      "stateCode": "7",
      "latitude": "47.48906000",
      "longitude": "12.06174000"
   },
   {
      "name": "Zams",
      "countryCode": "AT",
      "stateCode": "7",
      "latitude": "47.15844000",
      "longitude": "10.58970000"
   },
   {
      "name": "Zell",
      "countryCode": "AT",
      "stateCode": "7",
      "latitude": "47.58333000",
      "longitude": "12.15000000"
   },
   {
      "name": "Zell am Ziller",
      "countryCode": "AT",
      "stateCode": "7",
      "latitude": "47.23333000",
      "longitude": "11.88333000"
   },
   {
      "name": "Zellberg",
      "countryCode": "AT",
      "stateCode": "7",
      "latitude": "47.23333000",
      "longitude": "11.85000000"
   },
   {
      "name": "Zirl",
      "countryCode": "AT",
      "stateCode": "7",
      "latitude": "47.27410000",
      "longitude": "11.23961000"
   },
   {
      "name": "Zöblen",
      "countryCode": "AT",
      "stateCode": "7",
      "latitude": "47.50772000",
      "longitude": "10.47971000"
   },
   {
      "name": "Ötztal-Bahnhof",
      "countryCode": "AT",
      "stateCode": "7",
      "latitude": "47.23333000",
      "longitude": "10.85000000"
   }
]