[
   {
      "name": "Al Matlīn",
      "countryCode": "TN",
      "stateCode": "23",
      "latitude": "37.24516000",
      "longitude": "10.05000000"
   },
   {
      "name": "Bizerte",
      "countryCode": "TN",
      "stateCode": "23",
      "latitude": "37.27442000",
      "longitude": "9.87391000"
   },
   {
      "name": "Bizerte Sud",
      "countryCode": "TN",
      "stateCode": "23",
      "latitude": "37.25528000",
      "longitude": "9.67915000"
   },
   {
      "name": "Douar Tindja",
      "countryCode": "TN",
      "stateCode": "23",
      "latitude": "37.16667000",
      "longitude": "9.75000000"
   },
   {
      "name": "El Alia",
      "countryCode": "TN",
      "stateCode": "23",
      "latitude": "37.16911000",
      "longitude": "10.03478000"
   },
   {
      "name": "Mateur",
      "countryCode": "TN",
      "stateCode": "23",
      "latitude": "37.04045000",
      "longitude": "9.66557000"
   },
   {
      "name": "Menzel Abderhaman",
      "countryCode": "TN",
      "stateCode": "23",
      "latitude": "37.23737000",
      "longitude": "9.86313000"
   },
   {
      "name": "Menzel Bourguiba",
      "countryCode": "TN",
      "stateCode": "23",
      "latitude": "37.15368000",
      "longitude": "9.78594000"
   },
   {
      "name": "Menzel Jemil",
      "countryCode": "TN",
      "stateCode": "23",
      "latitude": "37.23618000",
      "longitude": "9.91448000"
   },
   {
      "name": "Rafrāf",
      "countryCode": "TN",
      "stateCode": "23",
      "latitude": "37.19043000",
      "longitude": "10.18365000"
   },
   {
      "name": "Rhar el Melah",
      "countryCode": "TN",
      "stateCode": "23",
      "latitude": "37.16939000",
      "longitude": "10.19064000"
   },
   {
      "name": "Sejenane",
      "countryCode": "TN",
      "stateCode": "23",
      "latitude": "37.05722000",
      "longitude": "9.23806000"
   },
   {
      "name": "Zahānah",
      "countryCode": "TN",
      "stateCode": "23",
      "latitude": "37.03959000",
      "longitude": "10.03876000"
   }
]