[
   {
      "name": "Al Ghanţū",
      "countryCode": "SY",
      "stateCode": "HI",
      "latitude": "34.82202000",
      "longitude": "36.69613000"
   },
   {
      "name": "Al Qaryatayn",
      "countryCode": "SY",
      "stateCode": "HI",
      "latitude": "34.22956000",
      "longitude": "37.24066000"
   },
   {
      "name": "Al Quşayr",
      "countryCode": "SY",
      "stateCode": "HI",
      "latitude": "34.50780000",
      "longitude": "36.58029000"
   },
   {
      "name": "Al-Rastan District",
      "countryCode": "SY",
      "stateCode": "HI",
      "latitude": "34.87100000",
      "longitude": "36.77245000"
   },
   {
      "name": "Ar Rastan",
      "countryCode": "SY",
      "stateCode": "HI",
      "latitude": "34.92667000",
      "longitude": "36.73241000"
   },
   {
      "name": "Hisya",
      "countryCode": "SY",
      "stateCode": "HI",
      "latitude": "34.41197000",
      "longitude": "36.75867000"
   },
   {
      "name": "Homs",
      "countryCode": "SY",
      "stateCode": "HI",
      "latitude": "34.72682000",
      "longitude": "36.72339000"
   },
   {
      "name": "Kafr Lāhā",
      "countryCode": "SY",
      "stateCode": "HI",
      "latitude": "34.89469000",
      "longitude": "36.49582000"
   },
   {
      "name": "Mukharram al Fawqānī",
      "countryCode": "SY",
      "stateCode": "HI",
      "latitude": "34.81521000",
      "longitude": "37.08677000"
   },
   {
      "name": "Tadmur",
      "countryCode": "SY",
      "stateCode": "HI",
      "latitude": "34.56240000",
      "longitude": "38.28402000"
   },
   {
      "name": "Tadmur District",
      "countryCode": "SY",
      "stateCode": "HI",
      "latitude": "34.42401000",
      "longitude": "38.64580000"
   },
   {
      "name": "Tallbīsah",
      "countryCode": "SY",
      "stateCode": "HI",
      "latitude": "34.84072000",
      "longitude": "36.73092000"
   },
   {
      "name": "Tallkalakh",
      "countryCode": "SY",
      "stateCode": "HI",
      "latitude": "34.66842000",
      "longitude": "36.25995000"
   },
   {
      "name": "Şadad",
      "countryCode": "SY",
      "stateCode": "HI",
      "latitude": "34.31248000",
      "longitude": "36.92562000"
   }
]