[
   {
      "name": "Ambo",
      "countryCode": "PE",
      "stateCode": "HUC",
      "latitude": "-10.13083000",
      "longitude": "-76.20472000"
   },
   {
      "name": "Huacaybamba",
      "countryCode": "PE",
      "stateCode": "HUC",
      "latitude": "-8.99480000",
      "longitude": "-76.81027000"
   },
   {
      "name": "Huánuco",
      "countryCode": "PE",
      "stateCode": "HUC",
      "latitude": "-9.93062000",
      "longitude": "-76.24223000"
   },
   {
      "name": "La Unión",
      "countryCode": "PE",
      "stateCode": "HUC",
      "latitude": "-9.82702000",
      "longitude": "-76.80199000"
   },
   {
      "name": "Lauricocha",
      "countryCode": "PE",
      "stateCode": "HUC",
      "latitude": "-10.20055000",
      "longitude": "-76.70359000"
   },
   {
      "name": "Llata",
      "countryCode": "PE",
      "stateCode": "HUC",
      "latitude": "-9.41667000",
      "longitude": "-76.78333000"
   },
   {
      "name": "Provincia de Ambo",
      "countryCode": "PE",
      "stateCode": "HUC",
      "latitude": "-10.16667000",
      "longitude": "-76.16667000"
   },
   {
      "name": "Provincia de Dos de Mayo",
      "countryCode": "PE",
      "stateCode": "HUC",
      "latitude": "-9.91667000",
      "longitude": "-76.75000000"
   },
   {
      "name": "Provincia de Huamalíes",
      "countryCode": "PE",
      "stateCode": "HUC",
      "latitude": "-9.25000000",
      "longitude": "-76.50000000"
   },
   {
      "name": "Provincia de Huánuco",
      "countryCode": "PE",
      "stateCode": "HUC",
      "latitude": "-9.66667000",
      "longitude": "-76.08333000"
   },
   {
      "name": "Provincia de Leoncio Prado",
      "countryCode": "PE",
      "stateCode": "HUC",
      "latitude": "-9.16667000",
      "longitude": "-76.00000000"
   },
   {
      "name": "Provincia de Marañón",
      "countryCode": "PE",
      "stateCode": "HUC",
      "latitude": "-8.75000000",
      "longitude": "-76.66667000"
   },
   {
      "name": "Provincia de Pachitea",
      "countryCode": "PE",
      "stateCode": "HUC",
      "latitude": "-9.95262000",
      "longitude": "-75.81390000"
   },
   {
      "name": "Puerto Inca",
      "countryCode": "PE",
      "stateCode": "HUC",
      "latitude": "-9.36696000",
      "longitude": "-75.08958000"
   },
   {
      "name": "San Miguel de Cauri",
      "countryCode": "PE",
      "stateCode": "HUC",
      "latitude": "-10.13818000",
      "longitude": "-76.62288000"
   },
   {
      "name": "Tingo María",
      "countryCode": "PE",
      "stateCode": "HUC",
      "latitude": "-9.29532000",
      "longitude": "-75.99574000"
   },
   {
      "name": "Yanacancha",
      "countryCode": "PE",
      "stateCode": "HUC",
      "latitude": "-10.24111000",
      "longitude": "-76.64556000"
   },
   {
      "name": "Yarowilca",
      "countryCode": "PE",
      "stateCode": "HUC",
      "latitude": "-9.80263000",
      "longitude": "-76.59516000"
   }
]