[
   {
      "name": "Artibonite",
      "isoCode": "AR",
      "countryCode": "HT",
      "latitude": "19.36290200",
      "longitude": "-72.42581450"
   },
   {
      "name": "Centre",
      "isoCode": "CE",
      "countryCode": "HT",
      "latitude": "32.83702510",
      "longitude": "-96.77738820"
   },
   {
      "name": "Grand'Anse",
      "isoCode": "GA",
      "countryCode": "HT",
      "latitude": "12.01666670",
      "longitude": "-61.76666670"
   },
   {
      "name": "Nord",
      "isoCode": "ND",
      "countryCode": "HT",
      "latitude": "43.19052600",
      "longitude": "-89.43792100"
   },
   {
      "name": "Nord-Est",
      "isoCode": "NE",
      "countryCode": "HT",
      "latitude": "19.48897230",
      "longitude": "-71.85713310"
   },
   {
      "name": "Nippes",
      "isoCode": "NI",
      "countryCode": "HT",
      "latitude": "18.39907350",
      "longitude": "-73.41802110"
   },
   {
      "name": "Nord-Ouest",
      "isoCode": "NO",
      "countryCode": "HT",
      "latitude": "19.83740090",
      "longitude": "-73.04052770"
   },
   {
      "name": "Ouest",
      "isoCode": "OU",
      "countryCode": "HT",
      "latitude": "45.45472490",
      "longitude": "-73.65023650"
   },
   {
      "name": "Sud",
      "isoCode": "SD",
      "countryCode": "HT",
      "latitude": "29.92132480",
      "longitude": "-90.09737720"
   },
   {
      "name": "Sud-Est",
      "isoCode": "SE",
      "countryCode": "HT",
      "latitude": "18.27835980",
      "longitude": "-72.35479150"
   }
]