[
   {
      "name": "Adâncata",
      "countryCode": "RO",
      "stateCode": "IL",
      "latitude": "44.76667000",
      "longitude": "26.43333000"
   },
   {
      "name": "Albeşti",
      "countryCode": "RO",
      "stateCode": "IL",
      "latitude": "44.53333000",
      "longitude": "27.13333000"
   },
   {
      "name": "Alexeni",
      "countryCode": "RO",
      "stateCode": "IL",
      "latitude": "44.68333000",
      "longitude": "26.70000000"
   },
   {
      "name": "Amara",
      "countryCode": "RO",
      "stateCode": "IL",
      "latitude": "44.61667000",
      "longitude": "27.31667000"
   },
   {
      "name": "Andrăşeşti",
      "countryCode": "RO",
      "stateCode": "IL",
      "latitude": "44.56667000",
      "longitude": "27.13333000"
   },
   {
      "name": "Armăşeşti",
      "countryCode": "RO",
      "stateCode": "IL",
      "latitude": "44.75000000",
      "longitude": "26.58333000"
   },
   {
      "name": "Axintele",
      "countryCode": "RO",
      "stateCode": "IL",
      "latitude": "44.60000000",
      "longitude": "26.78333000"
   },
   {
      "name": "Balaciu",
      "countryCode": "RO",
      "stateCode": "IL",
      "latitude": "44.63333000",
      "longitude": "26.88333000"
   },
   {
      "name": "Borduşani",
      "countryCode": "RO",
      "stateCode": "IL",
      "latitude": "44.48333000",
      "longitude": "27.90000000"
   },
   {
      "name": "Borănești",
      "countryCode": "RO",
      "stateCode": "IL",
      "latitude": "44.66069000",
      "longitude": "26.60505000"
   },
   {
      "name": "Broșteni",
      "countryCode": "RO",
      "stateCode": "IL",
      "latitude": "44.67192000",
      "longitude": "26.74787000"
   },
   {
      "name": "Bucu",
      "countryCode": "RO",
      "stateCode": "IL",
      "latitude": "44.60532000",
      "longitude": "27.49337000"
   },
   {
      "name": "Buești",
      "countryCode": "RO",
      "stateCode": "IL",
      "latitude": "44.54473000",
      "longitude": "27.18729000"
   },
   {
      "name": "Buliga",
      "countryCode": "RO",
      "stateCode": "IL",
      "latitude": "44.35731000",
      "longitude": "27.79225000"
   },
   {
      "name": "Bărbulești",
      "countryCode": "RO",
      "stateCode": "IL",
      "latitude": "44.72629000",
      "longitude": "26.59929000"
   },
   {
      "name": "Bărcăneşti",
      "countryCode": "RO",
      "stateCode": "IL",
      "latitude": "44.63333000",
      "longitude": "26.65000000"
   },
   {
      "name": "Cegani",
      "countryCode": "RO",
      "stateCode": "IL",
      "latitude": "44.46279000",
      "longitude": "27.90175000"
   },
   {
      "name": "Ciochina",
      "countryCode": "RO",
      "stateCode": "IL",
      "latitude": "44.58333000",
      "longitude": "27.06667000"
   },
   {
      "name": "Ciocârlia",
      "countryCode": "RO",
      "stateCode": "IL",
      "latitude": "44.80000000",
      "longitude": "26.66667000"
   },
   {
      "name": "Ciulniţa",
      "countryCode": "RO",
      "stateCode": "IL",
      "latitude": "44.53333000",
      "longitude": "27.35000000"
   },
   {
      "name": "Cocora",
      "countryCode": "RO",
      "stateCode": "IL",
      "latitude": "44.73333000",
      "longitude": "27.05000000"
   },
   {
      "name": "Colelia",
      "countryCode": "RO",
      "stateCode": "IL",
      "latitude": "44.76112000",
      "longitude": "27.00693000"
   },
   {
      "name": "Comuna Adâncata",
      "countryCode": "RO",
      "stateCode": "IL",
      "latitude": "44.76691000",
      "longitude": "26.43010000"
   },
   {
      "name": "Comuna Albeşti",
      "countryCode": "RO",
      "stateCode": "IL",
      "latitude": "44.53575000",
      "longitude": "27.12464000"
   },
   {
      "name": "Comuna Alexeni",
      "countryCode": "RO",
      "stateCode": "IL",
      "latitude": "44.67966000",
      "longitude": "26.71064000"
   },
   {
      "name": "Comuna Andrăşeşti",
      "countryCode": "RO",
      "stateCode": "IL",
      "latitude": "44.57648000",
      "longitude": "27.12438000"
   },
   {
      "name": "Comuna Armăşeşti",
      "countryCode": "RO",
      "stateCode": "IL",
      "latitude": "44.76397000",
      "longitude": "26.57999000"
   },
   {
      "name": "Comuna Axintele",
      "countryCode": "RO",
      "stateCode": "IL",
      "latitude": "44.58688000",
      "longitude": "26.78809000"
   },
   {
      "name": "Comuna Balaciu",
      "countryCode": "RO",
      "stateCode": "IL",
      "latitude": "44.60985000",
      "longitude": "26.88277000"
   },
   {
      "name": "Comuna Borduşani",
      "countryCode": "RO",
      "stateCode": "IL",
      "latitude": "44.47236000",
      "longitude": "27.90315000"
   },
   {
      "name": "Comuna Borăneşti",
      "countryCode": "RO",
      "stateCode": "IL",
      "latitude": "44.66355000",
      "longitude": "26.59486000"
   },
   {
      "name": "Comuna Bucu",
      "countryCode": "RO",
      "stateCode": "IL",
      "latitude": "44.60663000",
      "longitude": "27.49432000"
   },
   {
      "name": "Comuna Bueşti",
      "countryCode": "RO",
      "stateCode": "IL",
      "latitude": "44.54473000",
      "longitude": "27.18729000"
   },
   {
      "name": "Comuna Bărbuleşti",
      "countryCode": "RO",
      "stateCode": "IL",
      "latitude": "44.72629000",
      "longitude": "26.59929000"
   },
   {
      "name": "Comuna Bărcăneşti",
      "countryCode": "RO",
      "stateCode": "IL",
      "latitude": "44.63517000",
      "longitude": "26.66786000"
   },
   {
      "name": "Comuna Ciochina",
      "countryCode": "RO",
      "stateCode": "IL",
      "latitude": "44.57524000",
      "longitude": "27.02475000"
   },
   {
      "name": "Comuna Ciocârlia",
      "countryCode": "RO",
      "stateCode": "IL",
      "latitude": "44.78828000",
      "longitude": "26.67002000"
   },
   {
      "name": "Comuna Ciulniţa",
      "countryCode": "RO",
      "stateCode": "IL",
      "latitude": "44.51976000",
      "longitude": "27.28461000"
   },
   {
      "name": "Comuna Cocora",
      "countryCode": "RO",
      "stateCode": "IL",
      "latitude": "44.73752000",
      "longitude": "27.04760000"
   },
   {
      "name": "Comuna Colelia",
      "countryCode": "RO",
      "stateCode": "IL",
      "latitude": "44.76112000",
      "longitude": "27.00693000"
   },
   {
      "name": "Comuna Cosâmbeşti",
      "countryCode": "RO",
      "stateCode": "IL",
      "latitude": "44.56104000",
      "longitude": "27.45846000"
   },
   {
      "name": "Comuna Coşereni",
      "countryCode": "RO",
      "stateCode": "IL",
      "latitude": "44.68540000",
      "longitude": "26.56101000"
   },
   {
      "name": "Comuna Dridu",
      "countryCode": "RO",
      "stateCode": "IL",
      "latitude": "44.70391000",
      "longitude": "26.45311000"
   },
   {
      "name": "Comuna Drăgoeşti",
      "countryCode": "RO",
      "stateCode": "IL",
      "latitude": "44.58767000",
      "longitude": "26.52057000"
   },
   {
      "name": "Comuna Făcăeni",
      "countryCode": "RO",
      "stateCode": "IL",
      "latitude": "44.56878000",
      "longitude": "27.88087000"
   },
   {
      "name": "Comuna Gheorghe Doja",
      "countryCode": "RO",
      "stateCode": "IL",
      "latitude": "44.61333000",
      "longitude": "27.18388000"
   },
   {
      "name": "Comuna Gheorghe Lazăr",
      "countryCode": "RO",
      "stateCode": "IL",
      "latitude": "44.63278000",
      "longitude": "27.45815000"
   },
   {
      "name": "Comuna Giurgeni",
      "countryCode": "RO",
      "stateCode": "IL",
      "latitude": "44.74435000",
      "longitude": "27.85638000"
   },
   {
      "name": "Comuna Grindu",
      "countryCode": "RO",
      "stateCode": "IL",
      "latitude": "44.77212000",
      "longitude": "26.90952000"
   },
   {
      "name": "Comuna Griviţa",
      "countryCode": "RO",
      "stateCode": "IL",
      "latitude": "44.72969000",
      "longitude": "27.32227000"
   },
   {
      "name": "Comuna Gura Ialomiţei",
      "countryCode": "RO",
      "stateCode": "IL",
      "latitude": "44.73165000",
      "longitude": "27.74035000"
   },
   {
      "name": "Comuna Gârbovi",
      "countryCode": "RO",
      "stateCode": "IL",
      "latitude": "44.78651000",
      "longitude": "26.76960000"
   },
   {
      "name": "Comuna Ion Roată",
      "countryCode": "RO",
      "stateCode": "IL",
      "latitude": "44.66757000",
      "longitude": "26.76803000"
   },
   {
      "name": "Comuna Jilavele",
      "countryCode": "RO",
      "stateCode": "IL",
      "latitude": "44.77522000",
      "longitude": "26.52478000"
   },
   {
      "name": "Comuna Maia",
      "countryCode": "RO",
      "stateCode": "IL",
      "latitude": "44.73616000",
      "longitude": "26.40151000"
   },
   {
      "name": "Comuna Manasia",
      "countryCode": "RO",
      "stateCode": "IL",
      "latitude": "44.70648000",
      "longitude": "26.67346000"
   },
   {
      "name": "Comuna Mihail Kogălniceanu",
      "countryCode": "RO",
      "stateCode": "IL",
      "latitude": "44.66216000",
      "longitude": "27.73430000"
   },
   {
      "name": "Comuna Miloşeşti",
      "countryCode": "RO",
      "stateCode": "IL",
      "latitude": "44.75820000",
      "longitude": "27.20338000"
   },
   {
      "name": "Comuna Moldoveni",
      "countryCode": "RO",
      "stateCode": "IL",
      "latitude": "44.71425000",
      "longitude": "26.51879000"
   },
   {
      "name": "Comuna Movila",
      "countryCode": "RO",
      "stateCode": "IL",
      "latitude": "44.53747000",
      "longitude": "27.71771000"
   },
   {
      "name": "Comuna Moviliţa",
      "countryCode": "RO",
      "stateCode": "IL",
      "latitude": "44.61784000",
      "longitude": "26.48006000"
   },
   {
      "name": "Comuna Munteni Buzău",
      "countryCode": "RO",
      "stateCode": "IL",
      "latitude": "44.63838000",
      "longitude": "26.97288000"
   },
   {
      "name": "Comuna Mărculeşti",
      "countryCode": "RO",
      "stateCode": "IL",
      "latitude": "44.56698000",
      "longitude": "27.51562000"
   },
   {
      "name": "Comuna Ograda",
      "countryCode": "RO",
      "stateCode": "IL",
      "latitude": "44.61457000",
      "longitude": "27.57047000"
   },
   {
      "name": "Comuna Perieţi",
      "countryCode": "RO",
      "stateCode": "IL",
      "latitude": "44.57191000",
      "longitude": "27.26027000"
   },
   {
      "name": "Comuna Platoneşti",
      "countryCode": "RO",
      "stateCode": "IL",
      "latitude": "44.60713000",
      "longitude": "27.68637000"
   },
   {
      "name": "Comuna Reviga",
      "countryCode": "RO",
      "stateCode": "IL",
      "latitude": "44.69251000",
      "longitude": "27.10866000"
   },
   {
      "name": "Comuna Roşiori",
      "countryCode": "RO",
      "stateCode": "IL",
      "latitude": "44.61265000",
      "longitude": "26.53496000"
   },
   {
      "name": "Comuna Răduleşti",
      "countryCode": "RO",
      "stateCode": "IL",
      "latitude": "44.77609000",
      "longitude": "26.33987000"
   },
   {
      "name": "Comuna Scânteia",
      "countryCode": "RO",
      "stateCode": "IL",
      "latitude": "44.73262000",
      "longitude": "27.44334000"
   },
   {
      "name": "Comuna Sfântu Gheorghe",
      "countryCode": "RO",
      "stateCode": "IL",
      "latitude": "44.64735000",
      "longitude": "26.84315000"
   },
   {
      "name": "Comuna Sinteşti",
      "countryCode": "RO",
      "stateCode": "IL",
      "latitude": "44.56260000",
      "longitude": "26.41162000"
   },
   {
      "name": "Comuna Slobozia",
      "countryCode": "RO",
      "stateCode": "IL",
      "latitude": "44.57437000",
      "longitude": "27.38755000"
   },
   {
      "name": "Comuna Stelnica",
      "countryCode": "RO",
      "stateCode": "IL",
      "latitude": "44.42585000",
      "longitude": "27.88823000"
   },
   {
      "name": "Comuna Sudiţi",
      "countryCode": "RO",
      "stateCode": "IL",
      "latitude": "44.57135000",
      "longitude": "27.58215000"
   },
   {
      "name": "Comuna Sălcioara",
      "countryCode": "RO",
      "stateCode": "IL",
      "latitude": "44.53755000",
      "longitude": "26.90312000"
   },
   {
      "name": "Comuna Sărăţeni",
      "countryCode": "RO",
      "stateCode": "IL",
      "latitude": "44.63422000",
      "longitude": "26.92686000"
   },
   {
      "name": "Comuna Săveni",
      "countryCode": "RO",
      "stateCode": "IL",
      "latitude": "44.60868000",
      "longitude": "27.62061000"
   },
   {
      "name": "Comuna Traian",
      "countryCode": "RO",
      "stateCode": "IL",
      "latitude": "44.76350000",
      "longitude": "27.34337000"
   },
   {
      "name": "Comuna Valea Ciorii",
      "countryCode": "RO",
      "stateCode": "IL",
      "latitude": "44.71456000",
      "longitude": "27.53979000"
   },
   {
      "name": "Comuna Valea Măcrişului",
      "countryCode": "RO",
      "stateCode": "IL",
      "latitude": "44.73554000",
      "longitude": "26.83515000"
   },
   {
      "name": "Comuna Vlădeni",
      "countryCode": "RO",
      "stateCode": "IL",
      "latitude": "44.60652000",
      "longitude": "27.85120000"
   },
   {
      "name": "Condeești",
      "countryCode": "RO",
      "stateCode": "IL",
      "latitude": "44.62761000",
      "longitude": "26.69147000"
   },
   {
      "name": "Cosâmbeşti",
      "countryCode": "RO",
      "stateCode": "IL",
      "latitude": "44.55929000",
      "longitude": "27.43441000"
   },
   {
      "name": "Coşereni",
      "countryCode": "RO",
      "stateCode": "IL",
      "latitude": "44.68333000",
      "longitude": "26.56667000"
   },
   {
      "name": "Căzăneşti",
      "countryCode": "RO",
      "stateCode": "IL",
      "latitude": "44.61667000",
      "longitude": "27.01667000"
   },
   {
      "name": "Dridu",
      "countryCode": "RO",
      "stateCode": "IL",
      "latitude": "44.70000000",
      "longitude": "26.45000000"
   },
   {
      "name": "Drăgoeşti-Snagov",
      "countryCode": "RO",
      "stateCode": "IL",
      "latitude": "44.56667000",
      "longitude": "26.53333000"
   },
   {
      "name": "Drăgoești",
      "countryCode": "RO",
      "stateCode": "IL",
      "latitude": "44.56786000",
      "longitude": "26.53950000"
   },
   {
      "name": "Feteşti",
      "countryCode": "RO",
      "stateCode": "IL",
      "latitude": "44.38333000",
      "longitude": "27.83333000"
   },
   {
      "name": "Fetești-Gară",
      "countryCode": "RO",
      "stateCode": "IL",
      "latitude": "44.41960000",
      "longitude": "27.82536000"
   },
   {
      "name": "Fierbinţi-Târg",
      "countryCode": "RO",
      "stateCode": "IL",
      "latitude": "44.70000000",
      "longitude": "26.35000000"
   },
   {
      "name": "Fierbinții de Jos",
      "countryCode": "RO",
      "stateCode": "IL",
      "latitude": "44.69523000",
      "longitude": "26.39629000"
   },
   {
      "name": "Fierbinții de Sus",
      "countryCode": "RO",
      "stateCode": "IL",
      "latitude": "44.68186000",
      "longitude": "26.40200000"
   },
   {
      "name": "Făcăeni",
      "countryCode": "RO",
      "stateCode": "IL",
      "latitude": "44.56667000",
      "longitude": "27.90000000"
   },
   {
      "name": "Gheorghe Doja",
      "countryCode": "RO",
      "stateCode": "IL",
      "latitude": "44.61622000",
      "longitude": "27.18740000"
   },
   {
      "name": "Gheorghe Lazăr",
      "countryCode": "RO",
      "stateCode": "IL",
      "latitude": "44.63333000",
      "longitude": "27.45000000"
   },
   {
      "name": "Giurgeni",
      "countryCode": "RO",
      "stateCode": "IL",
      "latitude": "44.76667000",
      "longitude": "27.88333000"
   },
   {
      "name": "Grindu",
      "countryCode": "RO",
      "stateCode": "IL",
      "latitude": "44.76667000",
      "longitude": "26.91667000"
   },
   {
      "name": "Griviţa",
      "countryCode": "RO",
      "stateCode": "IL",
      "latitude": "44.73333000",
      "longitude": "27.28333000"
   },
   {
      "name": "Gura Ialomiței",
      "countryCode": "RO",
      "stateCode": "IL",
      "latitude": "44.71608000",
      "longitude": "27.75310000"
   },
   {
      "name": "Gârbovi",
      "countryCode": "RO",
      "stateCode": "IL",
      "latitude": "44.78333000",
      "longitude": "26.76667000"
   },
   {
      "name": "Iazu",
      "countryCode": "RO",
      "stateCode": "IL",
      "latitude": "44.73120000",
      "longitude": "27.42074000"
   },
   {
      "name": "Ion Roată",
      "countryCode": "RO",
      "stateCode": "IL",
      "latitude": "44.66667000",
      "longitude": "26.76667000"
   },
   {
      "name": "Jilavele",
      "countryCode": "RO",
      "stateCode": "IL",
      "latitude": "44.76667000",
      "longitude": "26.53333000"
   },
   {
      "name": "Luciu",
      "countryCode": "RO",
      "stateCode": "IL",
      "latitude": "44.74722000",
      "longitude": "27.72760000"
   },
   {
      "name": "Lăcusteni",
      "countryCode": "RO",
      "stateCode": "IL",
      "latitude": "44.60715000",
      "longitude": "27.67569000"
   },
   {
      "name": "Maia",
      "countryCode": "RO",
      "stateCode": "IL",
      "latitude": "44.73616000",
      "longitude": "26.40151000"
   },
   {
      "name": "Malu Roșu",
      "countryCode": "RO",
      "stateCode": "IL",
      "latitude": "44.78088000",
      "longitude": "26.57945000"
   },
   {
      "name": "Manasia",
      "countryCode": "RO",
      "stateCode": "IL",
      "latitude": "44.70000000",
      "longitude": "26.66667000"
   },
   {
      "name": "Mihail Kogălniceanu",
      "countryCode": "RO",
      "stateCode": "IL",
      "latitude": "44.68333000",
      "longitude": "27.73333000"
   },
   {
      "name": "Miloşeşti",
      "countryCode": "RO",
      "stateCode": "IL",
      "latitude": "44.73333000",
      "longitude": "27.23333000"
   },
   {
      "name": "Moldoveni",
      "countryCode": "RO",
      "stateCode": "IL",
      "latitude": "44.71425000",
      "longitude": "26.51879000"
   },
   {
      "name": "Movila",
      "countryCode": "RO",
      "stateCode": "IL",
      "latitude": "44.55000000",
      "longitude": "27.70000000"
   },
   {
      "name": "Moviliţa",
      "countryCode": "RO",
      "stateCode": "IL",
      "latitude": "44.65000000",
      "longitude": "26.48333000"
   },
   {
      "name": "Municipiul Feteşti",
      "countryCode": "RO",
      "stateCode": "IL",
      "latitude": "44.38608000",
      "longitude": "27.82483000"
   },
   {
      "name": "Municipiul Urziceni",
      "countryCode": "RO",
      "stateCode": "IL",
      "latitude": "44.71842000",
      "longitude": "26.64187000"
   },
   {
      "name": "Munteni Buzău",
      "countryCode": "RO",
      "stateCode": "IL",
      "latitude": "44.63333000",
      "longitude": "26.98333000"
   },
   {
      "name": "Mărculești",
      "countryCode": "RO",
      "stateCode": "IL",
      "latitude": "44.56698000",
      "longitude": "27.51562000"
   },
   {
      "name": "Ograda",
      "countryCode": "RO",
      "stateCode": "IL",
      "latitude": "44.61457000",
      "longitude": "27.57047000"
   },
   {
      "name": "Oraş Amara",
      "countryCode": "RO",
      "stateCode": "IL",
      "latitude": "44.61793000",
      "longitude": "27.33411000"
   },
   {
      "name": "Oraş Cãzãneşti",
      "countryCode": "RO",
      "stateCode": "IL",
      "latitude": "44.62514000",
      "longitude": "27.01697000"
   },
   {
      "name": "Oraş Fierbinţi-Târg",
      "countryCode": "RO",
      "stateCode": "IL",
      "latitude": "44.68292000",
      "longitude": "26.38324000"
   },
   {
      "name": "Oraş Ţãndãrei",
      "countryCode": "RO",
      "stateCode": "IL",
      "latitude": "44.64491000",
      "longitude": "27.65196000"
   },
   {
      "name": "Patru Frați",
      "countryCode": "RO",
      "stateCode": "IL",
      "latitude": "44.73672000",
      "longitude": "26.47059000"
   },
   {
      "name": "Perieţi",
      "countryCode": "RO",
      "stateCode": "IL",
      "latitude": "44.55000000",
      "longitude": "27.21667000"
   },
   {
      "name": "Platonești",
      "countryCode": "RO",
      "stateCode": "IL",
      "latitude": "44.60712000",
      "longitude": "27.69706000"
   },
   {
      "name": "Rași",
      "countryCode": "RO",
      "stateCode": "IL",
      "latitude": "44.53534000",
      "longitude": "26.92485000"
   },
   {
      "name": "Reviga",
      "countryCode": "RO",
      "stateCode": "IL",
      "latitude": "44.71667000",
      "longitude": "27.10000000"
   },
   {
      "name": "Rovine",
      "countryCode": "RO",
      "stateCode": "IL",
      "latitude": "44.69540000",
      "longitude": "27.09364000"
   },
   {
      "name": "Roșiori",
      "countryCode": "RO",
      "stateCode": "IL",
      "latitude": "44.61265000",
      "longitude": "26.53496000"
   },
   {
      "name": "Rădulești",
      "countryCode": "RO",
      "stateCode": "IL",
      "latitude": "44.76667000",
      "longitude": "26.35000000"
   },
   {
      "name": "Scânteia",
      "countryCode": "RO",
      "stateCode": "IL",
      "latitude": "44.73404000",
      "longitude": "27.46593000"
   },
   {
      "name": "Sfântu Gheorghe",
      "countryCode": "RO",
      "stateCode": "IL",
      "latitude": "44.65000000",
      "longitude": "26.83333000"
   },
   {
      "name": "Sineşti",
      "countryCode": "RO",
      "stateCode": "IL",
      "latitude": "44.56667000",
      "longitude": "26.38333000"
   },
   {
      "name": "Slobozia",
      "countryCode": "RO",
      "stateCode": "IL",
      "latitude": "44.56470000",
      "longitude": "27.36330000"
   },
   {
      "name": "Smirna",
      "countryCode": "RO",
      "stateCode": "IL",
      "latitude": "44.72405000",
      "longitude": "27.35478000"
   },
   {
      "name": "Stelnica",
      "countryCode": "RO",
      "stateCode": "IL",
      "latitude": "44.41667000",
      "longitude": "27.88333000"
   },
   {
      "name": "Sudiţi",
      "countryCode": "RO",
      "stateCode": "IL",
      "latitude": "44.58333000",
      "longitude": "27.60000000"
   },
   {
      "name": "Sălcioara",
      "countryCode": "RO",
      "stateCode": "IL",
      "latitude": "44.53333000",
      "longitude": "26.88333000"
   },
   {
      "name": "Sărățeni",
      "countryCode": "RO",
      "stateCode": "IL",
      "latitude": "44.63422000",
      "longitude": "26.92686000"
   },
   {
      "name": "Săveni",
      "countryCode": "RO",
      "stateCode": "IL",
      "latitude": "44.60000000",
      "longitude": "27.65000000"
   },
   {
      "name": "Traian",
      "countryCode": "RO",
      "stateCode": "IL",
      "latitude": "44.76350000",
      "longitude": "27.34337000"
   },
   {
      "name": "Urziceni",
      "countryCode": "RO",
      "stateCode": "IL",
      "latitude": "44.71667000",
      "longitude": "26.63333000"
   },
   {
      "name": "Valea Ciorii",
      "countryCode": "RO",
      "stateCode": "IL",
      "latitude": "44.71667000",
      "longitude": "27.56667000"
   },
   {
      "name": "Valea Măcrișului",
      "countryCode": "RO",
      "stateCode": "IL",
      "latitude": "44.74379000",
      "longitude": "26.83015000"
   },
   {
      "name": "Vlașca",
      "countryCode": "RO",
      "stateCode": "IL",
      "latitude": "44.39664000",
      "longitude": "27.84865000"
   },
   {
      "name": "Vlădeni",
      "countryCode": "RO",
      "stateCode": "IL",
      "latitude": "44.61667000",
      "longitude": "27.88333000"
   },
   {
      "name": "Ţăndărei",
      "countryCode": "RO",
      "stateCode": "IL",
      "latitude": "44.65000000",
      "longitude": "27.66667000"
   }
]