[
   {
      "name": "Caloocan",
      "countryCode": "PH",
      "stateCode": "NCR",
      "latitude": "14.64953000",
      "longitude": "120.96788000"
   },
   {
      "name": "Calumpang",
      "countryCode": "PH",
      "stateCode": "NCR",
      "latitude": "14.62280000",
      "longitude": "121.08970000"
   },
   {
      "name": "Dasmariñas Village",
      "countryCode": "PH",
      "stateCode": "NCR",
      "latitude": "14.54100000",
      "longitude": "121.02800000"
   },
   {
      "name": "Ermita",
      "countryCode": "PH",
      "stateCode": "NCR",
      "latitude": "14.58300000",
      "longitude": "120.98300000"
   },
   {
      "name": "Intramuros",
      "countryCode": "PH",
      "stateCode": "NCR",
      "latitude": "14.59083333",
      "longitude": "120.97500000"
   },
   {
      "name": "Las Piñas",
      "countryCode": "PH",
      "stateCode": "NCR",
      "latitude": "14.45056000",
      "longitude": "120.98278000"
   },
   {
      "name": "Makati",
      "countryCode": "PH",
      "stateCode": "NCR",
      "latitude": "14.55027000",
      "longitude": "121.03269000"
   },
   {
      "name": "Malabon",
      "countryCode": "PH",
      "stateCode": "NCR",
      "latitude": "14.66250000",
      "longitude": "120.95666667"
   },
   {
      "name": "Malate",
      "countryCode": "PH",
      "stateCode": "NCR",
      "latitude": "14.56700000",
      "longitude": "120.98300000"
   },
   {
      "name": "Mandaluyong",
      "countryCode": "PH",
      "stateCode": "NCR",
      "latitude": "14.58320000",
      "longitude": "121.04090000"
   },
   {
      "name": "Manila",
      "countryCode": "PH",
      "stateCode": "NCR",
      "latitude": "14.60420000",
      "longitude": "120.98220000"
   },
   {
      "name": "Marikina",
      "countryCode": "PH",
      "stateCode": "NCR",
      "latitude": "14.65000000",
      "longitude": "121.10000000"
   },
   {
      "name": "Muntinlupa",
      "countryCode": "PH",
      "stateCode": "NCR",
      "latitude": "14.38333333",
      "longitude": "121.05000000"
   },
   {
      "name": "National Capital Region",
      "countryCode": "PH",
      "stateCode": "NCR",
      "latitude": "14.57775000",
      "longitude": "121.04599000"
   },
   {
      "name": "Navotas",
      "countryCode": "PH",
      "stateCode": "NCR",
      "latitude": "14.66667000",
      "longitude": "120.95000000"
   },
   {
      "name": "Niugan",
      "countryCode": "PH",
      "stateCode": "NCR",
      "latitude": "14.66444000",
      "longitude": "120.95528000"
   },
   {
      "name": "Paco",
      "countryCode": "PH",
      "stateCode": "NCR",
      "latitude": "14.58300000",
      "longitude": "120.98300000"
   },
   {
      "name": "Pandacan",
      "countryCode": "PH",
      "stateCode": "NCR",
      "latitude": "14.59400000",
      "longitude": "121.00700000"
   },
   {
      "name": "Parañaque",
      "countryCode": "PH",
      "stateCode": "NCR",
      "latitude": "14.46666667",
      "longitude": "121.01666667"
   },
   {
      "name": "Pasay",
      "countryCode": "PH",
      "stateCode": "NCR",
      "latitude": "14.53748000",
      "longitude": "121.00144000"
   },
   {
      "name": "Pasig",
      "countryCode": "PH",
      "stateCode": "NCR",
      "latitude": "14.58691000",
      "longitude": "121.06140000"
   },
   {
      "name": "Pateros",
      "countryCode": "PH",
      "stateCode": "NCR",
      "latitude": "14.54166667",
      "longitude": "121.06666667"
   },
   {
      "name": "Port Area",
      "countryCode": "PH",
      "stateCode": "NCR",
      "latitude": "14.58330000",
      "longitude": "120.96670000"
   },
   {
      "name": "Quezon City",
      "countryCode": "PH",
      "stateCode": "NCR",
      "latitude": "14.64880000",
      "longitude": "121.05090000"
   },
   {
      "name": "Quiapo",
      "countryCode": "PH",
      "stateCode": "NCR",
      "latitude": "14.60000000",
      "longitude": "120.98330000"
   },
   {
      "name": "Sambayanihan People's Village",
      "countryCode": "PH",
      "stateCode": "NCR",
      "latitude": "14.45558000",
      "longitude": "120.99816000"
   },
   {
      "name": "San Juan",
      "countryCode": "PH",
      "stateCode": "NCR",
      "latitude": "14.60000000",
      "longitude": "121.03330000"
   },
   {
      "name": "San Miguel",
      "countryCode": "PH",
      "stateCode": "NCR",
      "latitude": "14.60000000",
      "longitude": "121.00000000"
   },
   {
      "name": "Santa Ana",
      "countryCode": "PH",
      "stateCode": "NCR",
      "latitude": "14.58000000",
      "longitude": "121.01200000"
   },
   {
      "name": "Santa Cruz",
      "countryCode": "PH",
      "stateCode": "NCR",
      "latitude": "14.61810000",
      "longitude": "120.98500000"
   },
   {
      "name": "Singkamas",
      "countryCode": "PH",
      "stateCode": "NCR",
      "latitude": "14.56666667",
      "longitude": "121.01666667"
   },
   {
      "name": "Taguig",
      "countryCode": "PH",
      "stateCode": "NCR",
      "latitude": "14.52430000",
      "longitude": "121.07920000"
   },
   {
      "name": "Tanza",
      "countryCode": "PH",
      "stateCode": "NCR",
      "latitude": "14.67530000",
      "longitude": "120.93890000"
   },
   {
      "name": "Tondo",
      "countryCode": "PH",
      "stateCode": "NCR",
      "latitude": "14.61700000",
      "longitude": "120.96700000"
   },
   {
      "name": "Valenzuela",
      "countryCode": "PH",
      "stateCode": "NCR",
      "latitude": "14.70000000",
      "longitude": "120.98333333"
   }
]