[
   {
      "name": "Alcaraces",
      "countryCode": "MX",
      "stateCode": "COL",
      "latitude": "19.36433000",
      "longitude": "-103.57676000"
   },
   {
      "name": "Armería",
      "countryCode": "MX",
      "stateCode": "COL",
      "latitude": "18.95554000",
      "longitude": "-103.98357000"
   },
   {
      "name": "Augusto Gómez Villanueva",
      "countryCode": "MX",
      "stateCode": "COL",
      "latitude": "19.02154000",
      "longitude": "-104.00156000"
   },
   {
      "name": "Caleras",
      "countryCode": "MX",
      "stateCode": "COL",
      "latitude": "18.99687000",
      "longitude": "-103.87898000"
   },
   {
      "name": "Camotlán de Miraflores",
      "countryCode": "MX",
      "stateCode": "COL",
      "latitude": "19.22033000",
      "longitude": "-104.23491000"
   },
   {
      "name": "Cerro de Ortega",
      "countryCode": "MX",
      "stateCode": "COL",
      "latitude": "18.75080000",
      "longitude": "-103.72155000"
   },
   {
      "name": "Ciudad de Armería",
      "countryCode": "MX",
      "stateCode": "COL",
      "latitude": "18.93780000",
      "longitude": "-103.96417000"
   },
   {
      "name": "Ciudad de Villa de Álvarez",
      "countryCode": "MX",
      "stateCode": "COL",
      "latitude": "19.26722000",
      "longitude": "-103.73778000"
   },
   {
      "name": "Cofradía",
      "countryCode": "MX",
      "stateCode": "COL",
      "latitude": "19.43333000",
      "longitude": "-103.55000000"
   },
   {
      "name": "Cofradía de Juárez",
      "countryCode": "MX",
      "stateCode": "COL",
      "latitude": "18.96261000",
      "longitude": "-103.95549000"
   },
   {
      "name": "Cofradía de Morelos",
      "countryCode": "MX",
      "stateCode": "COL",
      "latitude": "18.86785000",
      "longitude": "-103.83668000"
   },
   {
      "name": "Cofradía de Suchitlán",
      "countryCode": "MX",
      "stateCode": "COL",
      "latitude": "19.40954000",
      "longitude": "-103.70043000"
   },
   {
      "name": "Comala",
      "countryCode": "MX",
      "stateCode": "COL",
      "latitude": "19.32717000",
      "longitude": "-103.75926000"
   },
   {
      "name": "Coquimatlán",
      "countryCode": "MX",
      "stateCode": "COL",
      "latitude": "19.20625000",
      "longitude": "-103.80952000"
   },
   {
      "name": "Cuauhtémoc",
      "countryCode": "MX",
      "stateCode": "COL",
      "latitude": "19.32861000",
      "longitude": "-103.60284000"
   },
   {
      "name": "Cuyutlán",
      "countryCode": "MX",
      "stateCode": "COL",
      "latitude": "18.91937000",
      "longitude": "-104.06873000"
   },
   {
      "name": "El Colomo",
      "countryCode": "MX",
      "stateCode": "COL",
      "latitude": "19.06101000",
      "longitude": "-104.25853000"
   },
   {
      "name": "El Naranjo",
      "countryCode": "MX",
      "stateCode": "COL",
      "latitude": "19.13016000",
      "longitude": "-104.41821000"
   },
   {
      "name": "El Trapiche",
      "countryCode": "MX",
      "stateCode": "COL",
      "latitude": "19.27787000",
      "longitude": "-103.66090000"
   },
   {
      "name": "Ixtlahuacán",
      "countryCode": "MX",
      "stateCode": "COL",
      "latitude": "19.00119000",
      "longitude": "-103.73638000"
   },
   {
      "name": "Jalipa",
      "countryCode": "MX",
      "stateCode": "COL",
      "latitude": "19.12275000",
      "longitude": "-104.26737000"
   },
   {
      "name": "La Central",
      "countryCode": "MX",
      "stateCode": "COL",
      "latitude": "19.14276000",
      "longitude": "-104.43819000"
   },
   {
      "name": "Los Tepames",
      "countryCode": "MX",
      "stateCode": "COL",
      "latitude": "19.09389000",
      "longitude": "-103.62250000"
   },
   {
      "name": "Madrid",
      "countryCode": "MX",
      "stateCode": "COL",
      "latitude": "19.08459000",
      "longitude": "-103.87123000"
   },
   {
      "name": "Minatitlán",
      "countryCode": "MX",
      "stateCode": "COL",
      "latitude": "19.36667000",
      "longitude": "-104.06667000"
   },
   {
      "name": "Piscila",
      "countryCode": "MX",
      "stateCode": "COL",
      "latitude": "19.15889000",
      "longitude": "-103.70105000"
   },
   {
      "name": "Pueblo Juárez (La Magdalena)",
      "countryCode": "MX",
      "stateCode": "COL",
      "latitude": "19.16722000",
      "longitude": "-103.93111000"
   },
   {
      "name": "Quesería",
      "countryCode": "MX",
      "stateCode": "COL",
      "latitude": "19.38708000",
      "longitude": "-103.57243000"
   },
   {
      "name": "Rincón de López",
      "countryCode": "MX",
      "stateCode": "COL",
      "latitude": "19.05308000",
      "longitude": "-103.93241000"
   },
   {
      "name": "Suchitlán",
      "countryCode": "MX",
      "stateCode": "COL",
      "latitude": "19.37541000",
      "longitude": "-103.71141000"
   },
   {
      "name": "Tecomán",
      "countryCode": "MX",
      "stateCode": "COL",
      "latitude": "18.89473000",
      "longitude": "-103.87345000"
   },
   {
      "name": "Venustiano Carranza",
      "countryCode": "MX",
      "stateCode": "COL",
      "latitude": "19.01112000",
      "longitude": "-104.11033000"
   },
   {
      "name": "Zacualpan",
      "countryCode": "MX",
      "stateCode": "COL",
      "latitude": "19.36318000",
      "longitude": "-103.82433000"
   }
]