[
   {
      "name": "Antopal’",
      "countryCode": "BY",
      "stateCode": "BR",
      "latitude": "52.20380000",
      "longitude": "24.78630000"
   },
   {
      "name": "Asnyezhytsy",
      "countryCode": "BY",
      "stateCode": "BR",
      "latitude": "52.18910000",
      "longitude": "26.12990000"
   },
   {
      "name": "Baranovichi",
      "countryCode": "BY",
      "stateCode": "BR",
      "latitude": "53.13270000",
      "longitude": "26.01390000"
   },
   {
      "name": "Baranovichskiy Rayon",
      "countryCode": "BY",
      "stateCode": "BR",
      "latitude": "53.16667000",
      "longitude": "25.83333000"
   },
   {
      "name": "Brest",
      "countryCode": "BY",
      "stateCode": "BR",
      "latitude": "52.09755000",
      "longitude": "23.68775000"
   },
   {
      "name": "Brestski Rayon",
      "countryCode": "BY",
      "stateCode": "BR",
      "latitude": "52.00000000",
      "longitude": "23.75000000"
   },
   {
      "name": "Byaroza",
      "countryCode": "BY",
      "stateCode": "BR",
      "latitude": "52.53140000",
      "longitude": "24.97860000"
   },
   {
      "name": "Byarozawski Rayon",
      "countryCode": "BY",
      "stateCode": "BR",
      "latitude": "52.50000000",
      "longitude": "25.00000000"
   },
   {
      "name": "Byelaazyorsk",
      "countryCode": "BY",
      "stateCode": "BR",
      "latitude": "52.47310000",
      "longitude": "25.17840000"
   },
   {
      "name": "Charnawchytsy",
      "countryCode": "BY",
      "stateCode": "BR",
      "latitude": "52.21948000",
      "longitude": "23.74043000"
   },
   {
      "name": "Damachava",
      "countryCode": "BY",
      "stateCode": "BR",
      "latitude": "51.75000000",
      "longitude": "23.60000000"
   },
   {
      "name": "Davyd-Haradok",
      "countryCode": "BY",
      "stateCode": "BR",
      "latitude": "52.05660000",
      "longitude": "27.21610000"
   },
   {
      "name": "Drahichyn",
      "countryCode": "BY",
      "stateCode": "BR",
      "latitude": "52.18740000",
      "longitude": "25.15970000"
   },
   {
      "name": "Drahichynski Rayon",
      "countryCode": "BY",
      "stateCode": "BR",
      "latitude": "52.16667000",
      "longitude": "25.00000000"
   },
   {
      "name": "Hantsavichy",
      "countryCode": "BY",
      "stateCode": "BR",
      "latitude": "52.75800000",
      "longitude": "26.43000000"
   },
   {
      "name": "Hantsavitski Rayon",
      "countryCode": "BY",
      "stateCode": "BR",
      "latitude": "52.66667000",
      "longitude": "26.50000000"
   },
   {
      "name": "Haradzishcha",
      "countryCode": "BY",
      "stateCode": "BR",
      "latitude": "53.32470000",
      "longitude": "26.01070000"
   },
   {
      "name": "Horad Baranavichy",
      "countryCode": "BY",
      "stateCode": "BR",
      "latitude": "53.13333000",
      "longitude": "26.03333000"
   },
   {
      "name": "Horad Brest",
      "countryCode": "BY",
      "stateCode": "BR",
      "latitude": "52.10000000",
      "longitude": "23.70000000"
   },
   {
      "name": "Ivanava",
      "countryCode": "BY",
      "stateCode": "BR",
      "latitude": "52.14510000",
      "longitude": "25.53650000"
   },
   {
      "name": "Ivanawski Rayon",
      "countryCode": "BY",
      "stateCode": "BR",
      "latitude": "52.16667000",
      "longitude": "25.58333000"
   },
   {
      "name": "Ivatsevichy",
      "countryCode": "BY",
      "stateCode": "BR",
      "latitude": "52.70900000",
      "longitude": "25.34010000"
   },
   {
      "name": "Kamyanyets",
      "countryCode": "BY",
      "stateCode": "BR",
      "latitude": "52.40013000",
      "longitude": "23.81000000"
   },
   {
      "name": "Kamyanyetski Rayon",
      "countryCode": "BY",
      "stateCode": "BR",
      "latitude": "52.41667000",
      "longitude": "23.66667000"
   },
   {
      "name": "Kamyanyuki",
      "countryCode": "BY",
      "stateCode": "BR",
      "latitude": "52.55757000",
      "longitude": "23.80525000"
   },
   {
      "name": "Kobryn",
      "countryCode": "BY",
      "stateCode": "BR",
      "latitude": "52.21380000",
      "longitude": "24.35640000"
   },
   {
      "name": "Kosava",
      "countryCode": "BY",
      "stateCode": "BR",
      "latitude": "52.75830000",
      "longitude": "25.15540000"
   },
   {
      "name": "Lahishyn",
      "countryCode": "BY",
      "stateCode": "BR",
      "latitude": "52.33900000",
      "longitude": "25.98670000"
   },
   {
      "name": "Luninyets",
      "countryCode": "BY",
      "stateCode": "BR",
      "latitude": "52.24720000",
      "longitude": "26.80470000"
   },
   {
      "name": "Lyakhavichy",
      "countryCode": "BY",
      "stateCode": "BR",
      "latitude": "53.03880000",
      "longitude": "26.26560000"
   },
   {
      "name": "Malaryta",
      "countryCode": "BY",
      "stateCode": "BR",
      "latitude": "51.79050000",
      "longitude": "24.07400000"
   },
   {
      "name": "Mikashevichy",
      "countryCode": "BY",
      "stateCode": "BR",
      "latitude": "52.21730000",
      "longitude": "27.47600000"
   },
   {
      "name": "Motal’",
      "countryCode": "BY",
      "stateCode": "BR",
      "latitude": "52.31380000",
      "longitude": "25.60720000"
   },
   {
      "name": "Nyakhachava",
      "countryCode": "BY",
      "stateCode": "BR",
      "latitude": "52.64400000",
      "longitude": "25.20270000"
   },
   {
      "name": "Pinsk",
      "countryCode": "BY",
      "stateCode": "BR",
      "latitude": "52.12290000",
      "longitude": "26.09510000"
   },
   {
      "name": "Pruzhanski Rayon",
      "countryCode": "BY",
      "stateCode": "BR",
      "latitude": "52.66667000",
      "longitude": "24.58333000"
   },
   {
      "name": "Pruzhany",
      "countryCode": "BY",
      "stateCode": "BR",
      "latitude": "52.55600000",
      "longitude": "24.45730000"
   },
   {
      "name": "Ruzhany",
      "countryCode": "BY",
      "stateCode": "BR",
      "latitude": "52.86322000",
      "longitude": "24.89357000"
   },
   {
      "name": "Stolin",
      "countryCode": "BY",
      "stateCode": "BR",
      "latitude": "51.89115000",
      "longitude": "26.84597000"
   },
   {
      "name": "Stolinski Rayon",
      "countryCode": "BY",
      "stateCode": "BR",
      "latitude": "52.00000000",
      "longitude": "27.00000000"
   },
   {
      "name": "Tsyelyakhany",
      "countryCode": "BY",
      "stateCode": "BR",
      "latitude": "52.51750000",
      "longitude": "25.84290000"
   },
   {
      "name": "Vysokaye",
      "countryCode": "BY",
      "stateCode": "BR",
      "latitude": "52.37091000",
      "longitude": "23.37083000"
   },
   {
      "name": "Zhabinka",
      "countryCode": "BY",
      "stateCode": "BR",
      "latitude": "52.19840000",
      "longitude": "24.01150000"
   },
   {
      "name": "Zhabinkawski Rayon",
      "countryCode": "BY",
      "stateCode": "BR",
      "latitude": "52.16667000",
      "longitude": "24.08333000"
   },
   {
      "name": "Znamenka",
      "countryCode": "BY",
      "stateCode": "BR",
      "latitude": "51.88168000",
      "longitude": "23.65545000"
   }
]