[
   {
      "name": "Agua Blanca",
      "countryCode": "GT",
      "stateCode": "JU",
      "latitude": "14.50000000",
      "longitude": "-89.65000000"
   },
   {
      "name": "Asunción Mita",
      "countryCode": "GT",
      "stateCode": "JU",
      "latitude": "14.33083000",
      "longitude": "-89.71083000"
   },
   {
      "name": "Atescatempa",
      "countryCode": "GT",
      "stateCode": "JU",
      "latitude": "14.17444000",
      "longitude": "-89.74250000"
   },
   {
      "name": "Comapa",
      "countryCode": "GT",
      "stateCode": "JU",
      "latitude": "14.11667000",
      "longitude": "-89.91667000"
   },
   {
      "name": "Conguaco",
      "countryCode": "GT",
      "stateCode": "JU",
      "latitude": "14.04417000",
      "longitude": "-90.03111000"
   },
   {
      "name": "El Adelanto",
      "countryCode": "GT",
      "stateCode": "JU",
      "latitude": "14.16667000",
      "longitude": "-89.83333000"
   },
   {
      "name": "El Progreso",
      "countryCode": "GT",
      "stateCode": "JU",
      "latitude": "14.35000000",
      "longitude": "-89.85000000"
   },
   {
      "name": "Jalpatagua",
      "countryCode": "GT",
      "stateCode": "JU",
      "latitude": "14.14167000",
      "longitude": "-90.00861000"
   },
   {
      "name": "Jerez",
      "countryCode": "GT",
      "stateCode": "JU",
      "latitude": "14.10000000",
      "longitude": "-89.75000000"
   },
   {
      "name": "Jutiapa",
      "countryCode": "GT",
      "stateCode": "JU",
      "latitude": "14.29167000",
      "longitude": "-89.89583000"
   },
   {
      "name": "Moyuta",
      "countryCode": "GT",
      "stateCode": "JU",
      "latitude": "14.03861000",
      "longitude": "-90.08083000"
   },
   {
      "name": "Municipio de Asunción Mita",
      "countryCode": "GT",
      "stateCode": "JU",
      "latitude": "14.30330000",
      "longitude": "-89.67623000"
   },
   {
      "name": "Pasaco",
      "countryCode": "GT",
      "stateCode": "JU",
      "latitude": "13.97722000",
      "longitude": "-90.20639000"
   },
   {
      "name": "Quesada",
      "countryCode": "GT",
      "stateCode": "JU",
      "latitude": "14.27028000",
      "longitude": "-90.04028000"
   },
   {
      "name": "San José Acatempa",
      "countryCode": "GT",
      "stateCode": "JU",
      "latitude": "14.26528000",
      "longitude": "-90.12694000"
   },
   {
      "name": "Santa Catarina Mita",
      "countryCode": "GT",
      "stateCode": "JU",
      "latitude": "14.45000000",
      "longitude": "-89.75000000"
   },
   {
      "name": "Yupiltepeque",
      "countryCode": "GT",
      "stateCode": "JU",
      "latitude": "14.20000000",
      "longitude": "-89.78333000"
   },
   {
      "name": "Zapotitlán",
      "countryCode": "GT",
      "stateCode": "JU",
      "latitude": "14.13333000",
      "longitude": "-89.83333000"
   }
]