[
   {
      "name": "Alberschwende",
      "countryCode": "AT",
      "stateCode": "8",
      "latitude": "47.45025000",
      "longitude": "9.83152000"
   },
   {
      "name": "Altach",
      "countryCode": "AT",
      "stateCode": "8",
      "latitude": "47.35000000",
      "longitude": "9.65000000"
   },
   {
      "name": "Andelsbuch",
      "countryCode": "AT",
      "stateCode": "8",
      "latitude": "47.41167000",
      "longitude": "9.89326000"
   },
   {
      "name": "Au",
      "countryCode": "AT",
      "stateCode": "8",
      "latitude": "47.32176000",
      "longitude": "9.98067000"
   },
   {
      "name": "Ausserbraz",
      "countryCode": "AT",
      "stateCode": "8",
      "latitude": "47.14875000",
      "longitude": "9.90066000"
   },
   {
      "name": "Bartholomäberg",
      "countryCode": "AT",
      "stateCode": "8",
      "latitude": "47.08333000",
      "longitude": "9.90000000"
   },
   {
      "name": "Batschuns",
      "countryCode": "AT",
      "stateCode": "8",
      "latitude": "47.28306000",
      "longitude": "9.65000000"
   },
   {
      "name": "Bezau",
      "countryCode": "AT",
      "stateCode": "8",
      "latitude": "47.38478000",
      "longitude": "9.90139000"
   },
   {
      "name": "Bildstein",
      "countryCode": "AT",
      "stateCode": "8",
      "latitude": "47.45000000",
      "longitude": "9.76667000"
   },
   {
      "name": "Bizau",
      "countryCode": "AT",
      "stateCode": "8",
      "latitude": "47.36906000",
      "longitude": "9.92839000"
   },
   {
      "name": "Blons",
      "countryCode": "AT",
      "stateCode": "8",
      "latitude": "47.22327000",
      "longitude": "9.83414000"
   },
   {
      "name": "Bludenz",
      "countryCode": "AT",
      "stateCode": "8",
      "latitude": "47.15476000",
      "longitude": "9.82255000"
   },
   {
      "name": "Bludesch",
      "countryCode": "AT",
      "stateCode": "8",
      "latitude": "47.20000000",
      "longitude": "9.73306000"
   },
   {
      "name": "Brand",
      "countryCode": "AT",
      "stateCode": "8",
      "latitude": "47.10083000",
      "longitude": "9.73722000"
   },
   {
      "name": "Bregenz",
      "countryCode": "AT",
      "stateCode": "8",
      "latitude": "47.50311000",
      "longitude": "9.74710000"
   },
   {
      "name": "Bürs",
      "countryCode": "AT",
      "stateCode": "8",
      "latitude": "47.14972000",
      "longitude": "9.80000000"
   },
   {
      "name": "Bürserberg",
      "countryCode": "AT",
      "stateCode": "8",
      "latitude": "47.14644000",
      "longitude": "9.77736000"
   },
   {
      "name": "Dalaas",
      "countryCode": "AT",
      "stateCode": "8",
      "latitude": "47.12446000",
      "longitude": "9.99104000"
   },
   {
      "name": "Damüls",
      "countryCode": "AT",
      "stateCode": "8",
      "latitude": "47.28034000",
      "longitude": "9.89164000"
   },
   {
      "name": "Doren",
      "countryCode": "AT",
      "stateCode": "8",
      "latitude": "47.49278000",
      "longitude": "9.87972000"
   },
   {
      "name": "Dornbirn",
      "countryCode": "AT",
      "stateCode": "8",
      "latitude": "47.41427000",
      "longitude": "9.74195000"
   },
   {
      "name": "Düns",
      "countryCode": "AT",
      "stateCode": "8",
      "latitude": "47.22353000",
      "longitude": "9.71663000"
   },
   {
      "name": "Dünserberg",
      "countryCode": "AT",
      "stateCode": "8",
      "latitude": "47.22752000",
      "longitude": "9.72372000"
   },
   {
      "name": "Egg",
      "countryCode": "AT",
      "stateCode": "8",
      "latitude": "47.43154000",
      "longitude": "9.89762000"
   },
   {
      "name": "Eichenberg",
      "countryCode": "AT",
      "stateCode": "8",
      "latitude": "47.53333000",
      "longitude": "9.78333000"
   },
   {
      "name": "Feldkirch",
      "countryCode": "AT",
      "stateCode": "8",
      "latitude": "47.23306000",
      "longitude": "9.60000000"
   },
   {
      "name": "Frastanz",
      "countryCode": "AT",
      "stateCode": "8",
      "latitude": "47.21735000",
      "longitude": "9.62995000"
   },
   {
      "name": "Fraxern",
      "countryCode": "AT",
      "stateCode": "8",
      "latitude": "47.31498000",
      "longitude": "9.67391000"
   },
   {
      "name": "Fußach",
      "countryCode": "AT",
      "stateCode": "8",
      "latitude": "47.47933000",
      "longitude": "9.66278000"
   },
   {
      "name": "Gaißau",
      "countryCode": "AT",
      "stateCode": "8",
      "latitude": "47.46667000",
      "longitude": "9.60000000"
   },
   {
      "name": "Gaschurn",
      "countryCode": "AT",
      "stateCode": "8",
      "latitude": "46.98584000",
      "longitude": "10.02702000"
   },
   {
      "name": "Großdorf",
      "countryCode": "AT",
      "stateCode": "8",
      "latitude": "47.43361000",
      "longitude": "9.91528000"
   },
   {
      "name": "Göfis",
      "countryCode": "AT",
      "stateCode": "8",
      "latitude": "47.23356000",
      "longitude": "9.63458000"
   },
   {
      "name": "Götzis",
      "countryCode": "AT",
      "stateCode": "8",
      "latitude": "47.33306000",
      "longitude": "9.63306000"
   },
   {
      "name": "Hard",
      "countryCode": "AT",
      "stateCode": "8",
      "latitude": "47.48306000",
      "longitude": "9.68306000"
   },
   {
      "name": "Hirschegg",
      "countryCode": "AT",
      "stateCode": "8",
      "latitude": "47.34813000",
      "longitude": "10.17137000"
   },
   {
      "name": "Hittisau",
      "countryCode": "AT",
      "stateCode": "8",
      "latitude": "47.45781000",
      "longitude": "9.95962000"
   },
   {
      "name": "Hohenems",
      "countryCode": "AT",
      "stateCode": "8",
      "latitude": "47.36667000",
      "longitude": "9.68306000"
   },
   {
      "name": "Hohenweiler",
      "countryCode": "AT",
      "stateCode": "8",
      "latitude": "47.58333000",
      "longitude": "9.78333000"
   },
   {
      "name": "Höchst",
      "countryCode": "AT",
      "stateCode": "8",
      "latitude": "47.45934000",
      "longitude": "9.64050000"
   },
   {
      "name": "Hörbranz",
      "countryCode": "AT",
      "stateCode": "8",
      "latitude": "47.55000000",
      "longitude": "9.75000000"
   },
   {
      "name": "Innerbraz",
      "countryCode": "AT",
      "stateCode": "8",
      "latitude": "47.15000000",
      "longitude": "9.91667000"
   },
   {
      "name": "Kennelbach",
      "countryCode": "AT",
      "stateCode": "8",
      "latitude": "47.48306000",
      "longitude": "9.76667000"
   },
   {
      "name": "Klaus",
      "countryCode": "AT",
      "stateCode": "8",
      "latitude": "47.30913000",
      "longitude": "9.64678000"
   },
   {
      "name": "Klösterle",
      "countryCode": "AT",
      "stateCode": "8",
      "latitude": "47.13333000",
      "longitude": "10.08333000"
   },
   {
      "name": "Koblach",
      "countryCode": "AT",
      "stateCode": "8",
      "latitude": "47.33306000",
      "longitude": "9.60000000"
   },
   {
      "name": "Krumbach",
      "countryCode": "AT",
      "stateCode": "8",
      "latitude": "47.48306000",
      "longitude": "9.93583000"
   },
   {
      "name": "Langen",
      "countryCode": "AT",
      "stateCode": "8",
      "latitude": "47.51667000",
      "longitude": "9.81667000"
   },
   {
      "name": "Langenegg",
      "countryCode": "AT",
      "stateCode": "8",
      "latitude": "47.46922000",
      "longitude": "9.89744000"
   },
   {
      "name": "Lauterach",
      "countryCode": "AT",
      "stateCode": "8",
      "latitude": "47.47572000",
      "longitude": "9.72941000"
   },
   {
      "name": "Lech",
      "countryCode": "AT",
      "stateCode": "8",
      "latitude": "47.20797000",
      "longitude": "10.14184000"
   },
   {
      "name": "Lingenau",
      "countryCode": "AT",
      "stateCode": "8",
      "latitude": "47.45033000",
      "longitude": "9.92166000"
   },
   {
      "name": "Lochau",
      "countryCode": "AT",
      "stateCode": "8",
      "latitude": "47.53333000",
      "longitude": "9.75000000"
   },
   {
      "name": "Lorüns",
      "countryCode": "AT",
      "stateCode": "8",
      "latitude": "47.13306000",
      "longitude": "9.85000000"
   },
   {
      "name": "Ludesch",
      "countryCode": "AT",
      "stateCode": "8",
      "latitude": "47.20000000",
      "longitude": "9.78306000"
   },
   {
      "name": "Lustenau",
      "countryCode": "AT",
      "stateCode": "8",
      "latitude": "47.42642000",
      "longitude": "9.65851000"
   },
   {
      "name": "Meiningen",
      "countryCode": "AT",
      "stateCode": "8",
      "latitude": "47.29891000",
      "longitude": "9.57862000"
   },
   {
      "name": "Mellau",
      "countryCode": "AT",
      "stateCode": "8",
      "latitude": "47.35034000",
      "longitude": "9.88149000"
   },
   {
      "name": "Mittelberg",
      "countryCode": "AT",
      "stateCode": "8",
      "latitude": "47.35127000",
      "longitude": "10.17197000"
   },
   {
      "name": "Muntlix",
      "countryCode": "AT",
      "stateCode": "8",
      "latitude": "47.28296000",
      "longitude": "9.65939000"
   },
   {
      "name": "Mäder",
      "countryCode": "AT",
      "stateCode": "8",
      "latitude": "47.35000000",
      "longitude": "9.61667000"
   },
   {
      "name": "Möggers",
      "countryCode": "AT",
      "stateCode": "8",
      "latitude": "47.56667000",
      "longitude": "9.81667000"
   },
   {
      "name": "Nenzing",
      "countryCode": "AT",
      "stateCode": "8",
      "latitude": "47.18436000",
      "longitude": "9.70539000"
   },
   {
      "name": "Nüziders",
      "countryCode": "AT",
      "stateCode": "8",
      "latitude": "47.16667000",
      "longitude": "9.80000000"
   },
   {
      "name": "Politischer Bezirk Bludenz",
      "countryCode": "AT",
      "stateCode": "8",
      "latitude": "47.15144000",
      "longitude": "9.82452000"
   },
   {
      "name": "Politischer Bezirk Bregenz",
      "countryCode": "AT",
      "stateCode": "8",
      "latitude": "47.42069000",
      "longitude": "9.91989000"
   },
   {
      "name": "Politischer Bezirk Dornbirn",
      "countryCode": "AT",
      "stateCode": "8",
      "latitude": "47.38349000",
      "longitude": "9.74940000"
   },
   {
      "name": "Politischer Bezirk Feldkirch",
      "countryCode": "AT",
      "stateCode": "8",
      "latitude": "47.25535000",
      "longitude": "9.58360000"
   },
   {
      "name": "Raggal",
      "countryCode": "AT",
      "stateCode": "8",
      "latitude": "47.21082000",
      "longitude": "9.83688000"
   },
   {
      "name": "Rankweil",
      "countryCode": "AT",
      "stateCode": "8",
      "latitude": "47.27108000",
      "longitude": "9.64308000"
   },
   {
      "name": "Reuthe",
      "countryCode": "AT",
      "stateCode": "8",
      "latitude": "47.37113000",
      "longitude": "9.89481000"
   },
   {
      "name": "Riefensberg",
      "countryCode": "AT",
      "stateCode": "8",
      "latitude": "47.50137000",
      "longitude": "9.95838000"
   },
   {
      "name": "Riezlern",
      "countryCode": "AT",
      "stateCode": "8",
      "latitude": "47.35778000",
      "longitude": "10.18759000"
   },
   {
      "name": "Röns",
      "countryCode": "AT",
      "stateCode": "8",
      "latitude": "47.21667000",
      "longitude": "9.70000000"
   },
   {
      "name": "Röthis",
      "countryCode": "AT",
      "stateCode": "8",
      "latitude": "47.29332000",
      "longitude": "9.65484000"
   },
   {
      "name": "Sankt Anton im Montafon",
      "countryCode": "AT",
      "stateCode": "8",
      "latitude": "47.11667000",
      "longitude": "9.86667000"
   },
   {
      "name": "Sankt Gallenkirch",
      "countryCode": "AT",
      "stateCode": "8",
      "latitude": "47.02102000",
      "longitude": "9.97335000"
   },
   {
      "name": "Satteins",
      "countryCode": "AT",
      "stateCode": "8",
      "latitude": "47.21667000",
      "longitude": "9.66667000"
   },
   {
      "name": "Schlins",
      "countryCode": "AT",
      "stateCode": "8",
      "latitude": "47.20000000",
      "longitude": "9.70000000"
   },
   {
      "name": "Schnepfau",
      "countryCode": "AT",
      "stateCode": "8",
      "latitude": "47.35206000",
      "longitude": "9.94520000"
   },
   {
      "name": "Schnifis",
      "countryCode": "AT",
      "stateCode": "8",
      "latitude": "47.21667000",
      "longitude": "9.73306000"
   },
   {
      "name": "Schoppernau",
      "countryCode": "AT",
      "stateCode": "8",
      "latitude": "47.31205000",
      "longitude": "10.01646000"
   },
   {
      "name": "Schruns",
      "countryCode": "AT",
      "stateCode": "8",
      "latitude": "47.06667000",
      "longitude": "9.91667000"
   },
   {
      "name": "Schröcken",
      "countryCode": "AT",
      "stateCode": "8",
      "latitude": "47.25755000",
      "longitude": "10.09197000"
   },
   {
      "name": "Schwarzach",
      "countryCode": "AT",
      "stateCode": "8",
      "latitude": "47.44904000",
      "longitude": "9.76213000"
   },
   {
      "name": "Schwarzenberg",
      "countryCode": "AT",
      "stateCode": "8",
      "latitude": "47.41415000",
      "longitude": "9.85154000"
   },
   {
      "name": "Sibratsgfäll",
      "countryCode": "AT",
      "stateCode": "8",
      "latitude": "47.42667000",
      "longitude": "10.03806000"
   },
   {
      "name": "Silbertal",
      "countryCode": "AT",
      "stateCode": "8",
      "latitude": "47.09368000",
      "longitude": "9.98314000"
   },
   {
      "name": "Stallehr",
      "countryCode": "AT",
      "stateCode": "8",
      "latitude": "47.13306000",
      "longitude": "9.85000000"
   },
   {
      "name": "Sulz",
      "countryCode": "AT",
      "stateCode": "8",
      "latitude": "47.28721000",
      "longitude": "9.65183000"
   },
   {
      "name": "Sulzberg",
      "countryCode": "AT",
      "stateCode": "8",
      "latitude": "47.52178000",
      "longitude": "9.91353000"
   },
   {
      "name": "Thüringen",
      "countryCode": "AT",
      "stateCode": "8",
      "latitude": "47.20000000",
      "longitude": "9.76667000"
   },
   {
      "name": "Tschagguns",
      "countryCode": "AT",
      "stateCode": "8",
      "latitude": "47.08333000",
      "longitude": "9.90000000"
   },
   {
      "name": "Vandans",
      "countryCode": "AT",
      "stateCode": "8",
      "latitude": "47.09569000",
      "longitude": "9.86525000"
   },
   {
      "name": "Viktorsberg",
      "countryCode": "AT",
      "stateCode": "8",
      "latitude": "47.30092000",
      "longitude": "9.67484000"
   },
   {
      "name": "Warth",
      "countryCode": "AT",
      "stateCode": "8",
      "latitude": "47.25000000",
      "longitude": "10.18333000"
   },
   {
      "name": "Weiler",
      "countryCode": "AT",
      "stateCode": "8",
      "latitude": "47.29972000",
      "longitude": "9.65000000"
   },
   {
      "name": "Wolfurt",
      "countryCode": "AT",
      "stateCode": "8",
      "latitude": "47.46667000",
      "longitude": "9.75000000"
   },
   {
      "name": "Übersaxen",
      "countryCode": "AT",
      "stateCode": "8",
      "latitude": "47.25284000",
      "longitude": "9.67080000"
   }
]