[
   {
      "name": "Acharnés",
      "countryCode": "GR",
      "stateCode": "I",
      "latitude": "38.08333000",
      "longitude": "23.73333000"
   },
   {
      "name": "Aegina",
      "countryCode": "GR",
      "stateCode": "I",
      "latitude": "37.74667000",
      "longitude": "23.42750000"
   },
   {
      "name": "Afidnés",
      "countryCode": "GR",
      "stateCode": "I",
      "latitude": "38.20332000",
      "longitude": "23.83982000"
   },
   {
      "name": "Aghios Panteleímon",
      "countryCode": "GR",
      "stateCode": "I",
      "latitude": "38.11643000",
      "longitude": "23.98182000"
   },
   {
      "name": "Agios Dimitrios",
      "countryCode": "GR",
      "stateCode": "I",
      "latitude": "37.93333000",
      "longitude": "23.73333000"
   },
   {
      "name": "Agios Dimítrios Kropiás",
      "countryCode": "GR",
      "stateCode": "I",
      "latitude": "37.80612000",
      "longitude": "23.85793000"
   },
   {
      "name": "Agios Ioannis Rentis",
      "countryCode": "GR",
      "stateCode": "I",
      "latitude": "37.96491000",
      "longitude": "23.66511000"
   },
   {
      "name": "Agía Marína",
      "countryCode": "GR",
      "stateCode": "I",
      "latitude": "37.82036000",
      "longitude": "23.84424000"
   },
   {
      "name": "Agía Paraskeví",
      "countryCode": "GR",
      "stateCode": "I",
      "latitude": "38.01667000",
      "longitude": "23.83333000"
   },
   {
      "name": "Agía Varvára",
      "countryCode": "GR",
      "stateCode": "I",
      "latitude": "37.98938000",
      "longitude": "23.66011000"
   },
   {
      "name": "Aigáleo",
      "countryCode": "GR",
      "stateCode": "I",
      "latitude": "37.98333000",
      "longitude": "23.68333000"
   },
   {
      "name": "Aiánteio",
      "countryCode": "GR",
      "stateCode": "I",
      "latitude": "37.92135000",
      "longitude": "23.45877000"
   },
   {
      "name": "Ampelákia",
      "countryCode": "GR",
      "stateCode": "I",
      "latitude": "37.95055000",
      "longitude": "23.52803000"
   },
   {
      "name": "Anoixi",
      "countryCode": "GR",
      "stateCode": "I",
      "latitude": "38.13267000",
      "longitude": "23.85874000"
   },
   {
      "name": "Anthoúsa",
      "countryCode": "GR",
      "stateCode": "I",
      "latitude": "38.02544000",
      "longitude": "23.87617000"
   },
   {
      "name": "Anávyssos",
      "countryCode": "GR",
      "stateCode": "I",
      "latitude": "37.73414000",
      "longitude": "23.94389000"
   },
   {
      "name": "Argithéa",
      "countryCode": "GR",
      "stateCode": "I",
      "latitude": "37.97506000",
      "longitude": "23.88556000"
   },
   {
      "name": "Argyroúpoli",
      "countryCode": "GR",
      "stateCode": "I",
      "latitude": "37.90594000",
      "longitude": "23.75035000"
   },
   {
      "name": "Artémida",
      "countryCode": "GR",
      "stateCode": "I",
      "latitude": "37.96727000",
      "longitude": "23.99684000"
   },
   {
      "name": "Asprópyrgos",
      "countryCode": "GR",
      "stateCode": "I",
      "latitude": "38.06134000",
      "longitude": "23.58971000"
   },
   {
      "name": "Athens",
      "countryCode": "GR",
      "stateCode": "I",
      "latitude": "37.98376000",
      "longitude": "23.72784000"
   },
   {
      "name": "Avlónas",
      "countryCode": "GR",
      "stateCode": "I",
      "latitude": "38.25149000",
      "longitude": "23.69554000"
   },
   {
      "name": "Chaïdári",
      "countryCode": "GR",
      "stateCode": "I",
      "latitude": "38.01135000",
      "longitude": "23.66597000"
   },
   {
      "name": "Cholargós",
      "countryCode": "GR",
      "stateCode": "I",
      "latitude": "38.00000000",
      "longitude": "23.80000000"
   },
   {
      "name": "Dhafní",
      "countryCode": "GR",
      "stateCode": "I",
      "latitude": "37.95002000",
      "longitude": "23.73437000"
   },
   {
      "name": "Dhráfi",
      "countryCode": "GR",
      "stateCode": "I",
      "latitude": "38.02375000",
      "longitude": "23.90788000"
   },
   {
      "name": "Dióni",
      "countryCode": "GR",
      "stateCode": "I",
      "latitude": "38.02328000",
      "longitude": "23.93286000"
   },
   {
      "name": "Diónysos",
      "countryCode": "GR",
      "stateCode": "I",
      "latitude": "38.10458000",
      "longitude": "23.87938000"
   },
   {
      "name": "Drapetsóna",
      "countryCode": "GR",
      "stateCode": "I",
      "latitude": "37.94988000",
      "longitude": "23.62309000"
   },
   {
      "name": "Drosiá",
      "countryCode": "GR",
      "stateCode": "I",
      "latitude": "38.11977000",
      "longitude": "23.86428000"
   },
   {
      "name": "Ekáli",
      "countryCode": "GR",
      "stateCode": "I",
      "latitude": "38.11035000",
      "longitude": "23.83505000"
   },
   {
      "name": "Elefsína",
      "countryCode": "GR",
      "stateCode": "I",
      "latitude": "38.04135000",
      "longitude": "23.54295000"
   },
   {
      "name": "Ellinikó",
      "countryCode": "GR",
      "stateCode": "I",
      "latitude": "37.89013000",
      "longitude": "23.74406000"
   },
   {
      "name": "Erythrés",
      "countryCode": "GR",
      "stateCode": "I",
      "latitude": "38.21741000",
      "longitude": "23.32234000"
   },
   {
      "name": "Filothéi",
      "countryCode": "GR",
      "stateCode": "I",
      "latitude": "38.02524000",
      "longitude": "23.78257000"
   },
   {
      "name": "Fylí",
      "countryCode": "GR",
      "stateCode": "I",
      "latitude": "38.10235000",
      "longitude": "23.66901000"
   },
   {
      "name": "Galatás",
      "countryCode": "GR",
      "stateCode": "I",
      "latitude": "37.49618000",
      "longitude": "23.44886000"
   },
   {
      "name": "Galátsi",
      "countryCode": "GR",
      "stateCode": "I",
      "latitude": "38.01667000",
      "longitude": "23.75000000"
   },
   {
      "name": "Glyfáda",
      "countryCode": "GR",
      "stateCode": "I",
      "latitude": "37.86289000",
      "longitude": "23.75802000"
   },
   {
      "name": "Grammatikó",
      "countryCode": "GR",
      "stateCode": "I",
      "latitude": "38.20251000",
      "longitude": "23.96504000"
   },
   {
      "name": "Gérakas",
      "countryCode": "GR",
      "stateCode": "I",
      "latitude": "38.02277000",
      "longitude": "23.85760000"
   },
   {
      "name": "Ilioúpoli",
      "countryCode": "GR",
      "stateCode": "I",
      "latitude": "37.93149000",
      "longitude": "23.76779000"
   },
   {
      "name": "Irákleio",
      "countryCode": "GR",
      "stateCode": "I",
      "latitude": "38.05282000",
      "longitude": "23.76523000"
   },
   {
      "name": "Kaisarianí",
      "countryCode": "GR",
      "stateCode": "I",
      "latitude": "37.96340000",
      "longitude": "23.76523000"
   },
   {
      "name": "Kallithéa",
      "countryCode": "GR",
      "stateCode": "I",
      "latitude": "37.95000000",
      "longitude": "23.70000000"
   },
   {
      "name": "Kalývia Thorikoú",
      "countryCode": "GR",
      "stateCode": "I",
      "latitude": "37.83894000",
      "longitude": "23.92505000"
   },
   {
      "name": "Kamaterón",
      "countryCode": "GR",
      "stateCode": "I",
      "latitude": "38.05586000",
      "longitude": "23.70515000"
   },
   {
      "name": "Kapandríti",
      "countryCode": "GR",
      "stateCode": "I",
      "latitude": "38.21579000",
      "longitude": "23.87938000"
   },
   {
      "name": "Karellás",
      "countryCode": "GR",
      "stateCode": "I",
      "latitude": "37.93445000",
      "longitude": "23.86484000"
   },
   {
      "name": "Keratsíni",
      "countryCode": "GR",
      "stateCode": "I",
      "latitude": "37.96250000",
      "longitude": "23.61972000"
   },
   {
      "name": "Keratéa",
      "countryCode": "GR",
      "stateCode": "I",
      "latitude": "37.80585000",
      "longitude": "23.97740000"
   },
   {
      "name": "Khalkoútsion",
      "countryCode": "GR",
      "stateCode": "I",
      "latitude": "38.33263000",
      "longitude": "23.73188000"
   },
   {
      "name": "Khalándrion",
      "countryCode": "GR",
      "stateCode": "I",
      "latitude": "38.02369000",
      "longitude": "23.80068000"
   },
   {
      "name": "Kifisiá",
      "countryCode": "GR",
      "stateCode": "I",
      "latitude": "38.07438000",
      "longitude": "23.81106000"
   },
   {
      "name": "Kinéta",
      "countryCode": "GR",
      "stateCode": "I",
      "latitude": "37.96843000",
      "longitude": "23.21351000"
   },
   {
      "name": "Kipséli",
      "countryCode": "GR",
      "stateCode": "I",
      "latitude": "38.00288000",
      "longitude": "23.73755000"
   },
   {
      "name": "Koropí",
      "countryCode": "GR",
      "stateCode": "I",
      "latitude": "37.89886000",
      "longitude": "23.87181000"
   },
   {
      "name": "Korydallós",
      "countryCode": "GR",
      "stateCode": "I",
      "latitude": "37.98468000",
      "longitude": "23.64711000"
   },
   {
      "name": "Kouvarás",
      "countryCode": "GR",
      "stateCode": "I",
      "latitude": "37.82711000",
      "longitude": "23.96715000"
   },
   {
      "name": "Kryonéri",
      "countryCode": "GR",
      "stateCode": "I",
      "latitude": "38.13712000",
      "longitude": "23.83055000"
   },
   {
      "name": "Kypséli",
      "countryCode": "GR",
      "stateCode": "I",
      "latitude": "37.76021000",
      "longitude": "23.45448000"
   },
   {
      "name": "Kálamos",
      "countryCode": "GR",
      "stateCode": "I",
      "latitude": "38.28447000",
      "longitude": "23.86308000"
   },
   {
      "name": "Káto Soúlion",
      "countryCode": "GR",
      "stateCode": "I",
      "latitude": "38.16803000",
      "longitude": "24.01628000"
   },
   {
      "name": "Kítsi",
      "countryCode": "GR",
      "stateCode": "I",
      "latitude": "37.85181000",
      "longitude": "23.84068000"
   },
   {
      "name": "Kýthira",
      "countryCode": "GR",
      "stateCode": "I",
      "latitude": "36.14955000",
      "longitude": "22.98979000"
   },
   {
      "name": "Leondárion",
      "countryCode": "GR",
      "stateCode": "I",
      "latitude": "37.98700000",
      "longitude": "23.85518000"
   },
   {
      "name": "Limín Mesoyaías",
      "countryCode": "GR",
      "stateCode": "I",
      "latitude": "37.89108000",
      "longitude": "24.00307000"
   },
   {
      "name": "Lykóvrysi",
      "countryCode": "GR",
      "stateCode": "I",
      "latitude": "38.06933000",
      "longitude": "23.78223000"
   },
   {
      "name": "Lávrio",
      "countryCode": "GR",
      "stateCode": "I",
      "latitude": "37.71445000",
      "longitude": "24.05647000"
   },
   {
      "name": "Magoúla",
      "countryCode": "GR",
      "stateCode": "I",
      "latitude": "38.07989000",
      "longitude": "23.52108000"
   },
   {
      "name": "Marathónas",
      "countryCode": "GR",
      "stateCode": "I",
      "latitude": "38.15317000",
      "longitude": "23.96278000"
   },
   {
      "name": "Markópoulo",
      "countryCode": "GR",
      "stateCode": "I",
      "latitude": "37.88333000",
      "longitude": "23.93333000"
   },
   {
      "name": "Markópoulo Oropoú",
      "countryCode": "GR",
      "stateCode": "I",
      "latitude": "38.28980000",
      "longitude": "23.82475000"
   },
   {
      "name": "Maroúsi",
      "countryCode": "GR",
      "stateCode": "I",
      "latitude": "38.05000000",
      "longitude": "23.80000000"
   },
   {
      "name": "Megalochóri",
      "countryCode": "GR",
      "stateCode": "I",
      "latitude": "37.71051000",
      "longitude": "23.34659000"
   },
   {
      "name": "Melíssia",
      "countryCode": "GR",
      "stateCode": "I",
      "latitude": "38.05000000",
      "longitude": "23.83333000"
   },
   {
      "name": "Metamórfosi",
      "countryCode": "GR",
      "stateCode": "I",
      "latitude": "38.06576000",
      "longitude": "23.76356000"
   },
   {
      "name": "Moskháton",
      "countryCode": "GR",
      "stateCode": "I",
      "latitude": "37.94789000",
      "longitude": "23.67880000"
   },
   {
      "name": "Mándra",
      "countryCode": "GR",
      "stateCode": "I",
      "latitude": "38.06667000",
      "longitude": "23.50000000"
   },
   {
      "name": "Mégara",
      "countryCode": "GR",
      "stateCode": "I",
      "latitude": "37.99471000",
      "longitude": "23.34324000"
   },
   {
      "name": "Neos Voutzás",
      "countryCode": "GR",
      "stateCode": "I",
      "latitude": "38.04312000",
      "longitude": "23.97749000"
   },
   {
      "name": "Néa Chalkidóna",
      "countryCode": "GR",
      "stateCode": "I",
      "latitude": "38.02710000",
      "longitude": "23.73051000"
   },
   {
      "name": "Néa Erythraía",
      "countryCode": "GR",
      "stateCode": "I",
      "latitude": "38.09270000",
      "longitude": "23.82223000"
   },
   {
      "name": "Néa Filadélfeia",
      "countryCode": "GR",
      "stateCode": "I",
      "latitude": "38.03491000",
      "longitude": "23.73811000"
   },
   {
      "name": "Néa Ionía",
      "countryCode": "GR",
      "stateCode": "I",
      "latitude": "38.03570000",
      "longitude": "23.75733000"
   },
   {
      "name": "Néa Mákri",
      "countryCode": "GR",
      "stateCode": "I",
      "latitude": "38.08733000",
      "longitude": "23.97642000"
   },
   {
      "name": "Néa Palátia",
      "countryCode": "GR",
      "stateCode": "I",
      "latitude": "38.31942000",
      "longitude": "23.79649000"
   },
   {
      "name": "Néa Pentéli",
      "countryCode": "GR",
      "stateCode": "I",
      "latitude": "38.06059000",
      "longitude": "23.85926000"
   },
   {
      "name": "Néa Péramos",
      "countryCode": "GR",
      "stateCode": "I",
      "latitude": "38.00647000",
      "longitude": "23.42348000"
   },
   {
      "name": "Néa Smýrni",
      "countryCode": "GR",
      "stateCode": "I",
      "latitude": "37.94504000",
      "longitude": "23.71416000"
   },
   {
      "name": "Néo Psychikó",
      "countryCode": "GR",
      "stateCode": "I",
      "latitude": "38.00624000",
      "longitude": "23.78373000"
   },
   {
      "name": "Níkaia",
      "countryCode": "GR",
      "stateCode": "I",
      "latitude": "37.96667000",
      "longitude": "23.65000000"
   },
   {
      "name": "Oropós",
      "countryCode": "GR",
      "stateCode": "I",
      "latitude": "38.30326000",
      "longitude": "23.75549000"
   },
   {
      "name": "Paianía",
      "countryCode": "GR",
      "stateCode": "I",
      "latitude": "37.95527000",
      "longitude": "23.85443000"
   },
   {
      "name": "Palaiá Fókaia",
      "countryCode": "GR",
      "stateCode": "I",
      "latitude": "37.71998000",
      "longitude": "23.94792000"
   },
   {
      "name": "Palaió Fáliro",
      "countryCode": "GR",
      "stateCode": "I",
      "latitude": "37.92812000",
      "longitude": "23.70105000"
   },
   {
      "name": "Pallíni",
      "countryCode": "GR",
      "stateCode": "I",
      "latitude": "38.00514000",
      "longitude": "23.88302000"
   },
   {
      "name": "Papágou",
      "countryCode": "GR",
      "stateCode": "I",
      "latitude": "37.98642000",
      "longitude": "23.79347000"
   },
   {
      "name": "Pentéli",
      "countryCode": "GR",
      "stateCode": "I",
      "latitude": "38.05000000",
      "longitude": "23.86667000"
   },
   {
      "name": "Peristéri",
      "countryCode": "GR",
      "stateCode": "I",
      "latitude": "38.01539000",
      "longitude": "23.69187000"
   },
   {
      "name": "Petroúpolis",
      "countryCode": "GR",
      "stateCode": "I",
      "latitude": "38.04187000",
      "longitude": "23.68494000"
   },
   {
      "name": "Pikérmi",
      "countryCode": "GR",
      "stateCode": "I",
      "latitude": "38.00161000",
      "longitude": "23.94075000"
   },
   {
      "name": "Piraeus",
      "countryCode": "GR",
      "stateCode": "I",
      "latitude": "37.94203000",
      "longitude": "23.64619000"
   },
   {
      "name": "Polydéndri",
      "countryCode": "GR",
      "stateCode": "I",
      "latitude": "38.21600000",
      "longitude": "23.86806000"
   },
   {
      "name": "Psychikó",
      "countryCode": "GR",
      "stateCode": "I",
      "latitude": "38.01324000",
      "longitude": "23.77223000"
   },
   {
      "name": "Péfki",
      "countryCode": "GR",
      "stateCode": "I",
      "latitude": "38.06019000",
      "longitude": "23.79264000"
   },
   {
      "name": "Pérama",
      "countryCode": "GR",
      "stateCode": "I",
      "latitude": "37.96775000",
      "longitude": "23.57210000"
   },
   {
      "name": "Póros",
      "countryCode": "GR",
      "stateCode": "I",
      "latitude": "37.49944000",
      "longitude": "23.45361000"
   },
   {
      "name": "Rafína",
      "countryCode": "GR",
      "stateCode": "I",
      "latitude": "38.01812000",
      "longitude": "24.00599000"
   },
   {
      "name": "Rodópoli",
      "countryCode": "GR",
      "stateCode": "I",
      "latitude": "38.11669000",
      "longitude": "23.87572000"
   },
   {
      "name": "Salamína",
      "countryCode": "GR",
      "stateCode": "I",
      "latitude": "37.96427000",
      "longitude": "23.49649000"
   },
   {
      "name": "Saronída",
      "countryCode": "GR",
      "stateCode": "I",
      "latitude": "37.74809000",
      "longitude": "23.91059000"
   },
   {
      "name": "Selínia",
      "countryCode": "GR",
      "stateCode": "I",
      "latitude": "37.93320000",
      "longitude": "23.53147000"
   },
   {
      "name": "Skarmagkás",
      "countryCode": "GR",
      "stateCode": "I",
      "latitude": "38.01133000",
      "longitude": "23.60303000"
   },
   {
      "name": "Skála Oropoú",
      "countryCode": "GR",
      "stateCode": "I",
      "latitude": "38.31964000",
      "longitude": "23.78763000"
   },
   {
      "name": "Spáta",
      "countryCode": "GR",
      "stateCode": "I",
      "latitude": "37.96163000",
      "longitude": "23.91514000"
   },
   {
      "name": "Spétses",
      "countryCode": "GR",
      "stateCode": "I",
      "latitude": "37.26191000",
      "longitude": "23.15943000"
   },
   {
      "name": "Stamáta",
      "countryCode": "GR",
      "stateCode": "I",
      "latitude": "38.12546000",
      "longitude": "23.88038000"
   },
   {
      "name": "Thrakomakedónes",
      "countryCode": "GR",
      "stateCode": "I",
      "latitude": "38.12964000",
      "longitude": "23.75751000"
   },
   {
      "name": "Távros",
      "countryCode": "GR",
      "stateCode": "I",
      "latitude": "37.97064000",
      "longitude": "23.69043000"
   },
   {
      "name": "Varnávas",
      "countryCode": "GR",
      "stateCode": "I",
      "latitude": "38.22358000",
      "longitude": "23.92307000"
   },
   {
      "name": "Varybóbi",
      "countryCode": "GR",
      "stateCode": "I",
      "latitude": "38.12723000",
      "longitude": "23.78729000"
   },
   {
      "name": "Vathý",
      "countryCode": "GR",
      "stateCode": "I",
      "latitude": "37.76420000",
      "longitude": "23.48011000"
   },
   {
      "name": "Vlycháda",
      "countryCode": "GR",
      "stateCode": "I",
      "latitude": "38.02734000",
      "longitude": "23.43663000"
   },
   {
      "name": "Vouliagméni",
      "countryCode": "GR",
      "stateCode": "I",
      "latitude": "37.81423000",
      "longitude": "23.77892000"
   },
   {
      "name": "Voúla",
      "countryCode": "GR",
      "stateCode": "I",
      "latitude": "37.84221000",
      "longitude": "23.77651000"
   },
   {
      "name": "Vraná",
      "countryCode": "GR",
      "stateCode": "I",
      "latitude": "38.12497000",
      "longitude": "23.95198000"
   },
   {
      "name": "Vrilissia",
      "countryCode": "GR",
      "stateCode": "I",
      "latitude": "38.03381000",
      "longitude": "23.82962000"
   },
   {
      "name": "Vári",
      "countryCode": "GR",
      "stateCode": "I",
      "latitude": "37.83320000",
      "longitude": "23.80311000"
   },
   {
      "name": "Vília",
      "countryCode": "GR",
      "stateCode": "I",
      "latitude": "38.16716000",
      "longitude": "23.33659000"
   },
   {
      "name": "Výronas",
      "countryCode": "GR",
      "stateCode": "I",
      "latitude": "37.96105000",
      "longitude": "23.75300000"
   },
   {
      "name": "Ymittos",
      "countryCode": "GR",
      "stateCode": "I",
      "latitude": "37.95342000",
      "longitude": "23.74897000"
   },
   {
      "name": "Zefyri",
      "countryCode": "GR",
      "stateCode": "I",
      "latitude": "38.06647000",
      "longitude": "23.71701000"
   },
   {
      "name": "Zográfos",
      "countryCode": "GR",
      "stateCode": "I",
      "latitude": "37.97574000",
      "longitude": "23.76911000"
   },
   {
      "name": "Ágioi Anárgyroi",
      "countryCode": "GR",
      "stateCode": "I",
      "latitude": "38.03013000",
      "longitude": "23.72379000"
   },
   {
      "name": "Ágios Stéfanos",
      "countryCode": "GR",
      "stateCode": "I",
      "latitude": "38.14657000",
      "longitude": "23.85608000"
   },
   {
      "name": "Álimos",
      "countryCode": "GR",
      "stateCode": "I",
      "latitude": "37.91033000",
      "longitude": "23.72361000"
   },
   {
      "name": "Áno Liósia",
      "countryCode": "GR",
      "stateCode": "I",
      "latitude": "38.08333000",
      "longitude": "23.70000000"
   },
   {
      "name": "Áyioi Apóstoloi",
      "countryCode": "GR",
      "stateCode": "I",
      "latitude": "38.29169000",
      "longitude": "23.91011000"
   },
   {
      "name": "Ílion",
      "countryCode": "GR",
      "stateCode": "I",
      "latitude": "38.03333000",
      "longitude": "23.70000000"
   },
   {
      "name": "Ýdra",
      "countryCode": "GR",
      "stateCode": "I",
      "latitude": "37.34976000",
      "longitude": "23.46560000"
   }
]