[
   {
      "name": "Amphoe Khlong Luang",
      "countryCode": "TH",
      "stateCode": "13",
      "latitude": "14.09323000",
      "longitude": "100.68106000"
   },
   {
      "name": "Amphoe Lam Luk Ka",
      "countryCode": "TH",
      "stateCode": "13",
      "latitude": "13.97744000",
      "longitude": "100.79244000"
   },
   {
      "name": "Amphoe Lat Lum Kaeo",
      "countryCode": "TH",
      "stateCode": "13",
      "latitude": "14.04459000",
      "longitude": "100.40948000"
   },
   {
      "name": "Amphoe Mueang Pathum Thani",
      "countryCode": "TH",
      "stateCode": "13",
      "latitude": "13.99105000",
      "longitude": "100.53554000"
   },
   {
      "name": "Amphoe Nong Suea",
      "countryCode": "TH",
      "stateCode": "13",
      "latitude": "14.16030000",
      "longitude": "100.83929000"
   },
   {
      "name": "Amphoe Thanyaburi",
      "countryCode": "TH",
      "stateCode": "13",
      "latitude": "14.02852000",
      "longitude": "100.76291000"
   },
   {
      "name": "Ban Lam Luk Ka",
      "countryCode": "TH",
      "stateCode": "13",
      "latitude": "13.97738000",
      "longitude": "100.77776000"
   },
   {
      "name": "Khlong Luang",
      "countryCode": "TH",
      "stateCode": "13",
      "latitude": "14.06467000",
      "longitude": "100.64578000"
   },
   {
      "name": "Pathum Thani",
      "countryCode": "TH",
      "stateCode": "13",
      "latitude": "14.01346000",
      "longitude": "100.53049000"
   }
]