[
   {
      "name": "Gua Musang",
      "countryCode": "MY",
      "stateCode": "03",
      "latitude": "4.88441000",
      "longitude": "101.96857000"
   },
   {
      "name": "Kampong Kadok",
      "countryCode": "MY",
      "stateCode": "03",
      "latitude": "6.00000000",
      "longitude": "102.25000000"
   },
   {
      "name": "Kampong Pangkal Kalong",
      "countryCode": "MY",
      "stateCode": "03",
      "latitude": "5.91667000",
      "longitude": "102.21667000"
   },
   {
      "name": "Kota Bharu",
      "countryCode": "MY",
      "stateCode": "03",
      "latitude": "6.12361000",
      "longitude": "102.24333000"
   },
   {
      "name": "Pasir Mas",
      "countryCode": "MY",
      "stateCode": "03",
      "latitude": "6.04934000",
      "longitude": "102.13987000"
   },
   {
      "name": "Peringat",
      "countryCode": "MY",
      "stateCode": "03",
      "latitude": "6.03333000",
      "longitude": "102.28333000"
   },
   {
      "name": "Tumpat",
      "countryCode": "MY",
      "stateCode": "03",
      "latitude": "6.19775000",
      "longitude": "102.17098000"
   }
]