[
   {
      "name": "Zagreb County",
      "isoCode": "01",
      "countryCode": "HR",
      "latitude": "45.87066120",
      "longitude": "16.39549100"
   },
   {
      "name": "Krapina-Zagorje County",
      "isoCode": "02",
      "countryCode": "HR",
      "latitude": "46.10133930",
      "longitude": "15.88096930"
   },
   {
      "name": "Sisak-Moslavina County",
      "isoCode": "03",
      "countryCode": "HR",
      "latitude": "45.38379260",
      "longitude": "16.53809940"
   },
   {
      "name": "Karlovac County",
      "isoCode": "05",
      "countryCode": "HR",
      "latitude": "45.26133520",
      "longitude": "15.52542016"
   },
   {
      "name": "Koprivnica-Križevci County",
      "isoCode": "06",
      "countryCode": "HR",
      "latitude": "46.15689190",
      "longitude": "16.83908260"
   },
   {
      "name": "Bjelovar-Bilogora County",
      "isoCode": "07",
      "countryCode": "HR",
      "latitude": "45.89879720",
      "longitude": "16.84230930"
   },
   {
      "name": "Primorje-Gorski Kotar County",
      "isoCode": "08",
      "countryCode": "HR",
      "latitude": "45.31739960",
      "longitude": "14.81674660"
   },
   {
      "name": "Lika-Senj County",
      "isoCode": "09",
      "countryCode": "HR",
      "latitude": "44.61922180",
      "longitude": "15.47016080"
   },
   {
      "name": "Virovitica-Podravina County",
      "isoCode": "10",
      "countryCode": "HR",
      "latitude": "45.65579850",
      "longitude": "17.79324720"
   },
   {
      "name": "Požega-Slavonia County",
      "isoCode": "11",
      "countryCode": "HR",
      "latitude": "45.34178680",
      "longitude": "17.81143590"
   },
   {
      "name": "Brod-Posavina County",
      "isoCode": "12",
      "countryCode": "HR",
      "latitude": "45.26379510",
      "longitude": "17.32645620"
   },
   {
      "name": "Zadar County",
      "isoCode": "13",
      "countryCode": "HR",
      "latitude": "44.14693900",
      "longitude": "15.61649430"
   },
   {
      "name": "Osijek-Baranja County",
      "isoCode": "14",
      "countryCode": "HR",
      "latitude": "45.55764280",
      "longitude": "18.39421410"
   },
   {
      "name": "Šibenik-Knin County",
      "isoCode": "15",
      "countryCode": "HR",
      "latitude": "43.92814850",
      "longitude": "16.10376940"
   },
   {
      "name": "Vukovar-Syrmia County",
      "isoCode": "16",
      "countryCode": "HR",
      "latitude": "45.17735520",
      "longitude": "18.80535270"
   },
   {
      "name": "Split-Dalmatia County",
      "isoCode": "17",
      "countryCode": "HR",
      "latitude": "43.52403280",
      "longitude": "16.81783770"
   },
   {
      "name": "Istria County",
      "isoCode": "18",
      "countryCode": "HR",
      "latitude": "45.12864550",
      "longitude": "13.90154200"
   },
   {
      "name": "Dubrovnik-Neretva County",
      "isoCode": "19",
      "countryCode": "HR",
      "latitude": "43.07665880",
      "longitude": "17.52684710"
   },
   {
      "name": "Međimurje County",
      "isoCode": "20",
      "countryCode": "HR",
      "latitude": "46.37666440",
      "longitude": "16.42132980"
   },
   {
      "name": "Zagreb",
      "isoCode": "21",
      "countryCode": "HR",
      "latitude": "45.81501080",
      "longitude": "15.98191890"
   }
]