[
   {
      "name": "Adeje",
      "countryCode": "ES",
      "stateCode": "CN",
      "latitude": "28.12271000",
      "longitude": "-16.72600000"
   },
   {
      "name": "Agaete",
      "countryCode": "ES",
      "stateCode": "CN",
      "latitude": "28.10023000",
      "longitude": "-15.69998000"
   },
   {
      "name": "Agulo",
      "countryCode": "ES",
      "stateCode": "CN",
      "latitude": "28.18778000",
      "longitude": "-17.19678000"
   },
   {
      "name": "Agüimes",
      "countryCode": "ES",
      "stateCode": "CN",
      "latitude": "27.90539000",
      "longitude": "-15.44609000"
   },
   {
      "name": "Alajeró",
      "countryCode": "ES",
      "stateCode": "CN",
      "latitude": "28.06205000",
      "longitude": "-17.24073000"
   },
   {
      "name": "Antigua",
      "countryCode": "ES",
      "stateCode": "CN",
      "latitude": "28.42307000",
      "longitude": "-14.01379000"
   },
   {
      "name": "Arafo",
      "countryCode": "ES",
      "stateCode": "CN",
      "latitude": "28.33971000",
      "longitude": "-16.42244000"
   },
   {
      "name": "Arona",
      "countryCode": "ES",
      "stateCode": "CN",
      "latitude": "28.09962000",
      "longitude": "-16.68102000"
   },
   {
      "name": "Arrecife",
      "countryCode": "ES",
      "stateCode": "CN",
      "latitude": "28.96302000",
      "longitude": "-13.54769000"
   },
   {
      "name": "Artenara",
      "countryCode": "ES",
      "stateCode": "CN",
      "latitude": "28.02055000",
      "longitude": "-15.64693000"
   },
   {
      "name": "Arucas",
      "countryCode": "ES",
      "stateCode": "CN",
      "latitude": "28.11983000",
      "longitude": "-15.52325000"
   },
   {
      "name": "Barlovento",
      "countryCode": "ES",
      "stateCode": "CN",
      "latitude": "28.82708000",
      "longitude": "-17.80377000"
   },
   {
      "name": "Breña Alta",
      "countryCode": "ES",
      "stateCode": "CN",
      "latitude": "28.65000000",
      "longitude": "-17.78333000"
   },
   {
      "name": "Breña Baja",
      "countryCode": "ES",
      "stateCode": "CN",
      "latitude": "28.63011000",
      "longitude": "-17.78953000"
   },
   {
      "name": "Buenavista del Norte",
      "countryCode": "ES",
      "stateCode": "CN",
      "latitude": "28.37458000",
      "longitude": "-16.86098000"
   },
   {
      "name": "Candelaria",
      "countryCode": "ES",
      "stateCode": "CN",
      "latitude": "28.35480000",
      "longitude": "-16.37268000"
   },
   {
      "name": "Carrizal",
      "countryCode": "ES",
      "stateCode": "CN",
      "latitude": "27.91161000",
      "longitude": "-15.40558000"
   },
   {
      "name": "Corralejo",
      "countryCode": "ES",
      "stateCode": "CN",
      "latitude": "28.73079000",
      "longitude": "-13.86749000"
   },
   {
      "name": "Costa Calma",
      "countryCode": "ES",
      "stateCode": "CN",
      "latitude": "28.16155000",
      "longitude": "-14.22691000"
   },
   {
      "name": "Costa Teguise",
      "countryCode": "ES",
      "stateCode": "CN",
      "latitude": "28.99838000",
      "longitude": "-13.49911000"
   },
   {
      "name": "Cruce de Arinaga",
      "countryCode": "ES",
      "stateCode": "CN",
      "latitude": "27.87656000",
      "longitude": "-15.42798000"
   },
   {
      "name": "El Cotillo",
      "countryCode": "ES",
      "stateCode": "CN",
      "latitude": "28.68264000",
      "longitude": "-14.00637000"
   },
   {
      "name": "El Paso",
      "countryCode": "ES",
      "stateCode": "CN",
      "latitude": "28.65007000",
      "longitude": "-17.88274000"
   },
   {
      "name": "Fasnia",
      "countryCode": "ES",
      "stateCode": "CN",
      "latitude": "28.23638000",
      "longitude": "-16.43886000"
   },
   {
      "name": "Firgas",
      "countryCode": "ES",
      "stateCode": "CN",
      "latitude": "28.10711000",
      "longitude": "-15.56299000"
   },
   {
      "name": "Frontera",
      "countryCode": "ES",
      "stateCode": "CN",
      "latitude": "27.75404000",
      "longitude": "-18.00367000"
   },
   {
      "name": "Fuencaliente de la Palma",
      "countryCode": "ES",
      "stateCode": "CN",
      "latitude": "28.49236000",
      "longitude": "-17.84529000"
   },
   {
      "name": "Garachico",
      "countryCode": "ES",
      "stateCode": "CN",
      "latitude": "28.37365000",
      "longitude": "-16.76342000"
   },
   {
      "name": "Garafía",
      "countryCode": "ES",
      "stateCode": "CN",
      "latitude": "28.81667000",
      "longitude": "-17.93333000"
   },
   {
      "name": "Granadilla de Abona",
      "countryCode": "ES",
      "stateCode": "CN",
      "latitude": "28.11882000",
      "longitude": "-16.57599000"
   },
   {
      "name": "Guia",
      "countryCode": "ES",
      "stateCode": "CN",
      "latitude": "28.13974000",
      "longitude": "-15.63294000"
   },
   {
      "name": "Guía de Isora",
      "countryCode": "ES",
      "stateCode": "CN",
      "latitude": "28.21154000",
      "longitude": "-16.77947000"
   },
   {
      "name": "Gáldar",
      "countryCode": "ES",
      "stateCode": "CN",
      "latitude": "28.14701000",
      "longitude": "-15.65020000"
   },
   {
      "name": "Güimar",
      "countryCode": "ES",
      "stateCode": "CN",
      "latitude": "28.31122000",
      "longitude": "-16.41276000"
   },
   {
      "name": "Haría",
      "countryCode": "ES",
      "stateCode": "CN",
      "latitude": "29.14553000",
      "longitude": "-13.49986000"
   },
   {
      "name": "Hermigua",
      "countryCode": "ES",
      "stateCode": "CN",
      "latitude": "28.16766000",
      "longitude": "-17.19051000"
   },
   {
      "name": "Icod de los Vinos",
      "countryCode": "ES",
      "stateCode": "CN",
      "latitude": "28.37241000",
      "longitude": "-16.71188000"
   },
   {
      "name": "Ingenio",
      "countryCode": "ES",
      "stateCode": "CN",
      "latitude": "27.91855000",
      "longitude": "-15.43433000"
   },
   {
      "name": "La Guancha",
      "countryCode": "ES",
      "stateCode": "CN",
      "latitude": "28.37320000",
      "longitude": "-16.65158000"
   },
   {
      "name": "La Laguna",
      "countryCode": "ES",
      "stateCode": "CN",
      "latitude": "28.48530000",
      "longitude": "-16.32014000"
   },
   {
      "name": "La Matanza de Acentejo",
      "countryCode": "ES",
      "stateCode": "CN",
      "latitude": "28.45242000",
      "longitude": "-16.44720000"
   },
   {
      "name": "La Oliva",
      "countryCode": "ES",
      "stateCode": "CN",
      "latitude": "28.61052000",
      "longitude": "-13.92912000"
   },
   {
      "name": "La Orotava",
      "countryCode": "ES",
      "stateCode": "CN",
      "latitude": "28.39076000",
      "longitude": "-16.52309000"
   },
   {
      "name": "La Victoria de Acentejo",
      "countryCode": "ES",
      "stateCode": "CN",
      "latitude": "28.43231000",
      "longitude": "-16.46232000"
   },
   {
      "name": "Las Palmas de Gran Canaria",
      "countryCode": "ES",
      "stateCode": "CN",
      "latitude": "28.09973000",
      "longitude": "-15.41343000"
   },
   {
      "name": "Las Rosas",
      "countryCode": "ES",
      "stateCode": "CN",
      "latitude": "28.01539000",
      "longitude": "-16.65373000"
   },
   {
      "name": "Lomo de Arico",
      "countryCode": "ES",
      "stateCode": "CN",
      "latitude": "28.16667000",
      "longitude": "-16.48333000"
   },
   {
      "name": "Los Gigantes",
      "countryCode": "ES",
      "stateCode": "CN",
      "latitude": "28.24361000",
      "longitude": "-16.84153000"
   },
   {
      "name": "Los Llanos de Aridane",
      "countryCode": "ES",
      "stateCode": "CN",
      "latitude": "28.65851000",
      "longitude": "-17.91821000"
   },
   {
      "name": "Los Realejos",
      "countryCode": "ES",
      "stateCode": "CN",
      "latitude": "28.38487000",
      "longitude": "-16.58275000"
   },
   {
      "name": "Los Silos",
      "countryCode": "ES",
      "stateCode": "CN",
      "latitude": "28.36610000",
      "longitude": "-16.81552000"
   },
   {
      "name": "Maspalomas",
      "countryCode": "ES",
      "stateCode": "CN",
      "latitude": "27.76056000",
      "longitude": "-15.58602000"
   },
   {
      "name": "Mazo",
      "countryCode": "ES",
      "stateCode": "CN",
      "latitude": "28.60906000",
      "longitude": "-17.77801000"
   },
   {
      "name": "Mogán",
      "countryCode": "ES",
      "stateCode": "CN",
      "latitude": "27.88385000",
      "longitude": "-15.72538000"
   },
   {
      "name": "Moya",
      "countryCode": "ES",
      "stateCode": "CN",
      "latitude": "28.11106000",
      "longitude": "-15.58285000"
   },
   {
      "name": "Mácher",
      "countryCode": "ES",
      "stateCode": "CN",
      "latitude": "28.94840000",
      "longitude": "-13.69117000"
   },
   {
      "name": "Nazaret",
      "countryCode": "ES",
      "stateCode": "CN",
      "latitude": "29.03818000",
      "longitude": "-13.56386000"
   },
   {
      "name": "Playa Blanca",
      "countryCode": "ES",
      "stateCode": "CN",
      "latitude": "28.86426000",
      "longitude": "-13.82814000"
   },
   {
      "name": "Playa de las Américas",
      "countryCode": "ES",
      "stateCode": "CN",
      "latitude": "28.06403000",
      "longitude": "-16.73012000"
   },
   {
      "name": "Playa del Ingles",
      "countryCode": "ES",
      "stateCode": "CN",
      "latitude": "27.75670000",
      "longitude": "-15.57870000"
   },
   {
      "name": "Provincia de Las Palmas",
      "countryCode": "ES",
      "stateCode": "CN",
      "latitude": "28.42039000",
      "longitude": "-14.01306000"
   },
   {
      "name": "Provincia de Santa Cruz de Tenerife",
      "countryCode": "ES",
      "stateCode": "CN",
      "latitude": "28.16667000",
      "longitude": "-17.33333000"
   },
   {
      "name": "Puerto Rico",
      "countryCode": "ES",
      "stateCode": "CN",
      "latitude": "27.78943000",
      "longitude": "-15.71045000"
   },
   {
      "name": "Puerto de la Cruz",
      "countryCode": "ES",
      "stateCode": "CN",
      "latitude": "28.41397000",
      "longitude": "-16.54867000"
   },
   {
      "name": "Puerto del Carmen",
      "countryCode": "ES",
      "stateCode": "CN",
      "latitude": "28.92313000",
      "longitude": "-13.66579000"
   },
   {
      "name": "Puerto del Rosario",
      "countryCode": "ES",
      "stateCode": "CN",
      "latitude": "28.50038000",
      "longitude": "-13.86272000"
   },
   {
      "name": "Punta de Mujeres",
      "countryCode": "ES",
      "stateCode": "CN",
      "latitude": "29.14660000",
      "longitude": "-13.44761000"
   },
   {
      "name": "Puntagorda",
      "countryCode": "ES",
      "stateCode": "CN",
      "latitude": "28.77490000",
      "longitude": "-17.97741000"
   },
   {
      "name": "Puntallana",
      "countryCode": "ES",
      "stateCode": "CN",
      "latitude": "28.73333000",
      "longitude": "-17.73333000"
   },
   {
      "name": "Pájara",
      "countryCode": "ES",
      "stateCode": "CN",
      "latitude": "28.35039000",
      "longitude": "-14.10760000"
   },
   {
      "name": "Realejo Alto",
      "countryCode": "ES",
      "stateCode": "CN",
      "latitude": "28.37645000",
      "longitude": "-16.58575000"
   },
   {
      "name": "San Bartolomé",
      "countryCode": "ES",
      "stateCode": "CN",
      "latitude": "29.00093000",
      "longitude": "-13.61300000"
   },
   {
      "name": "San Bartolomé de Tirajana",
      "countryCode": "ES",
      "stateCode": "CN",
      "latitude": "27.92481000",
      "longitude": "-15.57329000"
   },
   {
      "name": "San Isidro",
      "countryCode": "ES",
      "stateCode": "CN",
      "latitude": "28.07617000",
      "longitude": "-16.55800000"
   },
   {
      "name": "San Juan de la Rambla",
      "countryCode": "ES",
      "stateCode": "CN",
      "latitude": "28.39276000",
      "longitude": "-16.65015000"
   },
   {
      "name": "San Miguel De Abona",
      "countryCode": "ES",
      "stateCode": "CN",
      "latitude": "28.09826000",
      "longitude": "-16.61708000"
   },
   {
      "name": "San Nicolás",
      "countryCode": "ES",
      "stateCode": "CN",
      "latitude": "27.98910000",
      "longitude": "-15.78126000"
   },
   {
      "name": "San Sebastián de la Gomera",
      "countryCode": "ES",
      "stateCode": "CN",
      "latitude": "28.09163000",
      "longitude": "-17.11331000"
   },
   {
      "name": "Santa Brígida",
      "countryCode": "ES",
      "stateCode": "CN",
      "latitude": "28.03197000",
      "longitude": "-15.50425000"
   },
   {
      "name": "Santa Cruz de Tenerife",
      "countryCode": "ES",
      "stateCode": "CN",
      "latitude": "28.46824000",
      "longitude": "-16.25462000"
   },
   {
      "name": "Santa Cruz de la Palma",
      "countryCode": "ES",
      "stateCode": "CN",
      "latitude": "28.68351000",
      "longitude": "-17.76421000"
   },
   {
      "name": "Santa Lucía",
      "countryCode": "ES",
      "stateCode": "CN",
      "latitude": "27.91174000",
      "longitude": "-15.54071000"
   },
   {
      "name": "Santa Úrsula",
      "countryCode": "ES",
      "stateCode": "CN",
      "latitude": "28.42613000",
      "longitude": "-16.48876000"
   },
   {
      "name": "Santiago del Teide",
      "countryCode": "ES",
      "stateCode": "CN",
      "latitude": "28.29400000",
      "longitude": "-16.81618000"
   },
   {
      "name": "Sauzal",
      "countryCode": "ES",
      "stateCode": "CN",
      "latitude": "28.46667000",
      "longitude": "-16.41667000"
   },
   {
      "name": "Tacoronte",
      "countryCode": "ES",
      "stateCode": "CN",
      "latitude": "28.47688000",
      "longitude": "-16.41016000"
   },
   {
      "name": "Tanque",
      "countryCode": "ES",
      "stateCode": "CN",
      "latitude": "28.36667000",
      "longitude": "-16.83333000"
   },
   {
      "name": "Tazacorte",
      "countryCode": "ES",
      "stateCode": "CN",
      "latitude": "28.64186000",
      "longitude": "-17.93394000"
   },
   {
      "name": "Tegueste",
      "countryCode": "ES",
      "stateCode": "CN",
      "latitude": "28.51667000",
      "longitude": "-16.31667000"
   },
   {
      "name": "Teguise",
      "countryCode": "ES",
      "stateCode": "CN",
      "latitude": "29.06049000",
      "longitude": "-13.56397000"
   },
   {
      "name": "Tejeda",
      "countryCode": "ES",
      "stateCode": "CN",
      "latitude": "27.99508000",
      "longitude": "-15.61543000"
   },
   {
      "name": "Telde",
      "countryCode": "ES",
      "stateCode": "CN",
      "latitude": "27.99243000",
      "longitude": "-15.41915000"
   },
   {
      "name": "Teror",
      "countryCode": "ES",
      "stateCode": "CN",
      "latitude": "28.06062000",
      "longitude": "-15.54909000"
   },
   {
      "name": "Tijarafe",
      "countryCode": "ES",
      "stateCode": "CN",
      "latitude": "28.70000000",
      "longitude": "-17.95000000"
   },
   {
      "name": "Tinajo",
      "countryCode": "ES",
      "stateCode": "CN",
      "latitude": "29.06326000",
      "longitude": "-13.67647000"
   },
   {
      "name": "Tuineje",
      "countryCode": "ES",
      "stateCode": "CN",
      "latitude": "28.32372000",
      "longitude": "-14.04722000"
   },
   {
      "name": "Tías",
      "countryCode": "ES",
      "stateCode": "CN",
      "latitude": "28.96108000",
      "longitude": "-13.64502000"
   },
   {
      "name": "Vallehermosa",
      "countryCode": "ES",
      "stateCode": "CN",
      "latitude": "28.17944000",
      "longitude": "-17.26664000"
   },
   {
      "name": "Valleseco",
      "countryCode": "ES",
      "stateCode": "CN",
      "latitude": "28.04330000",
      "longitude": "-15.57623000"
   },
   {
      "name": "Valsequillo de Gran Canaria",
      "countryCode": "ES",
      "stateCode": "CN",
      "latitude": "27.98562000",
      "longitude": "-15.49725000"
   },
   {
      "name": "Valverde",
      "countryCode": "ES",
      "stateCode": "CN",
      "latitude": "27.80628000",
      "longitude": "-17.91578000"
   },
   {
      "name": "Vecindario",
      "countryCode": "ES",
      "stateCode": "CN",
      "latitude": "27.84636000",
      "longitude": "-15.44455000"
   },
   {
      "name": "Vega de San Mateo",
      "countryCode": "ES",
      "stateCode": "CN",
      "latitude": "28.00892000",
      "longitude": "-15.53330000"
   },
   {
      "name": "Vilaflor",
      "countryCode": "ES",
      "stateCode": "CN",
      "latitude": "28.15623000",
      "longitude": "-16.63592000"
   },
   {
      "name": "Yaiza",
      "countryCode": "ES",
      "stateCode": "CN",
      "latitude": "28.95678000",
      "longitude": "-13.76535000"
   }
]