[
   {
      "name": "Atami",
      "countryCode": "JP",
      "stateCode": "22",
      "latitude": "35.08834000",
      "longitude": "139.05325000"
   },
   {
      "name": "Atami-shi",
      "countryCode": "JP",
      "stateCode": "22",
      "latitude": "35.08957000",
      "longitude": "139.06357000"
   },
   {
      "name": "Fuji Shi",
      "countryCode": "JP",
      "stateCode": "22",
      "latitude": "35.20106000",
      "longitude": "138.69905000"
   },
   {
      "name": "Fujieda Shi",
      "countryCode": "JP",
      "stateCode": "22",
      "latitude": "34.91956000",
      "longitude": "138.23379000"
   },
   {
      "name": "Fujinomiya",
      "countryCode": "JP",
      "stateCode": "22",
      "latitude": "35.21667000",
      "longitude": "138.61667000"
   },
   {
      "name": "Fujinomiya Shi",
      "countryCode": "JP",
      "stateCode": "22",
      "latitude": "35.31753000",
      "longitude": "138.62375000"
   },
   {
      "name": "Fukuroi",
      "countryCode": "JP",
      "stateCode": "22",
      "latitude": "34.75000000",
      "longitude": "137.91667000"
   },
   {
      "name": "Fukuroi-shi",
      "countryCode": "JP",
      "stateCode": "22",
      "latitude": "34.74175000",
      "longitude": "137.92805000"
   },
   {
      "name": "Gotenba Shi",
      "countryCode": "JP",
      "stateCode": "22",
      "latitude": "35.29893000",
      "longitude": "138.87902000"
   },
   {
      "name": "Hamakita",
      "countryCode": "JP",
      "stateCode": "22",
      "latitude": "34.80000000",
      "longitude": "137.78333000"
   },
   {
      "name": "Hamamatsu",
      "countryCode": "JP",
      "stateCode": "22",
      "latitude": "34.70000000",
      "longitude": "137.73333000"
   },
   {
      "name": "Hamamatsu-shi",
      "countryCode": "JP",
      "stateCode": "22",
      "latitude": "34.95375000",
      "longitude": "137.80733000"
   },
   {
      "name": "Heda",
      "countryCode": "JP",
      "stateCode": "22",
      "latitude": "34.96277000",
      "longitude": "138.78543000"
   },
   {
      "name": "Itō",
      "countryCode": "JP",
      "stateCode": "22",
      "latitude": "34.96667000",
      "longitude": "139.08333000"
   },
   {
      "name": "Itō Shi",
      "countryCode": "JP",
      "stateCode": "22",
      "latitude": "34.93563000",
      "longitude": "139.08725000"
   },
   {
      "name": "Iwata",
      "countryCode": "JP",
      "stateCode": "22",
      "latitude": "34.70000000",
      "longitude": "137.85000000"
   },
   {
      "name": "Iwata-shi",
      "countryCode": "JP",
      "stateCode": "22",
      "latitude": "34.74451000",
      "longitude": "137.85043000"
   },
   {
      "name": "Izu",
      "countryCode": "JP",
      "stateCode": "22",
      "latitude": "34.97159000",
      "longitude": "138.94643000"
   },
   {
      "name": "Izu-shi",
      "countryCode": "JP",
      "stateCode": "22",
      "latitude": "34.92201000",
      "longitude": "138.92585000"
   },
   {
      "name": "Izunokuni-shi",
      "countryCode": "JP",
      "stateCode": "22",
      "latitude": "35.03799000",
      "longitude": "138.97295000"
   },
   {
      "name": "Kakegawa",
      "countryCode": "JP",
      "stateCode": "22",
      "latitude": "34.76667000",
      "longitude": "138.01667000"
   },
   {
      "name": "Kakegawa Shi",
      "countryCode": "JP",
      "stateCode": "22",
      "latitude": "34.77993000",
      "longitude": "138.01897000"
   },
   {
      "name": "Kanaya",
      "countryCode": "JP",
      "stateCode": "22",
      "latitude": "34.82022000",
      "longitude": "138.12775000"
   },
   {
      "name": "Kikugawa-shi",
      "countryCode": "JP",
      "stateCode": "22",
      "latitude": "34.75000000",
      "longitude": "138.10000000"
   },
   {
      "name": "Kosai",
      "countryCode": "JP",
      "stateCode": "22",
      "latitude": "34.70053000",
      "longitude": "137.52253000"
   },
   {
      "name": "Kosai-shi",
      "countryCode": "JP",
      "stateCode": "22",
      "latitude": "34.73092000",
      "longitude": "137.51643000"
   },
   {
      "name": "Makinohara Shi",
      "countryCode": "JP",
      "stateCode": "22",
      "latitude": "34.73226000",
      "longitude": "138.18567000"
   },
   {
      "name": "Mishima",
      "countryCode": "JP",
      "stateCode": "22",
      "latitude": "35.11667000",
      "longitude": "138.91667000"
   },
   {
      "name": "Mishima Shi",
      "countryCode": "JP",
      "stateCode": "22",
      "latitude": "35.13940000",
      "longitude": "138.94882000"
   },
   {
      "name": "Mori",
      "countryCode": "JP",
      "stateCode": "22",
      "latitude": "34.83333000",
      "longitude": "137.93333000"
   },
   {
      "name": "Numazu-shi",
      "countryCode": "JP",
      "stateCode": "22",
      "latitude": "35.09491000",
      "longitude": "138.86667000"
   },
   {
      "name": "Omaezaki-shi",
      "countryCode": "JP",
      "stateCode": "22",
      "latitude": "34.60000000",
      "longitude": "138.21667000"
   },
   {
      "name": "Sagara",
      "countryCode": "JP",
      "stateCode": "22",
      "latitude": "34.68503000",
      "longitude": "138.20461000"
   },
   {
      "name": "Shimada",
      "countryCode": "JP",
      "stateCode": "22",
      "latitude": "34.81667000",
      "longitude": "138.18333000"
   },
   {
      "name": "Shimada-shi",
      "countryCode": "JP",
      "stateCode": "22",
      "latitude": "34.91220000",
      "longitude": "138.12662000"
   },
   {
      "name": "Shimoda",
      "countryCode": "JP",
      "stateCode": "22",
      "latitude": "34.67652000",
      "longitude": "138.94456000"
   },
   {
      "name": "Shimoda-shi",
      "countryCode": "JP",
      "stateCode": "22",
      "latitude": "34.70879000",
      "longitude": "138.92148000"
   },
   {
      "name": "Shizuoka",
      "countryCode": "JP",
      "stateCode": "22",
      "latitude": "34.98333000",
      "longitude": "138.38333000"
   },
   {
      "name": "Shizuoka-shi",
      "countryCode": "JP",
      "stateCode": "22",
      "latitude": "35.20164000",
      "longitude": "138.31426000"
   },
   {
      "name": "Susono",
      "countryCode": "JP",
      "stateCode": "22",
      "latitude": "35.17388000",
      "longitude": "138.90691000"
   },
   {
      "name": "Susono Shi",
      "countryCode": "JP",
      "stateCode": "22",
      "latitude": "35.22551000",
      "longitude": "138.87734000"
   },
   {
      "name": "Yaizu",
      "countryCode": "JP",
      "stateCode": "22",
      "latitude": "34.86877000",
      "longitude": "138.31952000"
   },
   {
      "name": "Yaizu Shi",
      "countryCode": "JP",
      "stateCode": "22",
      "latitude": "34.84008000",
      "longitude": "138.30127000"
   },
   {
      "name": "Ōyama",
      "countryCode": "JP",
      "stateCode": "22",
      "latitude": "34.60359000",
      "longitude": "138.21719000"
   }
]