[
   {
      "name": "Bear",
      "countryCode": "US",
      "stateCode": "DE",
      "latitude": "39.62928000",
      "longitude": "-75.65826000"
   },
   {
      "name": "Bellefonte",
      "countryCode": "US",
      "stateCode": "DE",
      "latitude": "39.76622000",
      "longitude": "-75.50936000"
   },
   {
      "name": "Bethany Beach",
      "countryCode": "US",
      "stateCode": "DE",
      "latitude": "38.53956000",
      "longitude": "-75.05518000"
   },
   {
      "name": "Blades",
      "countryCode": "US",
      "stateCode": "DE",
      "latitude": "38.63567000",
      "longitude": "-75.60993000"
   },
   {
      "name": "Bridgeville",
      "countryCode": "US",
      "stateCode": "DE",
      "latitude": "38.74261000",
      "longitude": "-75.60437000"
   },
   {
      "name": "Brookside",
      "countryCode": "US",
      "stateCode": "DE",
      "latitude": "39.66706000",
      "longitude": "-75.72688000"
   },
   {
      "name": "Camden",
      "countryCode": "US",
      "stateCode": "DE",
      "latitude": "39.11345000",
      "longitude": "-75.54187000"
   },
   {
      "name": "Cheswold",
      "countryCode": "US",
      "stateCode": "DE",
      "latitude": "39.21928000",
      "longitude": "-75.58576000"
   },
   {
      "name": "Claymont",
      "countryCode": "US",
      "stateCode": "DE",
      "latitude": "39.80067000",
      "longitude": "-75.45964000"
   },
   {
      "name": "Clayton",
      "countryCode": "US",
      "stateCode": "DE",
      "latitude": "39.29067000",
      "longitude": "-75.63437000"
   },
   {
      "name": "Delaware City",
      "countryCode": "US",
      "stateCode": "DE",
      "latitude": "39.57789000",
      "longitude": "-75.58881000"
   },
   {
      "name": "Delmar",
      "countryCode": "US",
      "stateCode": "DE",
      "latitude": "38.45651000",
      "longitude": "-75.57715000"
   },
   {
      "name": "Dover",
      "countryCode": "US",
      "stateCode": "DE",
      "latitude": "39.15817000",
      "longitude": "-75.52437000"
   },
   {
      "name": "Dover Base Housing",
      "countryCode": "US",
      "stateCode": "DE",
      "latitude": "39.11763000",
      "longitude": "-75.48393000"
   },
   {
      "name": "Edgemoor",
      "countryCode": "US",
      "stateCode": "DE",
      "latitude": "39.75011000",
      "longitude": "-75.49964000"
   },
   {
      "name": "Elsmere",
      "countryCode": "US",
      "stateCode": "DE",
      "latitude": "39.73928000",
      "longitude": "-75.59798000"
   },
   {
      "name": "Felton",
      "countryCode": "US",
      "stateCode": "DE",
      "latitude": "39.00845000",
      "longitude": "-75.57798000"
   },
   {
      "name": "Georgetown",
      "countryCode": "US",
      "stateCode": "DE",
      "latitude": "38.69011000",
      "longitude": "-75.38547000"
   },
   {
      "name": "Glasgow",
      "countryCode": "US",
      "stateCode": "DE",
      "latitude": "39.60483000",
      "longitude": "-75.74521000"
   },
   {
      "name": "Greenville",
      "countryCode": "US",
      "stateCode": "DE",
      "latitude": "39.77900000",
      "longitude": "-75.59826000"
   },
   {
      "name": "Greenwood",
      "countryCode": "US",
      "stateCode": "DE",
      "latitude": "38.80706000",
      "longitude": "-75.59132000"
   },
   {
      "name": "Harrington",
      "countryCode": "US",
      "stateCode": "DE",
      "latitude": "38.92372000",
      "longitude": "-75.57770000"
   },
   {
      "name": "Highland Acres",
      "countryCode": "US",
      "stateCode": "DE",
      "latitude": "39.12095000",
      "longitude": "-75.52187000"
   },
   {
      "name": "Hockessin",
      "countryCode": "US",
      "stateCode": "DE",
      "latitude": "39.78761000",
      "longitude": "-75.69660000"
   },
   {
      "name": "Kent Acres",
      "countryCode": "US",
      "stateCode": "DE",
      "latitude": "39.13178000",
      "longitude": "-75.52492000"
   },
   {
      "name": "Kent County",
      "countryCode": "US",
      "stateCode": "DE",
      "latitude": "39.09595000",
      "longitude": "-75.50461000"
   },
   {
      "name": "Laurel",
      "countryCode": "US",
      "stateCode": "DE",
      "latitude": "38.55650000",
      "longitude": "-75.57131000"
   },
   {
      "name": "Lewes",
      "countryCode": "US",
      "stateCode": "DE",
      "latitude": "38.77456000",
      "longitude": "-75.13935000"
   },
   {
      "name": "Long Neck",
      "countryCode": "US",
      "stateCode": "DE",
      "latitude": "38.62011000",
      "longitude": "-75.15074000"
   },
   {
      "name": "Middletown",
      "countryCode": "US",
      "stateCode": "DE",
      "latitude": "39.44956000",
      "longitude": "-75.71632000"
   },
   {
      "name": "Milford",
      "countryCode": "US",
      "stateCode": "DE",
      "latitude": "38.91261000",
      "longitude": "-75.42797000"
   },
   {
      "name": "Millsboro",
      "countryCode": "US",
      "stateCode": "DE",
      "latitude": "38.59150000",
      "longitude": "-75.29130000"
   },
   {
      "name": "Milton",
      "countryCode": "US",
      "stateCode": "DE",
      "latitude": "38.77761000",
      "longitude": "-75.30991000"
   },
   {
      "name": "New Castle",
      "countryCode": "US",
      "stateCode": "DE",
      "latitude": "39.66206000",
      "longitude": "-75.56631000"
   },
   {
      "name": "New Castle County",
      "countryCode": "US",
      "stateCode": "DE",
      "latitude": "39.57833000",
      "longitude": "-75.63898000"
   },
   {
      "name": "Newark",
      "countryCode": "US",
      "stateCode": "DE",
      "latitude": "39.68372000",
      "longitude": "-75.74966000"
   },
   {
      "name": "Newport",
      "countryCode": "US",
      "stateCode": "DE",
      "latitude": "39.71372000",
      "longitude": "-75.60937000"
   },
   {
      "name": "North Star",
      "countryCode": "US",
      "stateCode": "DE",
      "latitude": "39.76122000",
      "longitude": "-75.71910000"
   },
   {
      "name": "Ocean View",
      "countryCode": "US",
      "stateCode": "DE",
      "latitude": "38.54511000",
      "longitude": "-75.08907000"
   },
   {
      "name": "Pike Creek",
      "countryCode": "US",
      "stateCode": "DE",
      "latitude": "39.73095000",
      "longitude": "-75.70410000"
   },
   {
      "name": "Pike Creek Valley",
      "countryCode": "US",
      "stateCode": "DE",
      "latitude": "39.73622000",
      "longitude": "-75.69827000"
   },
   {
      "name": "Rehoboth Beach",
      "countryCode": "US",
      "stateCode": "DE",
      "latitude": "38.72095000",
      "longitude": "-75.07601000"
   },
   {
      "name": "Rising Sun-Lebanon",
      "countryCode": "US",
      "stateCode": "DE",
      "latitude": "39.09977000",
      "longitude": "-75.50488000"
   },
   {
      "name": "Riverview",
      "countryCode": "US",
      "stateCode": "DE",
      "latitude": "39.02650000",
      "longitude": "-75.51076000"
   },
   {
      "name": "Rodney Village",
      "countryCode": "US",
      "stateCode": "DE",
      "latitude": "39.13206000",
      "longitude": "-75.53242000"
   },
   {
      "name": "Seaford",
      "countryCode": "US",
      "stateCode": "DE",
      "latitude": "38.64123000",
      "longitude": "-75.61104000"
   },
   {
      "name": "Selbyville",
      "countryCode": "US",
      "stateCode": "DE",
      "latitude": "38.46039000",
      "longitude": "-75.22074000"
   },
   {
      "name": "Smyrna",
      "countryCode": "US",
      "stateCode": "DE",
      "latitude": "39.29983000",
      "longitude": "-75.60465000"
   },
   {
      "name": "Sussex County",
      "countryCode": "US",
      "stateCode": "DE",
      "latitude": "38.68330000",
      "longitude": "-75.33954000"
   },
   {
      "name": "Townsend",
      "countryCode": "US",
      "stateCode": "DE",
      "latitude": "39.39511000",
      "longitude": "-75.69160000"
   },
   {
      "name": "Wilmington",
      "countryCode": "US",
      "stateCode": "DE",
      "latitude": "39.74595000",
      "longitude": "-75.54659000"
   },
   {
      "name": "Wilmington Manor",
      "countryCode": "US",
      "stateCode": "DE",
      "latitude": "39.68678000",
      "longitude": "-75.58437000"
   },
   {
      "name": "Woodside East",
      "countryCode": "US",
      "stateCode": "DE",
      "latitude": "39.06756000",
      "longitude": "-75.53748000"
   },
   {
      "name": "Wyoming",
      "countryCode": "US",
      "stateCode": "DE",
      "latitude": "39.11817000",
      "longitude": "-75.55881000"
   }
]