[
   {
      "name": "Adligenswil",
      "countryCode": "CH",
      "stateCode": "LU",
      "latitude": "47.06521000",
      "longitude": "8.36124000"
   },
   {
      "name": "Altishofen",
      "countryCode": "CH",
      "stateCode": "LU",
      "latitude": "47.19916000",
      "longitude": "7.96964000"
   },
   {
      "name": "Ballwil",
      "countryCode": "CH",
      "stateCode": "LU",
      "latitude": "47.15371000",
      "longitude": "8.32233000"
   },
   {
      "name": "Beromünster",
      "countryCode": "CH",
      "stateCode": "LU",
      "latitude": "47.20612000",
      "longitude": "8.19265000"
   },
   {
      "name": "Buchrain",
      "countryCode": "CH",
      "stateCode": "LU",
      "latitude": "47.09625000",
      "longitude": "8.34729000"
   },
   {
      "name": "Buttisholz",
      "countryCode": "CH",
      "stateCode": "LU",
      "latitude": "47.11442000",
      "longitude": "8.09425000"
   },
   {
      "name": "Büron",
      "countryCode": "CH",
      "stateCode": "LU",
      "latitude": "47.21192000",
      "longitude": "8.09420000"
   },
   {
      "name": "Dagmersellen",
      "countryCode": "CH",
      "stateCode": "LU",
      "latitude": "47.21405000",
      "longitude": "7.98519000"
   },
   {
      "name": "Ebikon",
      "countryCode": "CH",
      "stateCode": "LU",
      "latitude": "47.07937000",
      "longitude": "8.34041000"
   },
   {
      "name": "Eich",
      "countryCode": "CH",
      "stateCode": "LU",
      "latitude": "47.15116000",
      "longitude": "8.16695000"
   },
   {
      "name": "Emmen",
      "countryCode": "CH",
      "stateCode": "LU",
      "latitude": "47.07819000",
      "longitude": "8.27331000"
   },
   {
      "name": "Entlebuch",
      "countryCode": "CH",
      "stateCode": "LU",
      "latitude": "46.99559000",
      "longitude": "8.06354000"
   },
   {
      "name": "Entlebuch District",
      "countryCode": "CH",
      "stateCode": "LU",
      "latitude": "46.92590000",
      "longitude": "8.01427000"
   },
   {
      "name": "Escholzmatt",
      "countryCode": "CH",
      "stateCode": "LU",
      "latitude": "46.91350000",
      "longitude": "7.93426000"
   },
   {
      "name": "Ettiswil",
      "countryCode": "CH",
      "stateCode": "LU",
      "latitude": "47.15031000",
      "longitude": "8.01759000"
   },
   {
      "name": "Flühli",
      "countryCode": "CH",
      "stateCode": "LU",
      "latitude": "46.88391000",
      "longitude": "8.01558000"
   },
   {
      "name": "Geuensee",
      "countryCode": "CH",
      "stateCode": "LU",
      "latitude": "47.19970000",
      "longitude": "8.10689000"
   },
   {
      "name": "Grosswangen",
      "countryCode": "CH",
      "stateCode": "LU",
      "latitude": "47.13310000",
      "longitude": "8.05041000"
   },
   {
      "name": "Gunzwil",
      "countryCode": "CH",
      "stateCode": "LU",
      "latitude": "47.21072000",
      "longitude": "8.17932000"
   },
   {
      "name": "Hasle",
      "countryCode": "CH",
      "stateCode": "LU",
      "latitude": "46.97787000",
      "longitude": "8.05326000"
   },
   {
      "name": "Hildisrieden",
      "countryCode": "CH",
      "stateCode": "LU",
      "latitude": "47.15068000",
      "longitude": "8.22582000"
   },
   {
      "name": "Hitzkirch",
      "countryCode": "CH",
      "stateCode": "LU",
      "latitude": "47.22403000",
      "longitude": "8.26425000"
   },
   {
      "name": "Hochdorf",
      "countryCode": "CH",
      "stateCode": "LU",
      "latitude": "47.16841000",
      "longitude": "8.29179000"
   },
   {
      "name": "Hochdorf District",
      "countryCode": "CH",
      "stateCode": "LU",
      "latitude": "47.17062000",
      "longitude": "8.28702000"
   },
   {
      "name": "Hohenrain",
      "countryCode": "CH",
      "stateCode": "LU",
      "latitude": "47.18083000",
      "longitude": "8.31802000"
   },
   {
      "name": "Horw",
      "countryCode": "CH",
      "stateCode": "LU",
      "latitude": "47.01692000",
      "longitude": "8.30956000"
   },
   {
      "name": "Inwil",
      "countryCode": "CH",
      "stateCode": "LU",
      "latitude": "47.12530000",
      "longitude": "8.34885000"
   },
   {
      "name": "Knutwil",
      "countryCode": "CH",
      "stateCode": "LU",
      "latitude": "47.19953000",
      "longitude": "8.07315000"
   },
   {
      "name": "Kriens",
      "countryCode": "CH",
      "stateCode": "LU",
      "latitude": "47.03110000",
      "longitude": "8.28547000"
   },
   {
      "name": "Littau",
      "countryCode": "CH",
      "stateCode": "LU",
      "latitude": "47.05000000",
      "longitude": "8.26274000"
   },
   {
      "name": "Lucerne-Land District",
      "countryCode": "CH",
      "stateCode": "LU",
      "latitude": "47.04046000",
      "longitude": "8.29271000"
   },
   {
      "name": "Lucerne-Stadt District",
      "countryCode": "CH",
      "stateCode": "LU",
      "latitude": "47.05334000",
      "longitude": "8.31063000"
   },
   {
      "name": "Luthern",
      "countryCode": "CH",
      "stateCode": "LU",
      "latitude": "47.05753000",
      "longitude": "7.91692000"
   },
   {
      "name": "Luzern",
      "countryCode": "CH",
      "stateCode": "LU",
      "latitude": "47.05048000",
      "longitude": "8.30635000"
   },
   {
      "name": "Malters",
      "countryCode": "CH",
      "stateCode": "LU",
      "latitude": "47.03628000",
      "longitude": "8.18193000"
   },
   {
      "name": "Mauensee",
      "countryCode": "CH",
      "stateCode": "LU",
      "latitude": "47.16703000",
      "longitude": "8.06793000"
   },
   {
      "name": "Meggen",
      "countryCode": "CH",
      "stateCode": "LU",
      "latitude": "47.04691000",
      "longitude": "8.37467000"
   },
   {
      "name": "Meierskappel",
      "countryCode": "CH",
      "stateCode": "LU",
      "latitude": "47.12470000",
      "longitude": "8.44274000"
   },
   {
      "name": "Menznau",
      "countryCode": "CH",
      "stateCode": "LU",
      "latitude": "47.08364000",
      "longitude": "8.03971000"
   },
   {
      "name": "Nebikon",
      "countryCode": "CH",
      "stateCode": "LU",
      "latitude": "47.19185000",
      "longitude": "7.97769000"
   },
   {
      "name": "Neudorf",
      "countryCode": "CH",
      "stateCode": "LU",
      "latitude": "47.17699000",
      "longitude": "8.20911000"
   },
   {
      "name": "Neuenkirch",
      "countryCode": "CH",
      "stateCode": "LU",
      "latitude": "47.09989000",
      "longitude": "8.20416000"
   },
   {
      "name": "Nottwil",
      "countryCode": "CH",
      "stateCode": "LU",
      "latitude": "47.13469000",
      "longitude": "8.13774000"
   },
   {
      "name": "Oberkirch",
      "countryCode": "CH",
      "stateCode": "LU",
      "latitude": "47.15642000",
      "longitude": "8.11567000"
   },
   {
      "name": "Pfaffnau",
      "countryCode": "CH",
      "stateCode": "LU",
      "latitude": "47.22772000",
      "longitude": "7.89719000"
   },
   {
      "name": "Reiden",
      "countryCode": "CH",
      "stateCode": "LU",
      "latitude": "47.24719000",
      "longitude": "7.97135000"
   },
   {
      "name": "Root",
      "countryCode": "CH",
      "stateCode": "LU",
      "latitude": "47.11458000",
      "longitude": "8.39021000"
   },
   {
      "name": "Ruswil",
      "countryCode": "CH",
      "stateCode": "LU",
      "latitude": "47.08425000",
      "longitude": "8.12645000"
   },
   {
      "name": "Römerswil",
      "countryCode": "CH",
      "stateCode": "LU",
      "latitude": "47.16881000",
      "longitude": "8.24528000"
   },
   {
      "name": "Schenkon",
      "countryCode": "CH",
      "stateCode": "LU",
      "latitude": "47.17765000",
      "longitude": "8.13204000"
   },
   {
      "name": "Schwarzenberg",
      "countryCode": "CH",
      "stateCode": "LU",
      "latitude": "47.01705000",
      "longitude": "8.17261000"
   },
   {
      "name": "Schötz",
      "countryCode": "CH",
      "stateCode": "LU",
      "latitude": "47.16896000",
      "longitude": "7.98870000"
   },
   {
      "name": "Schüpfheim",
      "countryCode": "CH",
      "stateCode": "LU",
      "latitude": "46.95161000",
      "longitude": "8.01723000"
   },
   {
      "name": "Sempach",
      "countryCode": "CH",
      "stateCode": "LU",
      "latitude": "47.13577000",
      "longitude": "8.19149000"
   },
   {
      "name": "Sursee",
      "countryCode": "CH",
      "stateCode": "LU",
      "latitude": "47.17088000",
      "longitude": "8.11113000"
   },
   {
      "name": "Sursee District",
      "countryCode": "CH",
      "stateCode": "LU",
      "latitude": "47.15591000",
      "longitude": "8.13704000"
   },
   {
      "name": "Triengen",
      "countryCode": "CH",
      "stateCode": "LU",
      "latitude": "47.23573000",
      "longitude": "8.07652000"
   },
   {
      "name": "Udligenswil",
      "countryCode": "CH",
      "stateCode": "LU",
      "latitude": "47.09005000",
      "longitude": "8.40335000"
   },
   {
      "name": "Vitznau",
      "countryCode": "CH",
      "stateCode": "LU",
      "latitude": "47.01014000",
      "longitude": "8.48420000"
   },
   {
      "name": "Wauwil",
      "countryCode": "CH",
      "stateCode": "LU",
      "latitude": "47.18457000",
      "longitude": "8.02100000"
   },
   {
      "name": "Weggis",
      "countryCode": "CH",
      "stateCode": "LU",
      "latitude": "47.03208000",
      "longitude": "8.43219000"
   },
   {
      "name": "Werthenstein",
      "countryCode": "CH",
      "stateCode": "LU",
      "latitude": "47.05578000",
      "longitude": "8.10182000"
   },
   {
      "name": "Wikon",
      "countryCode": "CH",
      "stateCode": "LU",
      "latitude": "47.26339000",
      "longitude": "7.96801000"
   },
   {
      "name": "Willisau",
      "countryCode": "CH",
      "stateCode": "LU",
      "latitude": "47.12183000",
      "longitude": "7.99418000"
   },
   {
      "name": "Willisau District",
      "countryCode": "CH",
      "stateCode": "LU",
      "latitude": "47.14097000",
      "longitude": "7.95933000"
   },
   {
      "name": "Wolhusen",
      "countryCode": "CH",
      "stateCode": "LU",
      "latitude": "47.05983000",
      "longitude": "8.07389000"
   },
   {
      "name": "Zell",
      "countryCode": "CH",
      "stateCode": "LU",
      "latitude": "47.13673000",
      "longitude": "7.92495000"
   }
]