[
   {
      "name": "Kanbe",
      "countryCode": "MM",
      "stateCode": "06",
      "latitude": "16.70728000",
      "longitude": "96.00168000"
   },
   {
      "name": "Kayan",
      "countryCode": "MM",
      "stateCode": "06",
      "latitude": "16.90802000",
      "longitude": "96.56037000"
   },
   {
      "name": "Syriam",
      "countryCode": "MM",
      "stateCode": "06",
      "latitude": "16.76887000",
      "longitude": "96.24503000"
   },
   {
      "name": "Thongwa",
      "countryCode": "MM",
      "stateCode": "06",
      "latitude": "16.75998000",
      "longitude": "96.52498000"
   },
   {
      "name": "Twante",
      "countryCode": "MM",
      "stateCode": "06",
      "latitude": "16.71047000",
      "longitude": "95.92866000"
   },
   {
      "name": "Yangon",
      "countryCode": "MM",
      "stateCode": "06",
      "latitude": "16.80528000",
      "longitude": "96.15611000"
   }
]