[
   {
      "name": "Aranđelovac",
      "countryCode": "RS",
      "stateCode": "02",
      "latitude": "44.30694000",
      "longitude": "20.56000000"
   },
   {
      "name": "Arilje",
      "countryCode": "RS",
      "stateCode": "02",
      "latitude": "43.75306000",
      "longitude": "20.09556000"
   },
   {
      "name": "Badovinci",
      "countryCode": "RS",
      "stateCode": "02",
      "latitude": "44.78534000",
      "longitude": "19.37146000"
   },
   {
      "name": "Bajina Bašta",
      "countryCode": "RS",
      "stateCode": "02",
      "latitude": "43.97083000",
      "longitude": "19.56750000"
   },
   {
      "name": "Banovo Polje",
      "countryCode": "RS",
      "stateCode": "02",
      "latitude": "44.91040000",
      "longitude": "19.44916000"
   },
   {
      "name": "Barič",
      "countryCode": "RS",
      "stateCode": "02",
      "latitude": "44.65070000",
      "longitude": "20.25941000"
   },
   {
      "name": "Belgrade",
      "countryCode": "RS",
      "stateCode": "02",
      "latitude": "44.80401000",
      "longitude": "20.46513000"
   },
   {
      "name": "Belotić",
      "countryCode": "RS",
      "stateCode": "02",
      "latitude": "44.81782000",
      "longitude": "19.54801000"
   },
   {
      "name": "Bečmen",
      "countryCode": "RS",
      "stateCode": "02",
      "latitude": "44.77983000",
      "longitude": "20.20577000"
   },
   {
      "name": "Biljača",
      "countryCode": "RS",
      "stateCode": "02",
      "latitude": "42.35518000",
      "longitude": "21.74781000"
   },
   {
      "name": "Bogatić",
      "countryCode": "RS",
      "stateCode": "02",
      "latitude": "44.83750000",
      "longitude": "19.48056000"
   },
   {
      "name": "Bogosavac",
      "countryCode": "RS",
      "stateCode": "02",
      "latitude": "44.71799000",
      "longitude": "19.59533000"
   },
   {
      "name": "Boljevci",
      "countryCode": "RS",
      "stateCode": "02",
      "latitude": "44.72355000",
      "longitude": "20.22348000"
   },
   {
      "name": "Bor",
      "countryCode": "RS",
      "stateCode": "02",
      "latitude": "44.36667000",
      "longitude": "22.25000000"
   },
   {
      "name": "Brdarica",
      "countryCode": "RS",
      "stateCode": "02",
      "latitude": "44.55376000",
      "longitude": "19.77150000"
   },
   {
      "name": "Bukor",
      "countryCode": "RS",
      "stateCode": "02",
      "latitude": "44.49523000",
      "longitude": "19.57116000"
   },
   {
      "name": "Crna Bara",
      "countryCode": "RS",
      "stateCode": "02",
      "latitude": "44.87374000",
      "longitude": "19.39480000"
   },
   {
      "name": "Dobanovci",
      "countryCode": "RS",
      "stateCode": "02",
      "latitude": "44.82631000",
      "longitude": "20.22487000"
   },
   {
      "name": "Dobrić",
      "countryCode": "RS",
      "stateCode": "02",
      "latitude": "44.70224000",
      "longitude": "19.57931000"
   },
   {
      "name": "Donji Dobrić",
      "countryCode": "RS",
      "stateCode": "02",
      "latitude": "44.61183000",
      "longitude": "19.33109000"
   },
   {
      "name": "Donji Milanovac",
      "countryCode": "RS",
      "stateCode": "02",
      "latitude": "44.46593000",
      "longitude": "22.15170000"
   },
   {
      "name": "Draginje",
      "countryCode": "RS",
      "stateCode": "02",
      "latitude": "44.53302000",
      "longitude": "19.76250000"
   },
   {
      "name": "Drenovac",
      "countryCode": "RS",
      "stateCode": "02",
      "latitude": "44.86649000",
      "longitude": "19.70943000"
   },
   {
      "name": "Dublje",
      "countryCode": "RS",
      "stateCode": "02",
      "latitude": "44.80117000",
      "longitude": "19.50902000"
   },
   {
      "name": "Duboka",
      "countryCode": "RS",
      "stateCode": "02",
      "latitude": "44.52223000",
      "longitude": "21.76030000"
   },
   {
      "name": "Glušci",
      "countryCode": "RS",
      "stateCode": "02",
      "latitude": "44.89021000",
      "longitude": "19.54913000"
   },
   {
      "name": "Golubac",
      "countryCode": "RS",
      "stateCode": "02",
      "latitude": "44.65296000",
      "longitude": "21.63199000"
   },
   {
      "name": "Gornja Bukovica",
      "countryCode": "RS",
      "stateCode": "02",
      "latitude": "44.33987000",
      "longitude": "19.81368000"
   },
   {
      "name": "Gornji Milanovac",
      "countryCode": "RS",
      "stateCode": "02",
      "latitude": "44.02603000",
      "longitude": "20.46152000"
   },
   {
      "name": "Grabovac",
      "countryCode": "RS",
      "stateCode": "02",
      "latitude": "44.60049000",
      "longitude": "20.08539000"
   },
   {
      "name": "Jablanica",
      "countryCode": "RS",
      "stateCode": "02",
      "latitude": "42.99528000",
      "longitude": "21.91778000"
   },
   {
      "name": "Jadranska Lešnica",
      "countryCode": "RS",
      "stateCode": "02",
      "latitude": "44.59730000",
      "longitude": "19.35209000"
   },
   {
      "name": "Jagodina",
      "countryCode": "RS",
      "stateCode": "02",
      "latitude": "43.97713000",
      "longitude": "21.26121000"
   },
   {
      "name": "Jarebice",
      "countryCode": "RS",
      "stateCode": "02",
      "latitude": "44.53995000",
      "longitude": "19.42418000"
   },
   {
      "name": "Jelenča",
      "countryCode": "RS",
      "stateCode": "02",
      "latitude": "44.72700000",
      "longitude": "19.73500000"
   },
   {
      "name": "Jevremovac",
      "countryCode": "RS",
      "stateCode": "02",
      "latitude": "44.72172000",
      "longitude": "19.66364000"
   },
   {
      "name": "Joševa",
      "countryCode": "RS",
      "stateCode": "02",
      "latitude": "44.58772000",
      "longitude": "19.40967000"
   },
   {
      "name": "Kamenica",
      "countryCode": "RS",
      "stateCode": "02",
      "latitude": "44.34300000",
      "longitude": "19.72333000"
   },
   {
      "name": "Klenje",
      "countryCode": "RS",
      "stateCode": "02",
      "latitude": "44.80794000",
      "longitude": "19.43508000"
   },
   {
      "name": "Knjazevac",
      "countryCode": "RS",
      "stateCode": "02",
      "latitude": "43.56634000",
      "longitude": "22.25701000"
   },
   {
      "name": "Kolubara",
      "countryCode": "RS",
      "stateCode": "02",
      "latitude": "44.26333000",
      "longitude": "19.88750000"
   },
   {
      "name": "Kozjak",
      "countryCode": "RS",
      "stateCode": "02",
      "latitude": "44.58727000",
      "longitude": "19.28412000"
   },
   {
      "name": "Kragujevac",
      "countryCode": "RS",
      "stateCode": "02",
      "latitude": "44.01667000",
      "longitude": "20.91667000"
   },
   {
      "name": "Kraljevo",
      "countryCode": "RS",
      "stateCode": "02",
      "latitude": "43.72583000",
      "longitude": "20.68944000"
   },
   {
      "name": "Krivaja",
      "countryCode": "RS",
      "stateCode": "02",
      "latitude": "44.55021000",
      "longitude": "19.59153000"
   },
   {
      "name": "Krupanj",
      "countryCode": "RS",
      "stateCode": "02",
      "latitude": "44.36556000",
      "longitude": "19.36194000"
   },
   {
      "name": "Kruševac",
      "countryCode": "RS",
      "stateCode": "02",
      "latitude": "43.58000000",
      "longitude": "21.33389000"
   },
   {
      "name": "Lagja e Poshtme",
      "countryCode": "RS",
      "stateCode": "02",
      "latitude": "42.38853000",
      "longitude": "21.72971000"
   },
   {
      "name": "Lapovo",
      "countryCode": "RS",
      "stateCode": "02",
      "latitude": "44.18424000",
      "longitude": "21.09727000"
   },
   {
      "name": "Lazarevac",
      "countryCode": "RS",
      "stateCode": "02",
      "latitude": "44.38534000",
      "longitude": "20.25570000"
   },
   {
      "name": "Leskovac",
      "countryCode": "RS",
      "stateCode": "02",
      "latitude": "42.99806000",
      "longitude": "21.94611000"
   },
   {
      "name": "Lešnica",
      "countryCode": "RS",
      "stateCode": "02",
      "latitude": "44.65250000",
      "longitude": "19.31000000"
   },
   {
      "name": "Lipnički Šor",
      "countryCode": "RS",
      "stateCode": "02",
      "latitude": "44.58058000",
      "longitude": "19.26572000"
   },
   {
      "name": "Lipolist",
      "countryCode": "RS",
      "stateCode": "02",
      "latitude": "44.69783000",
      "longitude": "19.50101000"
   },
   {
      "name": "Ljig",
      "countryCode": "RS",
      "stateCode": "02",
      "latitude": "44.23007000",
      "longitude": "20.23819000"
   },
   {
      "name": "Ljubovija",
      "countryCode": "RS",
      "stateCode": "02",
      "latitude": "44.18944000",
      "longitude": "19.37667000"
   },
   {
      "name": "Lugavčina",
      "countryCode": "RS",
      "stateCode": "02",
      "latitude": "44.52314000",
      "longitude": "21.07083000"
   },
   {
      "name": "Majdanpek",
      "countryCode": "RS",
      "stateCode": "02",
      "latitude": "44.42771000",
      "longitude": "21.94596000"
   },
   {
      "name": "Majur",
      "countryCode": "RS",
      "stateCode": "02",
      "latitude": "44.77105000",
      "longitude": "19.65512000"
   },
   {
      "name": "Mala Moštanica",
      "countryCode": "RS",
      "stateCode": "02",
      "latitude": "44.63834000",
      "longitude": "20.30600000"
   },
   {
      "name": "Mali Zvornik",
      "countryCode": "RS",
      "stateCode": "02",
      "latitude": "44.37344000",
      "longitude": "19.10651000"
   },
   {
      "name": "Mačva",
      "countryCode": "RS",
      "stateCode": "02",
      "latitude": "44.61472000",
      "longitude": "19.47222000"
   },
   {
      "name": "Metković",
      "countryCode": "RS",
      "stateCode": "02",
      "latitude": "44.85617000",
      "longitude": "19.54654000"
   },
   {
      "name": "Miratovac",
      "countryCode": "RS",
      "stateCode": "02",
      "latitude": "42.25846000",
      "longitude": "21.66456000"
   },
   {
      "name": "Morava",
      "countryCode": "RS",
      "stateCode": "02",
      "latitude": "43.80389000",
      "longitude": "20.17806000"
   },
   {
      "name": "Negotin",
      "countryCode": "RS",
      "stateCode": "02",
      "latitude": "44.22639000",
      "longitude": "22.53083000"
   },
   {
      "name": "Niš",
      "countryCode": "RS",
      "stateCode": "02",
      "latitude": "43.32472000",
      "longitude": "21.90333000"
   },
   {
      "name": "Nišava",
      "countryCode": "RS",
      "stateCode": "02",
      "latitude": "43.32306000",
      "longitude": "21.89444000"
   },
   {
      "name": "Novi Pazar",
      "countryCode": "RS",
      "stateCode": "02",
      "latitude": "43.13667000",
      "longitude": "20.51222000"
   },
   {
      "name": "Novo Selo",
      "countryCode": "RS",
      "stateCode": "02",
      "latitude": "44.67041000",
      "longitude": "19.34495000"
   },
   {
      "name": "Obrenovac",
      "countryCode": "RS",
      "stateCode": "02",
      "latitude": "44.65486000",
      "longitude": "20.20017000"
   },
   {
      "name": "Osečina",
      "countryCode": "RS",
      "stateCode": "02",
      "latitude": "44.37306000",
      "longitude": "19.60139000"
   },
   {
      "name": "Osječenik",
      "countryCode": "RS",
      "stateCode": "02",
      "latitude": "43.14528000",
      "longitude": "19.85889000"
   },
   {
      "name": "Ostružnica",
      "countryCode": "RS",
      "stateCode": "02",
      "latitude": "44.72769000",
      "longitude": "20.31845000"
   },
   {
      "name": "Ovča",
      "countryCode": "RS",
      "stateCode": "02",
      "latitude": "44.88349000",
      "longitude": "20.53336000"
   },
   {
      "name": "Paraćin",
      "countryCode": "RS",
      "stateCode": "02",
      "latitude": "43.86083000",
      "longitude": "21.40778000"
   },
   {
      "name": "Petkovica",
      "countryCode": "RS",
      "stateCode": "02",
      "latitude": "44.66627000",
      "longitude": "19.43923000"
   },
   {
      "name": "Pirot",
      "countryCode": "RS",
      "stateCode": "02",
      "latitude": "43.17528000",
      "longitude": "22.59278000"
   },
   {
      "name": "Pocerski Pričinović",
      "countryCode": "RS",
      "stateCode": "02",
      "latitude": "44.72222000",
      "longitude": "19.70722000"
   },
   {
      "name": "Podunavlje District",
      "countryCode": "RS",
      "stateCode": "02",
      "latitude": "44.48417000",
      "longitude": "20.91167000"
   },
   {
      "name": "Pomoravlje",
      "countryCode": "RS",
      "stateCode": "02",
      "latitude": "43.93667000",
      "longitude": "21.40222000"
   },
   {
      "name": "Požarevac",
      "countryCode": "RS",
      "stateCode": "02",
      "latitude": "44.62133000",
      "longitude": "21.18782000"
   },
   {
      "name": "Priboj",
      "countryCode": "RS",
      "stateCode": "02",
      "latitude": "43.58306000",
      "longitude": "19.52519000"
   },
   {
      "name": "Prijepolje",
      "countryCode": "RS",
      "stateCode": "02",
      "latitude": "43.38996000",
      "longitude": "19.64870000"
   },
   {
      "name": "Prislonica",
      "countryCode": "RS",
      "stateCode": "02",
      "latitude": "43.95223000",
      "longitude": "20.43521000"
   },
   {
      "name": "Prnjavor",
      "countryCode": "RS",
      "stateCode": "02",
      "latitude": "44.70061000",
      "longitude": "19.38695000"
   },
   {
      "name": "Prokuplje",
      "countryCode": "RS",
      "stateCode": "02",
      "latitude": "43.23417000",
      "longitude": "21.58806000"
   },
   {
      "name": "Pčinja",
      "countryCode": "RS",
      "stateCode": "02",
      "latitude": "42.56278000",
      "longitude": "21.88250000"
   },
   {
      "name": "Radenka",
      "countryCode": "RS",
      "stateCode": "02",
      "latitude": "44.58345000",
      "longitude": "21.76469000"
   },
   {
      "name": "Radovnica",
      "countryCode": "RS",
      "stateCode": "02",
      "latitude": "42.43364000",
      "longitude": "22.22861000"
   },
   {
      "name": "Rajince",
      "countryCode": "RS",
      "stateCode": "02",
      "latitude": "42.37870000",
      "longitude": "21.69591000"
   },
   {
      "name": "Rasina",
      "countryCode": "RS",
      "stateCode": "02",
      "latitude": "43.55917000",
      "longitude": "21.21472000"
   },
   {
      "name": "Raška",
      "countryCode": "RS",
      "stateCode": "02",
      "latitude": "43.26694000",
      "longitude": "20.65278000"
   },
   {
      "name": "Ribari",
      "countryCode": "RS",
      "stateCode": "02",
      "latitude": "44.70961000",
      "longitude": "19.42472000"
   },
   {
      "name": "Rumska",
      "countryCode": "RS",
      "stateCode": "02",
      "latitude": "44.57261000",
      "longitude": "19.58988000"
   },
   {
      "name": "Rušanj",
      "countryCode": "RS",
      "stateCode": "02",
      "latitude": "44.68477000",
      "longitude": "20.44993000"
   },
   {
      "name": "Salaš Crnobarski",
      "countryCode": "RS",
      "stateCode": "02",
      "latitude": "44.82843000",
      "longitude": "19.39437000"
   },
   {
      "name": "Samoljica",
      "countryCode": "RS",
      "stateCode": "02",
      "latitude": "42.38445000",
      "longitude": "21.73708000"
   },
   {
      "name": "Sinošević",
      "countryCode": "RS",
      "stateCode": "02",
      "latitude": "44.61503000",
      "longitude": "19.63601000"
   },
   {
      "name": "Sjenica",
      "countryCode": "RS",
      "stateCode": "02",
      "latitude": "43.27306000",
      "longitude": "19.99944000"
   },
   {
      "name": "Smederevo",
      "countryCode": "RS",
      "stateCode": "02",
      "latitude": "44.66436000",
      "longitude": "20.92763000"
   },
   {
      "name": "Smederevska Palanka",
      "countryCode": "RS",
      "stateCode": "02",
      "latitude": "44.36548000",
      "longitude": "20.95885000"
   },
   {
      "name": "Sokolovica",
      "countryCode": "RS",
      "stateCode": "02",
      "latitude": "43.21528000",
      "longitude": "20.31556000"
   },
   {
      "name": "Sokolovo Brdo",
      "countryCode": "RS",
      "stateCode": "02",
      "latitude": "43.13694000",
      "longitude": "19.80556000"
   },
   {
      "name": "Sremčica",
      "countryCode": "RS",
      "stateCode": "02",
      "latitude": "44.67653000",
      "longitude": "20.39232000"
   },
   {
      "name": "Stepojevac",
      "countryCode": "RS",
      "stateCode": "02",
      "latitude": "44.51278000",
      "longitude": "20.29500000"
   },
   {
      "name": "Stubline",
      "countryCode": "RS",
      "stateCode": "02",
      "latitude": "44.57476000",
      "longitude": "20.13477000"
   },
   {
      "name": "Sumulicë",
      "countryCode": "RS",
      "stateCode": "02",
      "latitude": "42.38682000",
      "longitude": "21.73400000"
   },
   {
      "name": "Surčin",
      "countryCode": "RS",
      "stateCode": "02",
      "latitude": "44.79306000",
      "longitude": "20.28028000"
   },
   {
      "name": "Tabanović",
      "countryCode": "RS",
      "stateCode": "02",
      "latitude": "44.82018000",
      "longitude": "19.64128000"
   },
   {
      "name": "Toplica",
      "countryCode": "RS",
      "stateCode": "02",
      "latitude": "43.14194000",
      "longitude": "21.27806000"
   },
   {
      "name": "Trstenik",
      "countryCode": "RS",
      "stateCode": "02",
      "latitude": "43.61694000",
      "longitude": "21.00250000"
   },
   {
      "name": "Tršić",
      "countryCode": "RS",
      "stateCode": "02",
      "latitude": "44.49502000",
      "longitude": "19.26490000"
   },
   {
      "name": "Turija",
      "countryCode": "RS",
      "stateCode": "02",
      "latitude": "44.52273000",
      "longitude": "21.63945000"
   },
   {
      "name": "Tutin",
      "countryCode": "RS",
      "stateCode": "02",
      "latitude": "42.99028000",
      "longitude": "20.33139000"
   },
   {
      "name": "Ugrinovci",
      "countryCode": "RS",
      "stateCode": "02",
      "latitude": "44.87635000",
      "longitude": "20.18763000"
   },
   {
      "name": "Umka",
      "countryCode": "RS",
      "stateCode": "02",
      "latitude": "44.67806000",
      "longitude": "20.30472000"
   },
   {
      "name": "Uzveće",
      "countryCode": "RS",
      "stateCode": "02",
      "latitude": "44.87861000",
      "longitude": "19.60356000"
   },
   {
      "name": "Užice",
      "countryCode": "RS",
      "stateCode": "02",
      "latitude": "43.85861000",
      "longitude": "19.84878000"
   },
   {
      "name": "Valjevo",
      "countryCode": "RS",
      "stateCode": "02",
      "latitude": "44.27513000",
      "longitude": "19.89821000"
   },
   {
      "name": "Varna",
      "countryCode": "RS",
      "stateCode": "02",
      "latitude": "44.67914000",
      "longitude": "19.65150000"
   },
   {
      "name": "Velika Moštanica",
      "countryCode": "RS",
      "stateCode": "02",
      "latitude": "44.66486000",
      "longitude": "20.35395000"
   },
   {
      "name": "Vladimirci",
      "countryCode": "RS",
      "stateCode": "02",
      "latitude": "44.61472000",
      "longitude": "19.78528000"
   },
   {
      "name": "Vranić",
      "countryCode": "RS",
      "stateCode": "02",
      "latitude": "44.60237000",
      "longitude": "20.32872000"
   },
   {
      "name": "Vranje",
      "countryCode": "RS",
      "stateCode": "02",
      "latitude": "42.55139000",
      "longitude": "21.90028000"
   },
   {
      "name": "Vrnjačka Banja",
      "countryCode": "RS",
      "stateCode": "02",
      "latitude": "43.62725000",
      "longitude": "20.89634000"
   },
   {
      "name": "Zaječar",
      "countryCode": "RS",
      "stateCode": "02",
      "latitude": "43.69917000",
      "longitude": "21.98778000"
   },
   {
      "name": "Zemun",
      "countryCode": "RS",
      "stateCode": "02",
      "latitude": "44.84580000",
      "longitude": "20.40116000"
   },
   {
      "name": "Zlatibor",
      "countryCode": "RS",
      "stateCode": "02",
      "latitude": "43.72900000",
      "longitude": "19.70029000"
   },
   {
      "name": "Zminjak",
      "countryCode": "RS",
      "stateCode": "02",
      "latitude": "44.75711000",
      "longitude": "19.47070000"
   },
   {
      "name": "Zvečka",
      "countryCode": "RS",
      "stateCode": "02",
      "latitude": "44.64025000",
      "longitude": "20.16432000"
   },
   {
      "name": "Ðurići",
      "countryCode": "RS",
      "stateCode": "02",
      "latitude": "43.82533000",
      "longitude": "19.41233000"
   },
   {
      "name": "Ćićevac",
      "countryCode": "RS",
      "stateCode": "02",
      "latitude": "43.71882000",
      "longitude": "21.44085000"
   },
   {
      "name": "Ćuprija",
      "countryCode": "RS",
      "stateCode": "02",
      "latitude": "43.92750000",
      "longitude": "21.37000000"
   },
   {
      "name": "Čajetina",
      "countryCode": "RS",
      "stateCode": "02",
      "latitude": "43.74977000",
      "longitude": "19.71273000"
   },
   {
      "name": "Čačak",
      "countryCode": "RS",
      "stateCode": "02",
      "latitude": "43.89139000",
      "longitude": "20.34972000"
   },
   {
      "name": "Čokešina",
      "countryCode": "RS",
      "stateCode": "02",
      "latitude": "44.65319000",
      "longitude": "19.39016000"
   },
   {
      "name": "Šabac",
      "countryCode": "RS",
      "stateCode": "02",
      "latitude": "44.74667000",
      "longitude": "19.69000000"
   },
   {
      "name": "Ševarice",
      "countryCode": "RS",
      "stateCode": "02",
      "latitude": "44.86704000",
      "longitude": "19.66006000"
   },
   {
      "name": "Ševica",
      "countryCode": "RS",
      "stateCode": "02",
      "latitude": "44.50883000",
      "longitude": "21.72296000"
   },
   {
      "name": "Štitar",
      "countryCode": "RS",
      "stateCode": "02",
      "latitude": "44.79415000",
      "longitude": "19.59529000"
   },
   {
      "name": "Šumadija",
      "countryCode": "RS",
      "stateCode": "02",
      "latitude": "44.00222000",
      "longitude": "20.91778000"
   },
   {
      "name": "Žujince",
      "countryCode": "RS",
      "stateCode": "02",
      "latitude": "42.31568000",
      "longitude": "21.70212000"
   }
]