[
   {
      "name": "Ağrı",
      "countryCode": "TR",
      "stateCode": "04",
      "latitude": "39.71944000",
      "longitude": "43.05139000"
   },
   {
      "name": "Diyadin",
      "countryCode": "TR",
      "stateCode": "04",
      "latitude": "39.54056000",
      "longitude": "43.67135000"
   },
   {
      "name": "Doğubayazıt",
      "countryCode": "TR",
      "stateCode": "04",
      "latitude": "39.54694000",
      "longitude": "44.08417000"
   },
   {
      "name": "Eleşkirt",
      "countryCode": "TR",
      "stateCode": "04",
      "latitude": "39.79803000",
      "longitude": "42.67574000"
   },
   {
      "name": "Hamur",
      "countryCode": "TR",
      "stateCode": "04",
      "latitude": "39.60561000",
      "longitude": "42.98500000"
   },
   {
      "name": "Patnos",
      "countryCode": "TR",
      "stateCode": "04",
      "latitude": "39.22493000",
      "longitude": "42.85693000"
   },
   {
      "name": "Taşlıçay",
      "countryCode": "TR",
      "stateCode": "04",
      "latitude": "39.62966000",
      "longitude": "43.36878000"
   },
   {
      "name": "Tutak İlçesi",
      "countryCode": "TR",
      "stateCode": "04",
      "latitude": "39.55042000",
      "longitude": "42.77572000"
   }
]