[
   {
      "name": "Huyện Can Lộc",
      "countryCode": "VN",
      "stateCode": "23",
      "latitude": "18.44414000",
      "longitude": "105.76350000"
   },
   {
      "name": "Huyện Cẩm Xuyên",
      "countryCode": "VN",
      "stateCode": "23",
      "latitude": "18.19059000",
      "longitude": "106.00186000"
   },
   {
      "name": "Huyện Kỳ Anh",
      "countryCode": "VN",
      "stateCode": "23",
      "latitude": "18.05805000",
      "longitude": "106.24580000"
   },
   {
      "name": "Huyện Nghi Xuân",
      "countryCode": "VN",
      "stateCode": "23",
      "latitude": "18.62419000",
      "longitude": "105.76829000"
   },
   {
      "name": "Huyện Thạch Hà",
      "countryCode": "VN",
      "stateCode": "23",
      "latitude": "18.35091000",
      "longitude": "105.81123000"
   },
   {
      "name": "Huyện Ðức Thọ",
      "countryCode": "VN",
      "stateCode": "23",
      "latitude": "18.49699000",
      "longitude": "105.61016000"
   },
   {
      "name": "Hà Tĩnh",
      "countryCode": "VN",
      "stateCode": "23",
      "latitude": "18.34282000",
      "longitude": "105.90569000"
   }
]