[
   {
      "name": "Amphoe Bang Khan",
      "countryCode": "TH",
      "stateCode": "80",
      "latitude": "8.01208000",
      "longitude": "99.48449000"
   },
   {
      "name": "Amphoe Cha-uat",
      "countryCode": "TH",
      "stateCode": "80",
      "latitude": "7.95645000",
      "longitude": "99.98929000"
   },
   {
      "name": "Amphoe Chaloem Phra Kiat",
      "countryCode": "TH",
      "stateCode": "80",
      "latitude": "8.18333000",
      "longitude": "100.05000000"
   },
   {
      "name": "Amphoe Chang Klang",
      "countryCode": "TH",
      "stateCode": "80",
      "latitude": "8.35697000",
      "longitude": "99.64592000"
   },
   {
      "name": "Amphoe Chawang",
      "countryCode": "TH",
      "stateCode": "80",
      "latitude": "8.46322000",
      "longitude": "99.51107000"
   },
   {
      "name": "Amphoe Chian Yai",
      "countryCode": "TH",
      "stateCode": "80",
      "latitude": "8.11719000",
      "longitude": "100.15819000"
   },
   {
      "name": "Amphoe Chulabhorn",
      "countryCode": "TH",
      "stateCode": "80",
      "latitude": "8.07591000",
      "longitude": "99.85365000"
   },
   {
      "name": "Amphoe Hua Sai",
      "countryCode": "TH",
      "stateCode": "80",
      "latitude": "8.01181000",
      "longitude": "100.24614000"
   },
   {
      "name": "Amphoe Khanom",
      "countryCode": "TH",
      "stateCode": "80",
      "latitude": "9.18317000",
      "longitude": "99.80192000"
   },
   {
      "name": "Amphoe Lan Saka",
      "countryCode": "TH",
      "stateCode": "80",
      "latitude": "8.37799000",
      "longitude": "99.78328000"
   },
   {
      "name": "Amphoe Mueang Nakhon Si Thammarat",
      "countryCode": "TH",
      "stateCode": "80",
      "latitude": "8.44013000",
      "longitude": "99.98537000"
   },
   {
      "name": "Amphoe Na Bon",
      "countryCode": "TH",
      "stateCode": "80",
      "latitude": "8.26976000",
      "longitude": "99.55694000"
   },
   {
      "name": "Amphoe Nopphitam",
      "countryCode": "TH",
      "stateCode": "80",
      "latitude": "8.75166000",
      "longitude": "99.67087000"
   },
   {
      "name": "Amphoe Pak Phanang",
      "countryCode": "TH",
      "stateCode": "80",
      "latitude": "8.30711000",
      "longitude": "100.17361000"
   },
   {
      "name": "Amphoe Phipun",
      "countryCode": "TH",
      "stateCode": "80",
      "latitude": "8.60289000",
      "longitude": "99.59528000"
   },
   {
      "name": "Amphoe Phra Phrom",
      "countryCode": "TH",
      "stateCode": "80",
      "latitude": "8.32652000",
      "longitude": "99.93240000"
   },
   {
      "name": "Amphoe Phrom Khiri",
      "countryCode": "TH",
      "stateCode": "80",
      "latitude": "8.54242000",
      "longitude": "99.79229000"
   },
   {
      "name": "Amphoe Ron Phibun",
      "countryCode": "TH",
      "stateCode": "80",
      "latitude": "8.17997000",
      "longitude": "99.89248000"
   },
   {
      "name": "Amphoe Sichon",
      "countryCode": "TH",
      "stateCode": "80",
      "latitude": "8.94981000",
      "longitude": "99.81322000"
   },
   {
      "name": "Amphoe Tha Sala",
      "countryCode": "TH",
      "stateCode": "80",
      "latitude": "8.69367000",
      "longitude": "99.88539000"
   },
   {
      "name": "Amphoe Tham Phannara",
      "countryCode": "TH",
      "stateCode": "80",
      "latitude": "8.45822000",
      "longitude": "99.37718000"
   },
   {
      "name": "Amphoe Thung Song",
      "countryCode": "TH",
      "stateCode": "80",
      "latitude": "8.11757000",
      "longitude": "99.66907000"
   },
   {
      "name": "Amphoe Thung Yai",
      "countryCode": "TH",
      "stateCode": "80",
      "latitude": "8.28708000",
      "longitude": "99.37196000"
   },
   {
      "name": "Chawang",
      "countryCode": "TH",
      "stateCode": "80",
      "latitude": "8.42614000",
      "longitude": "99.50472000"
   },
   {
      "name": "Nakhon Si Thammarat",
      "countryCode": "TH",
      "stateCode": "80",
      "latitude": "8.43333000",
      "longitude": "99.96667000"
   },
   {
      "name": "Pak Phanang",
      "countryCode": "TH",
      "stateCode": "80",
      "latitude": "8.35109000",
      "longitude": "100.20195000"
   },
   {
      "name": "Ron Phibun",
      "countryCode": "TH",
      "stateCode": "80",
      "latitude": "8.17911000",
      "longitude": "99.85425000"
   },
   {
      "name": "Tham Phannara",
      "countryCode": "TH",
      "stateCode": "80",
      "latitude": "8.42045000",
      "longitude": "99.39517000"
   },
   {
      "name": "Thung Song",
      "countryCode": "TH",
      "stateCode": "80",
      "latitude": "8.16453000",
      "longitude": "99.68039000"
   }
]