[
   {
      "name": "Bonaire",
      "isoCode": "BQ1",
      "countryCode": "NL",
      "latitude": "12.20189020",
      "longitude": "-68.26238220"
   },
   {
      "name": "Saba",
      "isoCode": "BQ2",
      "countryCode": "NL",
      "latitude": "17.63546420",
      "longitude": "-63.23267630"
   },
   {
      "name": "Sint Eustatius",
      "isoCode": "BQ3",
      "countryCode": "NL",
      "latitude": "17.48903060",
      "longitude": "-62.97355500"
   },
   {
      "name": "Drenthe",
      "isoCode": "DR",
      "countryCode": "NL",
      "latitude": "52.94760120",
      "longitude": "6.62305860"
   },
   {
      "name": "Flevoland",
      "isoCode": "FL",
      "countryCode": "NL",
      "latitude": "52.52797810",
      "longitude": "5.59535080"
   },
   {
      "name": "Friesland",
      "isoCode": "FR",
      "countryCode": "NL",
      "latitude": "53.16416420",
      "longitude": "5.78175420"
   },
   {
      "name": "Gelderland",
      "isoCode": "GE",
      "countryCode": "NL",
      "latitude": "52.04515500",
      "longitude": "5.87182350"
   },
   {
      "name": "Groningen",
      "isoCode": "GR",
      "countryCode": "NL",
      "latitude": "53.21938350",
      "longitude": "6.56650170"
   },
   {
      "name": "Limburg",
      "isoCode": "LI",
      "countryCode": "NL",
      "latitude": "51.44272380",
      "longitude": "6.06087260"
   },
   {
      "name": "North Brabant",
      "isoCode": "NB",
      "countryCode": "NL",
      "latitude": "51.48265370",
      "longitude": "5.23216870"
   },
   {
      "name": "North Holland",
      "isoCode": "NH",
      "countryCode": "NL",
      "latitude": "52.52058690",
      "longitude": "4.78847400"
   },
   {
      "name": "Overijssel",
      "isoCode": "OV",
      "countryCode": "NL",
      "latitude": "52.43878140",
      "longitude": "6.50164110"
   },
   {
      "name": "Utrecht",
      "isoCode": "UT",
      "countryCode": "NL",
      "latitude": "52.09073740",
      "longitude": "5.12142010"
   },
   {
      "name": "Zeeland",
      "isoCode": "ZE",
      "countryCode": "NL",
      "latitude": "51.49403090",
      "longitude": "3.84968150"
   },
   {
      "name": "South Holland",
      "isoCode": "ZH",
      "countryCode": "NL",
      "latitude": "41.60086810",
      "longitude": "-87.60698940"
   }
]