[
   {
      "name": "Aheloy",
      "countryCode": "BG",
      "stateCode": "02",
      "latitude": "42.64987000",
      "longitude": "27.64838000"
   },
   {
      "name": "Ahtopol",
      "countryCode": "BG",
      "stateCode": "02",
      "latitude": "42.09768000",
      "longitude": "27.93961000"
   },
   {
      "name": "Aytos",
      "countryCode": "BG",
      "stateCode": "02",
      "latitude": "42.70000000",
      "longitude": "27.25000000"
   },
   {
      "name": "Bata",
      "countryCode": "BG",
      "stateCode": "02",
      "latitude": "42.73802000",
      "longitude": "27.49643000"
   },
   {
      "name": "Burgas",
      "countryCode": "BG",
      "stateCode": "02",
      "latitude": "42.50606000",
      "longitude": "27.46781000"
   },
   {
      "name": "Chernomorets",
      "countryCode": "BG",
      "stateCode": "02",
      "latitude": "42.44408000",
      "longitude": "27.63902000"
   },
   {
      "name": "Kameno",
      "countryCode": "BG",
      "stateCode": "02",
      "latitude": "42.57084000",
      "longitude": "27.29875000"
   },
   {
      "name": "Karnobat",
      "countryCode": "BG",
      "stateCode": "02",
      "latitude": "42.65000000",
      "longitude": "26.98333000"
   },
   {
      "name": "Kiten",
      "countryCode": "BG",
      "stateCode": "02",
      "latitude": "42.23424000",
      "longitude": "27.77490000"
   },
   {
      "name": "Malko Tarnovo",
      "countryCode": "BG",
      "stateCode": "02",
      "latitude": "41.97958000",
      "longitude": "27.52477000"
   },
   {
      "name": "Nesebar",
      "countryCode": "BG",
      "stateCode": "02",
      "latitude": "42.65921000",
      "longitude": "27.73602000"
   },
   {
      "name": "Obshtina Aytos",
      "countryCode": "BG",
      "stateCode": "02",
      "latitude": "42.70000000",
      "longitude": "27.25000000"
   },
   {
      "name": "Obshtina Burgas",
      "countryCode": "BG",
      "stateCode": "02",
      "latitude": "42.50000000",
      "longitude": "27.46667000"
   },
   {
      "name": "Obshtina Kameno",
      "countryCode": "BG",
      "stateCode": "02",
      "latitude": "42.51667000",
      "longitude": "27.18333000"
   },
   {
      "name": "Obshtina Karnobat",
      "countryCode": "BG",
      "stateCode": "02",
      "latitude": "42.65000000",
      "longitude": "26.98333000"
   },
   {
      "name": "Obshtina Malko Tarnovo",
      "countryCode": "BG",
      "stateCode": "02",
      "latitude": "42.08333000",
      "longitude": "27.53333000"
   },
   {
      "name": "Obshtina Nesebar",
      "countryCode": "BG",
      "stateCode": "02",
      "latitude": "42.78333000",
      "longitude": "27.73333000"
   },
   {
      "name": "Obshtina Pomorie",
      "countryCode": "BG",
      "stateCode": "02",
      "latitude": "42.73333000",
      "longitude": "27.55000000"
   },
   {
      "name": "Obshtina Primorsko",
      "countryCode": "BG",
      "stateCode": "02",
      "latitude": "42.25000000",
      "longitude": "27.63333000"
   },
   {
      "name": "Obshtina Sozopol",
      "countryCode": "BG",
      "stateCode": "02",
      "latitude": "42.31123000",
      "longitude": "27.51733000"
   },
   {
      "name": "Obshtina Sungurlare",
      "countryCode": "BG",
      "stateCode": "02",
      "latitude": "42.83333000",
      "longitude": "26.83333000"
   },
   {
      "name": "Obzor",
      "countryCode": "BG",
      "stateCode": "02",
      "latitude": "42.81998000",
      "longitude": "27.88007000"
   },
   {
      "name": "Pomorie",
      "countryCode": "BG",
      "stateCode": "02",
      "latitude": "42.56326000",
      "longitude": "27.62986000"
   },
   {
      "name": "Primorsko",
      "countryCode": "BG",
      "stateCode": "02",
      "latitude": "42.26791000",
      "longitude": "27.75611000"
   },
   {
      "name": "Ravda",
      "countryCode": "BG",
      "stateCode": "02",
      "latitude": "42.64185000",
      "longitude": "27.67713000"
   },
   {
      "name": "Ruen",
      "countryCode": "BG",
      "stateCode": "02",
      "latitude": "42.80000000",
      "longitude": "27.28333000"
   },
   {
      "name": "Sarafovo",
      "countryCode": "BG",
      "stateCode": "02",
      "latitude": "42.56079000",
      "longitude": "27.52195000"
   },
   {
      "name": "Sozopol",
      "countryCode": "BG",
      "stateCode": "02",
      "latitude": "42.41801000",
      "longitude": "27.69560000"
   },
   {
      "name": "Sredets",
      "countryCode": "BG",
      "stateCode": "02",
      "latitude": "42.34747000",
      "longitude": "27.17898000"
   },
   {
      "name": "Sungurlare",
      "countryCode": "BG",
      "stateCode": "02",
      "latitude": "42.76667000",
      "longitude": "26.78333000"
   },
   {
      "name": "Sveti Vlas",
      "countryCode": "BG",
      "stateCode": "02",
      "latitude": "42.71360000",
      "longitude": "27.75867000"
   },
   {
      "name": "Tsarevo",
      "countryCode": "BG",
      "stateCode": "02",
      "latitude": "42.16955000",
      "longitude": "27.84541000"
   }
]