[
   {
      "name": "Aisén del General Carlos Ibañez del Campo",
      "isoCode": "AI",
      "countryCode": "CL",
      "latitude": "-46.37834500",
      "longitude": "-72.30076230"
   },
   {
      "name": "Antofagasta",
      "isoCode": "AN",
      "countryCode": "CL",
      "latitude": "-23.83691040",
      "longitude": "-69.28775350"
   },
   {
      "name": "Arica y Parinacota",
      "isoCode": "AP",
      "countryCode": "CL",
      "latitude": "-18.59404850",
      "longitude": "-69.47845410"
   },
   {
      "name": "La Araucanía",
      "isoCode": "AR",
      "countryCode": "CL",
      "latitude": "-38.94892100",
      "longitude": "-72.33111300"
   },
   {
      "name": "Atacama",
      "isoCode": "AT",
      "countryCode": "CL",
      "latitude": "-27.56605580",
      "longitude": "-70.05031400"
   },
   {
      "name": "Biobío",
      "isoCode": "BI",
      "countryCode": "CL",
      "latitude": "-37.44644280",
      "longitude": "-72.14161320"
   },
   {
      "name": "Coquimbo",
      "isoCode": "CO",
      "countryCode": "CL",
      "latitude": "-30.54018100",
      "longitude": "-70.81199530"
   },
   {
      "name": "Libertador General Bernardo O'Higgins",
      "isoCode": "LI",
      "countryCode": "CL",
      "latitude": "-34.57553740",
      "longitude": "-71.00223110"
   },
   {
      "name": "Los Lagos",
      "isoCode": "LL",
      "countryCode": "CL",
      "latitude": "-41.91977790",
      "longitude": "-72.14161320"
   },
   {
      "name": "Los Ríos",
      "isoCode": "LR",
      "countryCode": "CL",
      "latitude": "-40.23102170",
      "longitude": "-72.33111300"
   },
   {
      "name": "Magallanes y de la Antártica Chilena",
      "isoCode": "MA",
      "countryCode": "CL",
      "latitude": "-52.20643160",
      "longitude": "-72.16850010"
   },
   {
      "name": "Maule",
      "isoCode": "ML",
      "countryCode": "CL",
      "latitude": "-35.51636030",
      "longitude": "-71.57239530"
   },
   {
      "name": "Ñuble",
      "isoCode": "NB",
      "countryCode": "CL",
      "latitude": "-36.72257430",
      "longitude": "-71.76224810"
   },
   {
      "name": "Región Metropolitana de Santiago",
      "isoCode": "RM",
      "countryCode": "CL",
      "latitude": "-33.43755450",
      "longitude": "-70.65048960"
   },
   {
      "name": "Tarapacá",
      "isoCode": "TA",
      "countryCode": "CL",
      "latitude": "-20.20287990",
      "longitude": "-69.28775350"
   },
   {
      "name": "Valparaíso",
      "isoCode": "VS",
      "countryCode": "CL",
      "latitude": "-33.04723800",
      "longitude": "-71.61268850"
   }
]