[
   {
      "name": "'s-Gravenland",
      "countryCode": "NL",
      "stateCode": "ZH",
      "latitude": "51.92336000",
      "longitude": "4.55315000"
   },
   {
      "name": "'s-Gravenzande",
      "countryCode": "NL",
      "stateCode": "ZH",
      "latitude": "52.00167000",
      "longitude": "4.16528000"
   },
   {
      "name": "Adegeest",
      "countryCode": "NL",
      "stateCode": "ZH",
      "latitude": "52.13621000",
      "longitude": "4.45249000"
   },
   {
      "name": "Alblasserdam",
      "countryCode": "NL",
      "stateCode": "ZH",
      "latitude": "51.86583000",
      "longitude": "4.66111000"
   },
   {
      "name": "Alphen aan den Rijn",
      "countryCode": "NL",
      "stateCode": "ZH",
      "latitude": "52.12917000",
      "longitude": "4.65546000"
   },
   {
      "name": "Ammerstol",
      "countryCode": "NL",
      "stateCode": "ZH",
      "latitude": "51.92750000",
      "longitude": "4.80833000"
   },
   {
      "name": "Arkel",
      "countryCode": "NL",
      "stateCode": "ZH",
      "latitude": "51.86417000",
      "longitude": "4.99444000"
   },
   {
      "name": "Barendrecht",
      "countryCode": "NL",
      "stateCode": "ZH",
      "latitude": "51.85667000",
      "longitude": "4.53472000"
   },
   {
      "name": "Benthuizen",
      "countryCode": "NL",
      "stateCode": "ZH",
      "latitude": "52.07750000",
      "longitude": "4.54444000"
   },
   {
      "name": "Bergschenhoek",
      "countryCode": "NL",
      "stateCode": "ZH",
      "latitude": "51.99000000",
      "longitude": "4.49861000"
   },
   {
      "name": "Bergstoep",
      "countryCode": "NL",
      "stateCode": "ZH",
      "latitude": "51.92250000",
      "longitude": "4.78472000"
   },
   {
      "name": "Berkel en Rodenrijs",
      "countryCode": "NL",
      "stateCode": "ZH",
      "latitude": "51.99313000",
      "longitude": "4.47865000"
   },
   {
      "name": "Berkenwoude",
      "countryCode": "NL",
      "stateCode": "ZH",
      "latitude": "51.94500000",
      "longitude": "4.70694000"
   },
   {
      "name": "Binnenhof",
      "countryCode": "NL",
      "stateCode": "ZH",
      "latitude": "52.16418000",
      "longitude": "4.53644000"
   },
   {
      "name": "Bleiswijk",
      "countryCode": "NL",
      "stateCode": "ZH",
      "latitude": "52.01083000",
      "longitude": "4.53194000"
   },
   {
      "name": "Bleskensgraaf",
      "countryCode": "NL",
      "stateCode": "ZH",
      "latitude": "51.87250000",
      "longitude": "4.78333000"
   },
   {
      "name": "Bloemendaal",
      "countryCode": "NL",
      "stateCode": "ZH",
      "latitude": "52.02878000",
      "longitude": "4.69440000"
   },
   {
      "name": "Bloemhof",
      "countryCode": "NL",
      "stateCode": "ZH",
      "latitude": "51.89723000",
      "longitude": "4.49943000"
   },
   {
      "name": "Bodegraven",
      "countryCode": "NL",
      "stateCode": "ZH",
      "latitude": "52.08250000",
      "longitude": "4.75000000"
   },
   {
      "name": "Bodegraven-Reeuwijk",
      "countryCode": "NL",
      "stateCode": "ZH",
      "latitude": "52.06541000",
      "longitude": "4.76634000"
   },
   {
      "name": "Bolnes",
      "countryCode": "NL",
      "stateCode": "ZH",
      "latitude": "51.89500000",
      "longitude": "4.57917000"
   },
   {
      "name": "Boskoop",
      "countryCode": "NL",
      "stateCode": "ZH",
      "latitude": "52.07500000",
      "longitude": "4.65556000"
   },
   {
      "name": "Boven-Hardinxveld",
      "countryCode": "NL",
      "stateCode": "ZH",
      "latitude": "51.82333000",
      "longitude": "4.88194000"
   },
   {
      "name": "Brielle",
      "countryCode": "NL",
      "stateCode": "ZH",
      "latitude": "51.90167000",
      "longitude": "4.16250000"
   },
   {
      "name": "Capelle aan den IJssel",
      "countryCode": "NL",
      "stateCode": "ZH",
      "latitude": "51.92917000",
      "longitude": "4.57778000"
   },
   {
      "name": "Capelle-West",
      "countryCode": "NL",
      "stateCode": "ZH",
      "latitude": "51.91667000",
      "longitude": "4.56667000"
   },
   {
      "name": "Carnisse",
      "countryCode": "NL",
      "stateCode": "ZH",
      "latitude": "51.88932000",
      "longitude": "4.47758000"
   },
   {
      "name": "De Kieviet",
      "countryCode": "NL",
      "stateCode": "ZH",
      "latitude": "52.12333000",
      "longitude": "4.35839000"
   },
   {
      "name": "De Lier",
      "countryCode": "NL",
      "stateCode": "ZH",
      "latitude": "51.97500000",
      "longitude": "4.24861000"
   },
   {
      "name": "De Peulen",
      "countryCode": "NL",
      "stateCode": "ZH",
      "latitude": "51.82362000",
      "longitude": "4.82165000"
   },
   {
      "name": "Delfshaven",
      "countryCode": "NL",
      "stateCode": "ZH",
      "latitude": "51.90488000",
      "longitude": "4.45315000"
   },
   {
      "name": "Delft",
      "countryCode": "NL",
      "stateCode": "ZH",
      "latitude": "52.00667000",
      "longitude": "4.35556000"
   },
   {
      "name": "Dirksland",
      "countryCode": "NL",
      "stateCode": "ZH",
      "latitude": "51.74917000",
      "longitude": "4.10000000"
   },
   {
      "name": "Dordrecht",
      "countryCode": "NL",
      "stateCode": "ZH",
      "latitude": "51.81000000",
      "longitude": "4.67361000"
   },
   {
      "name": "Driebruggen",
      "countryCode": "NL",
      "stateCode": "ZH",
      "latitude": "52.04417000",
      "longitude": "4.80000000"
   },
   {
      "name": "Driemanspolder",
      "countryCode": "NL",
      "stateCode": "ZH",
      "latitude": "52.05176000",
      "longitude": "4.48504000"
   },
   {
      "name": "Duindorp",
      "countryCode": "NL",
      "stateCode": "ZH",
      "latitude": "52.09078000",
      "longitude": "4.26038000"
   },
   {
      "name": "Duinzigt",
      "countryCode": "NL",
      "stateCode": "ZH",
      "latitude": "52.10485000",
      "longitude": "4.32494000"
   },
   {
      "name": "Essesteijn",
      "countryCode": "NL",
      "stateCode": "ZH",
      "latitude": "52.08534000",
      "longitude": "4.37263000"
   },
   {
      "name": "Feijenoord",
      "countryCode": "NL",
      "stateCode": "ZH",
      "latitude": "51.91169000",
      "longitude": "4.50645000"
   },
   {
      "name": "Gemeente Alblasserdam",
      "countryCode": "NL",
      "stateCode": "ZH",
      "latitude": "51.85985000",
      "longitude": "4.66321000"
   },
   {
      "name": "Gemeente Albrandswaard",
      "countryCode": "NL",
      "stateCode": "ZH",
      "latitude": "51.85792000",
      "longitude": "4.40833000"
   },
   {
      "name": "Gemeente Alphen aan den Rijn",
      "countryCode": "NL",
      "stateCode": "ZH",
      "latitude": "52.12974000",
      "longitude": "4.68892000"
   },
   {
      "name": "Gemeente Barendrecht",
      "countryCode": "NL",
      "stateCode": "ZH",
      "latitude": "51.84974000",
      "longitude": "4.52540000"
   },
   {
      "name": "Gemeente Brielle",
      "countryCode": "NL",
      "stateCode": "ZH",
      "latitude": "51.88819000",
      "longitude": "4.18481000"
   },
   {
      "name": "Gemeente Capelle aan den IJssel",
      "countryCode": "NL",
      "stateCode": "ZH",
      "latitude": "51.93567000",
      "longitude": "4.57819000"
   },
   {
      "name": "Gemeente Delft",
      "countryCode": "NL",
      "stateCode": "ZH",
      "latitude": "51.99968000",
      "longitude": "4.36405000"
   },
   {
      "name": "Gemeente Den Haag",
      "countryCode": "NL",
      "stateCode": "ZH",
      "latitude": "52.06866000",
      "longitude": "4.28635000"
   },
   {
      "name": "Gemeente Dordrecht",
      "countryCode": "NL",
      "stateCode": "ZH",
      "latitude": "51.79901000",
      "longitude": "4.74159000"
   },
   {
      "name": "Gemeente Goeree-Overflakkee",
      "countryCode": "NL",
      "stateCode": "ZH",
      "latitude": "51.75351000",
      "longitude": "4.11264000"
   },
   {
      "name": "Gemeente Gorinchem",
      "countryCode": "NL",
      "stateCode": "ZH",
      "latitude": "51.83873000",
      "longitude": "4.97713000"
   },
   {
      "name": "Gemeente Gouda",
      "countryCode": "NL",
      "stateCode": "ZH",
      "latitude": "52.01917000",
      "longitude": "4.70790000"
   },
   {
      "name": "Gemeente Hardinxveld-Giessendam",
      "countryCode": "NL",
      "stateCode": "ZH",
      "latitude": "51.82594000",
      "longitude": "4.86428000"
   },
   {
      "name": "Gemeente Hellevoetsluis",
      "countryCode": "NL",
      "stateCode": "ZH",
      "latitude": "51.83333000",
      "longitude": "4.13333000"
   },
   {
      "name": "Gemeente Hendrik-Ido-Ambacht",
      "countryCode": "NL",
      "stateCode": "ZH",
      "latitude": "51.84273000",
      "longitude": "4.63975000"
   },
   {
      "name": "Gemeente Hillegom",
      "countryCode": "NL",
      "stateCode": "ZH",
      "latitude": "52.29616000",
      "longitude": "4.57822000"
   },
   {
      "name": "Gemeente Kaag en Braassem",
      "countryCode": "NL",
      "stateCode": "ZH",
      "latitude": "52.19393000",
      "longitude": "4.65516000"
   },
   {
      "name": "Gemeente Katwijk",
      "countryCode": "NL",
      "stateCode": "ZH",
      "latitude": "52.19029000",
      "longitude": "4.42129000"
   },
   {
      "name": "Gemeente Krimpen aan den IJssel",
      "countryCode": "NL",
      "stateCode": "ZH",
      "latitude": "51.91458000",
      "longitude": "4.58819000"
   },
   {
      "name": "Gemeente Lansingerland",
      "countryCode": "NL",
      "stateCode": "ZH",
      "latitude": "52.00389000",
      "longitude": "4.51088000"
   },
   {
      "name": "Gemeente Leiden",
      "countryCode": "NL",
      "stateCode": "ZH",
      "latitude": "52.15274000",
      "longitude": "4.48360000"
   },
   {
      "name": "Gemeente Leiderdorp",
      "countryCode": "NL",
      "stateCode": "ZH",
      "latitude": "52.15707000",
      "longitude": "4.54318000"
   },
   {
      "name": "Gemeente Leidschendam-Voorburg",
      "countryCode": "NL",
      "stateCode": "ZH",
      "latitude": "52.07833000",
      "longitude": "4.40139000"
   },
   {
      "name": "Gemeente Lisse",
      "countryCode": "NL",
      "stateCode": "ZH",
      "latitude": "52.25601000",
      "longitude": "4.54526000"
   },
   {
      "name": "Gemeente Maassluis",
      "countryCode": "NL",
      "stateCode": "ZH",
      "latitude": "51.92332000",
      "longitude": "4.24722000"
   },
   {
      "name": "Gemeente Midden-Delfland",
      "countryCode": "NL",
      "stateCode": "ZH",
      "latitude": "51.96528000",
      "longitude": "4.30525000"
   },
   {
      "name": "Gemeente Nieuwkoop",
      "countryCode": "NL",
      "stateCode": "ZH",
      "latitude": "52.17198000",
      "longitude": "4.78006000"
   },
   {
      "name": "Gemeente Noordwijk",
      "countryCode": "NL",
      "stateCode": "ZH",
      "latitude": "52.26953000",
      "longitude": "4.46354000"
   },
   {
      "name": "Gemeente Oegstgeest",
      "countryCode": "NL",
      "stateCode": "ZH",
      "latitude": "52.18256000",
      "longitude": "4.46676000"
   },
   {
      "name": "Gemeente Papendrecht",
      "countryCode": "NL",
      "stateCode": "ZH",
      "latitude": "51.83175000",
      "longitude": "4.69125000"
   },
   {
      "name": "Gemeente Pijnacker-Nootdorp",
      "countryCode": "NL",
      "stateCode": "ZH",
      "latitude": "52.02615000",
      "longitude": "4.41944000"
   },
   {
      "name": "Gemeente Ridderkerk",
      "countryCode": "NL",
      "stateCode": "ZH",
      "latitude": "51.86969000",
      "longitude": "4.59785000"
   },
   {
      "name": "Gemeente Rijswijk",
      "countryCode": "NL",
      "stateCode": "ZH",
      "latitude": "52.03490000",
      "longitude": "4.32785000"
   },
   {
      "name": "Gemeente Rotterdam",
      "countryCode": "NL",
      "stateCode": "ZH",
      "latitude": "51.88246000",
      "longitude": "4.28784000"
   },
   {
      "name": "Gemeente Schiedam",
      "countryCode": "NL",
      "stateCode": "ZH",
      "latitude": "51.92650000",
      "longitude": "4.38675000"
   },
   {
      "name": "Gemeente Sliedrecht",
      "countryCode": "NL",
      "stateCode": "ZH",
      "latitude": "51.82999000",
      "longitude": "4.77191000"
   },
   {
      "name": "Gemeente Teylingen",
      "countryCode": "NL",
      "stateCode": "ZH",
      "latitude": "52.21556000",
      "longitude": "4.50648000"
   },
   {
      "name": "Gemeente Vlaardingen",
      "countryCode": "NL",
      "stateCode": "ZH",
      "latitude": "51.91754000",
      "longitude": "4.32570000"
   },
   {
      "name": "Gemeente Voorschoten",
      "countryCode": "NL",
      "stateCode": "ZH",
      "latitude": "52.12533000",
      "longitude": "4.44014000"
   },
   {
      "name": "Gemeente Waddinxveen",
      "countryCode": "NL",
      "stateCode": "ZH",
      "latitude": "52.04247000",
      "longitude": "4.64486000"
   },
   {
      "name": "Gemeente Wassenaar",
      "countryCode": "NL",
      "stateCode": "ZH",
      "latitude": "52.13791000",
      "longitude": "4.37546000"
   },
   {
      "name": "Gemeente Westland",
      "countryCode": "NL",
      "stateCode": "ZH",
      "latitude": "51.99671000",
      "longitude": "4.22729000"
   },
   {
      "name": "Gemeente Westvoorne",
      "countryCode": "NL",
      "stateCode": "ZH",
      "latitude": "51.89308000",
      "longitude": "4.08922000"
   },
   {
      "name": "Gemeente Zoetermeer",
      "countryCode": "NL",
      "stateCode": "ZH",
      "latitude": "52.05954000",
      "longitude": "4.48832000"
   },
   {
      "name": "Gemeente Zoeterwoude",
      "countryCode": "NL",
      "stateCode": "ZH",
      "latitude": "52.11410000",
      "longitude": "4.51142000"
   },
   {
      "name": "Gemeente Zuidplas",
      "countryCode": "NL",
      "stateCode": "ZH",
      "latitude": "52.01574000",
      "longitude": "4.61048000"
   },
   {
      "name": "Gemeente Zwijndrecht",
      "countryCode": "NL",
      "stateCode": "ZH",
      "latitude": "51.82399000",
      "longitude": "4.61258000"
   },
   {
      "name": "Giessenburg",
      "countryCode": "NL",
      "stateCode": "ZH",
      "latitude": "51.85083000",
      "longitude": "4.89028000"
   },
   {
      "name": "Giessendam",
      "countryCode": "NL",
      "stateCode": "ZH",
      "latitude": "51.83257000",
      "longitude": "4.83583000"
   },
   {
      "name": "Goedereede",
      "countryCode": "NL",
      "stateCode": "ZH",
      "latitude": "51.81750000",
      "longitude": "3.98056000"
   },
   {
      "name": "Gorinchem",
      "countryCode": "NL",
      "stateCode": "ZH",
      "latitude": "51.83652000",
      "longitude": "4.97243000"
   },
   {
      "name": "Gouda",
      "countryCode": "NL",
      "stateCode": "ZH",
      "latitude": "52.01667000",
      "longitude": "4.70833000"
   },
   {
      "name": "Gouderak",
      "countryCode": "NL",
      "stateCode": "ZH",
      "latitude": "51.98417000",
      "longitude": "4.67778000"
   },
   {
      "name": "Goudswaard",
      "countryCode": "NL",
      "stateCode": "ZH",
      "latitude": "51.79417000",
      "longitude": "4.27639000"
   },
   {
      "name": "Gouwsluis",
      "countryCode": "NL",
      "stateCode": "ZH",
      "latitude": "52.11943000",
      "longitude": "4.66899000"
   },
   {
      "name": "Groenswaard",
      "countryCode": "NL",
      "stateCode": "ZH",
      "latitude": "52.05154000",
      "longitude": "4.64541000"
   },
   {
      "name": "Groot IJsselmonde",
      "countryCode": "NL",
      "stateCode": "ZH",
      "latitude": "51.88264000",
      "longitude": "4.54937000"
   },
   {
      "name": "Groot-Ammers",
      "countryCode": "NL",
      "stateCode": "ZH",
      "latitude": "51.92333000",
      "longitude": "4.82361000"
   },
   {
      "name": "Haastrecht",
      "countryCode": "NL",
      "stateCode": "ZH",
      "latitude": "52.00074000",
      "longitude": "4.77639000"
   },
   {
      "name": "Heerjansdam",
      "countryCode": "NL",
      "stateCode": "ZH",
      "latitude": "51.83583000",
      "longitude": "4.56389000"
   },
   {
      "name": "Heijplaat",
      "countryCode": "NL",
      "stateCode": "ZH",
      "latitude": "51.89333000",
      "longitude": "4.42083000"
   },
   {
      "name": "Hellevoetsluis",
      "countryCode": "NL",
      "stateCode": "ZH",
      "latitude": "51.83333000",
      "longitude": "4.13333000"
   },
   {
      "name": "Hendrik-Ido-Ambacht",
      "countryCode": "NL",
      "stateCode": "ZH",
      "latitude": "51.84417000",
      "longitude": "4.63889000"
   },
   {
      "name": "Hillegom",
      "countryCode": "NL",
      "stateCode": "ZH",
      "latitude": "52.29083000",
      "longitude": "4.58333000"
   },
   {
      "name": "Hoek van Holland",
      "countryCode": "NL",
      "stateCode": "ZH",
      "latitude": "51.97750000",
      "longitude": "4.13333000"
   },
   {
      "name": "Hoge Mors",
      "countryCode": "NL",
      "stateCode": "ZH",
      "latitude": "52.15616000",
      "longitude": "4.46025000"
   },
   {
      "name": "Honselersdijk",
      "countryCode": "NL",
      "stateCode": "ZH",
      "latitude": "52.00665000",
      "longitude": "4.22441000"
   },
   {
      "name": "Hoogblokland",
      "countryCode": "NL",
      "stateCode": "ZH",
      "latitude": "51.87500000",
      "longitude": "4.97639000"
   },
   {
      "name": "Hoogmade",
      "countryCode": "NL",
      "stateCode": "ZH",
      "latitude": "52.16917000",
      "longitude": "4.58194000"
   },
   {
      "name": "Katendrecht",
      "countryCode": "NL",
      "stateCode": "ZH",
      "latitude": "51.90074000",
      "longitude": "4.48254000"
   },
   {
      "name": "Katwijk aan Zee",
      "countryCode": "NL",
      "stateCode": "ZH",
      "latitude": "52.20333000",
      "longitude": "4.39861000"
   },
   {
      "name": "Katwijk aan den Rijn",
      "countryCode": "NL",
      "stateCode": "ZH",
      "latitude": "52.19417000",
      "longitude": "4.42222000"
   },
   {
      "name": "Kerkehout",
      "countryCode": "NL",
      "stateCode": "ZH",
      "latitude": "52.11018000",
      "longitude": "4.37957000"
   },
   {
      "name": "Kijkduin",
      "countryCode": "NL",
      "stateCode": "ZH",
      "latitude": "52.06765000",
      "longitude": "4.22188000"
   },
   {
      "name": "Klaaswaal",
      "countryCode": "NL",
      "stateCode": "ZH",
      "latitude": "51.77000000",
      "longitude": "4.44583000"
   },
   {
      "name": "Kop van Zuid",
      "countryCode": "NL",
      "stateCode": "ZH",
      "latitude": "51.90553000",
      "longitude": "4.48706000"
   },
   {
      "name": "Krimpen aan den IJssel",
      "countryCode": "NL",
      "stateCode": "ZH",
      "latitude": "51.91667000",
      "longitude": "4.60278000"
   },
   {
      "name": "Krimpenerwaard",
      "countryCode": "NL",
      "stateCode": "ZH",
      "latitude": "51.98171000",
      "longitude": "4.77828000"
   },
   {
      "name": "Kwintsheul",
      "countryCode": "NL",
      "stateCode": "ZH",
      "latitude": "52.01333000",
      "longitude": "4.25556000"
   },
   {
      "name": "Leiden",
      "countryCode": "NL",
      "stateCode": "ZH",
      "latitude": "52.15833000",
      "longitude": "4.49306000"
   },
   {
      "name": "Leiderdorp",
      "countryCode": "NL",
      "stateCode": "ZH",
      "latitude": "52.15833000",
      "longitude": "4.52917000"
   },
   {
      "name": "Leimuiden",
      "countryCode": "NL",
      "stateCode": "ZH",
      "latitude": "52.22417000",
      "longitude": "4.66944000"
   },
   {
      "name": "Liesveld",
      "countryCode": "NL",
      "stateCode": "ZH",
      "latitude": "51.93250000",
      "longitude": "4.83194000"
   },
   {
      "name": "Lisse",
      "countryCode": "NL",
      "stateCode": "ZH",
      "latitude": "52.26000000",
      "longitude": "4.55694000"
   },
   {
      "name": "Lombardijen",
      "countryCode": "NL",
      "stateCode": "ZH",
      "latitude": "51.87380000",
      "longitude": "4.52192000"
   },
   {
      "name": "Maasdijk",
      "countryCode": "NL",
      "stateCode": "ZH",
      "latitude": "51.95917000",
      "longitude": "4.21389000"
   },
   {
      "name": "Maasland",
      "countryCode": "NL",
      "stateCode": "ZH",
      "latitude": "51.93417000",
      "longitude": "4.27222000"
   },
   {
      "name": "Maassluis",
      "countryCode": "NL",
      "stateCode": "ZH",
      "latitude": "51.92333000",
      "longitude": "4.25000000"
   },
   {
      "name": "Merenwijk",
      "countryCode": "NL",
      "stateCode": "ZH",
      "latitude": "52.17655000",
      "longitude": "4.50885000"
   },
   {
      "name": "Middelharnis",
      "countryCode": "NL",
      "stateCode": "ZH",
      "latitude": "51.75750000",
      "longitude": "4.16528000"
   },
   {
      "name": "Middelsluis",
      "countryCode": "NL",
      "stateCode": "ZH",
      "latitude": "51.74250000",
      "longitude": "4.44167000"
   },
   {
      "name": "Mijnsheerenland",
      "countryCode": "NL",
      "stateCode": "ZH",
      "latitude": "51.79667000",
      "longitude": "4.48750000"
   },
   {
      "name": "Monster",
      "countryCode": "NL",
      "stateCode": "ZH",
      "latitude": "52.02583000",
      "longitude": "4.17500000"
   },
   {
      "name": "Naaldwijk",
      "countryCode": "NL",
      "stateCode": "ZH",
      "latitude": "51.99417000",
      "longitude": "4.20972000"
   },
   {
      "name": "Neder-Hardinxveld",
      "countryCode": "NL",
      "stateCode": "ZH",
      "latitude": "51.82879000",
      "longitude": "4.85489000"
   },
   {
      "name": "Nieuw-Beijerland",
      "countryCode": "NL",
      "stateCode": "ZH",
      "latitude": "51.81250000",
      "longitude": "4.34306000"
   },
   {
      "name": "Nieuw-Lekkerland",
      "countryCode": "NL",
      "stateCode": "ZH",
      "latitude": "51.88915000",
      "longitude": "4.68653000"
   },
   {
      "name": "Nieuwenhoorn",
      "countryCode": "NL",
      "stateCode": "ZH",
      "latitude": "51.85417000",
      "longitude": "4.14306000"
   },
   {
      "name": "Nieuwkoop",
      "countryCode": "NL",
      "stateCode": "ZH",
      "latitude": "52.15083000",
      "longitude": "4.77639000"
   },
   {
      "name": "Nieuwpoort",
      "countryCode": "NL",
      "stateCode": "ZH",
      "latitude": "51.93583000",
      "longitude": "4.86806000"
   },
   {
      "name": "Nieuwveen",
      "countryCode": "NL",
      "stateCode": "ZH",
      "latitude": "52.19667000",
      "longitude": "4.75694000"
   },
   {
      "name": "Nissewaard",
      "countryCode": "NL",
      "stateCode": "ZH",
      "latitude": "51.83716000",
      "longitude": "4.27540000"
   },
   {
      "name": "Noord-Hofland",
      "countryCode": "NL",
      "stateCode": "ZH",
      "latitude": "52.14059000",
      "longitude": "4.45864000"
   },
   {
      "name": "Noordeinde",
      "countryCode": "NL",
      "stateCode": "ZH",
      "latitude": "52.01667000",
      "longitude": "4.48333000"
   },
   {
      "name": "Noordeloos",
      "countryCode": "NL",
      "stateCode": "ZH",
      "latitude": "51.90333000",
      "longitude": "4.94167000"
   },
   {
      "name": "Noordwijk-Binnen",
      "countryCode": "NL",
      "stateCode": "ZH",
      "latitude": "52.23400000",
      "longitude": "4.44474000"
   },
   {
      "name": "Noordwijkerhout",
      "countryCode": "NL",
      "stateCode": "ZH",
      "latitude": "52.26167000",
      "longitude": "4.49306000"
   },
   {
      "name": "Numansdorp",
      "countryCode": "NL",
      "stateCode": "ZH",
      "latitude": "51.73167000",
      "longitude": "4.43750000"
   },
   {
      "name": "Oegstgeest",
      "countryCode": "NL",
      "stateCode": "ZH",
      "latitude": "52.18000000",
      "longitude": "4.46944000"
   },
   {
      "name": "Ommoord",
      "countryCode": "NL",
      "stateCode": "ZH",
      "latitude": "51.95951000",
      "longitude": "4.54533000"
   },
   {
      "name": "Oostdorp",
      "countryCode": "NL",
      "stateCode": "ZH",
      "latitude": "52.14994000",
      "longitude": "4.39319000"
   },
   {
      "name": "Oostvoorne",
      "countryCode": "NL",
      "stateCode": "ZH",
      "latitude": "51.91250000",
      "longitude": "4.09861000"
   },
   {
      "name": "Oranjewijk",
      "countryCode": "NL",
      "stateCode": "ZH",
      "latitude": "52.04922000",
      "longitude": "4.65374000"
   },
   {
      "name": "Oud-Beijerland",
      "countryCode": "NL",
      "stateCode": "ZH",
      "latitude": "51.82417000",
      "longitude": "4.41250000"
   },
   {
      "name": "Ouddorp",
      "countryCode": "NL",
      "stateCode": "ZH",
      "latitude": "51.81167000",
      "longitude": "3.93472000"
   },
   {
      "name": "Oude Wetering",
      "countryCode": "NL",
      "stateCode": "ZH",
      "latitude": "52.21417000",
      "longitude": "4.64444000"
   },
   {
      "name": "Ouderkerk aan den IJssel",
      "countryCode": "NL",
      "stateCode": "ZH",
      "latitude": "51.93417000",
      "longitude": "4.63611000"
   },
   {
      "name": "Overschie",
      "countryCode": "NL",
      "stateCode": "ZH",
      "latitude": "51.93863000",
      "longitude": "4.42766000"
   },
   {
      "name": "Palenstein",
      "countryCode": "NL",
      "stateCode": "ZH",
      "latitude": "52.05579000",
      "longitude": "4.50869000"
   },
   {
      "name": "Papendrecht",
      "countryCode": "NL",
      "stateCode": "ZH",
      "latitude": "51.83167000",
      "longitude": "4.68750000"
   },
   {
      "name": "Papenveer",
      "countryCode": "NL",
      "stateCode": "ZH",
      "latitude": "52.18500000",
      "longitude": "4.72500000"
   },
   {
      "name": "Pendrecht",
      "countryCode": "NL",
      "stateCode": "ZH",
      "latitude": "51.87152000",
      "longitude": "4.46901000"
   },
   {
      "name": "Pernis",
      "countryCode": "NL",
      "stateCode": "ZH",
      "latitude": "51.88833000",
      "longitude": "4.38889000"
   },
   {
      "name": "Piershil",
      "countryCode": "NL",
      "stateCode": "ZH",
      "latitude": "51.79333000",
      "longitude": "4.31389000"
   },
   {
      "name": "Pijnacker",
      "countryCode": "NL",
      "stateCode": "ZH",
      "latitude": "52.01954000",
      "longitude": "4.42946000"
   },
   {
      "name": "Poeldijk",
      "countryCode": "NL",
      "stateCode": "ZH",
      "latitude": "52.02417000",
      "longitude": "4.21944000"
   },
   {
      "name": "Reeuwijk",
      "countryCode": "NL",
      "stateCode": "ZH",
      "latitude": "52.04667000",
      "longitude": "4.72500000"
   },
   {
      "name": "Rhoon",
      "countryCode": "NL",
      "stateCode": "ZH",
      "latitude": "51.85750000",
      "longitude": "4.42222000"
   },
   {
      "name": "Ridderkerk",
      "countryCode": "NL",
      "stateCode": "ZH",
      "latitude": "51.87250000",
      "longitude": "4.60278000"
   },
   {
      "name": "Rijnsaterwoude",
      "countryCode": "NL",
      "stateCode": "ZH",
      "latitude": "52.19583000",
      "longitude": "4.67083000"
   },
   {
      "name": "Rijnsburg",
      "countryCode": "NL",
      "stateCode": "ZH",
      "latitude": "52.19000000",
      "longitude": "4.44167000"
   },
   {
      "name": "Rijpwetering",
      "countryCode": "NL",
      "stateCode": "ZH",
      "latitude": "52.19250000",
      "longitude": "4.58333000"
   },
   {
      "name": "Rijsoord",
      "countryCode": "NL",
      "stateCode": "ZH",
      "latitude": "51.85083000",
      "longitude": "4.59583000"
   },
   {
      "name": "Rijswijk",
      "countryCode": "NL",
      "stateCode": "ZH",
      "latitude": "52.03634000",
      "longitude": "4.32501000"
   },
   {
      "name": "Rockanje",
      "countryCode": "NL",
      "stateCode": "ZH",
      "latitude": "51.87167000",
      "longitude": "4.07083000"
   },
   {
      "name": "Roelofarendsveen",
      "countryCode": "NL",
      "stateCode": "ZH",
      "latitude": "52.20333000",
      "longitude": "4.63333000"
   },
   {
      "name": "Rotterdam",
      "countryCode": "NL",
      "stateCode": "ZH",
      "latitude": "51.92250000",
      "longitude": "4.47917000"
   },
   {
      "name": "Rozenburg",
      "countryCode": "NL",
      "stateCode": "ZH",
      "latitude": "51.90417000",
      "longitude": "4.24861000"
   },
   {
      "name": "Rugge",
      "countryCode": "NL",
      "stateCode": "ZH",
      "latitude": "51.89921000",
      "longitude": "4.15231000"
   },
   {
      "name": "Sassenheim",
      "countryCode": "NL",
      "stateCode": "ZH",
      "latitude": "52.22500000",
      "longitude": "4.52222000"
   },
   {
      "name": "Schelluinen",
      "countryCode": "NL",
      "stateCode": "ZH",
      "latitude": "51.84333000",
      "longitude": "4.92639000"
   },
   {
      "name": "Scheveningen",
      "countryCode": "NL",
      "stateCode": "ZH",
      "latitude": "52.10461000",
      "longitude": "4.27557000"
   },
   {
      "name": "Schiebroek",
      "countryCode": "NL",
      "stateCode": "ZH",
      "latitude": "51.95838000",
      "longitude": "4.47124000"
   },
   {
      "name": "Schiedam",
      "countryCode": "NL",
      "stateCode": "ZH",
      "latitude": "51.91917000",
      "longitude": "4.38889000"
   },
   {
      "name": "Schipluiden",
      "countryCode": "NL",
      "stateCode": "ZH",
      "latitude": "51.97583000",
      "longitude": "4.31389000"
   },
   {
      "name": "Schoonhoven",
      "countryCode": "NL",
      "stateCode": "ZH",
      "latitude": "51.94750000",
      "longitude": "4.84861000"
   },
   {
      "name": "Sliedrecht",
      "countryCode": "NL",
      "stateCode": "ZH",
      "latitude": "51.82083000",
      "longitude": "4.77639000"
   },
   {
      "name": "Slikkerveer",
      "countryCode": "NL",
      "stateCode": "ZH",
      "latitude": "51.88531000",
      "longitude": "4.60494000"
   },
   {
      "name": "Spangen",
      "countryCode": "NL",
      "stateCode": "ZH",
      "latitude": "51.91688000",
      "longitude": "4.43539000"
   },
   {
      "name": "Spijkenisse",
      "countryCode": "NL",
      "stateCode": "ZH",
      "latitude": "51.84500000",
      "longitude": "4.32917000"
   },
   {
      "name": "Spoorwijk",
      "countryCode": "NL",
      "stateCode": "ZH",
      "latitude": "52.05347000",
      "longitude": "4.31339000"
   },
   {
      "name": "Statenkwartier",
      "countryCode": "NL",
      "stateCode": "ZH",
      "latitude": "52.09311000",
      "longitude": "4.27577000"
   },
   {
      "name": "Stein",
      "countryCode": "NL",
      "stateCode": "ZH",
      "latitude": "52.00333000",
      "longitude": "4.78194000"
   },
   {
      "name": "Stolwijk",
      "countryCode": "NL",
      "stateCode": "ZH",
      "latitude": "51.97250000",
      "longitude": "4.77361000"
   },
   {
      "name": "Strijen",
      "countryCode": "NL",
      "stateCode": "ZH",
      "latitude": "51.74521000",
      "longitude": "4.55083000"
   },
   {
      "name": "Strijp",
      "countryCode": "NL",
      "stateCode": "ZH",
      "latitude": "52.03083000",
      "longitude": "4.30139000"
   },
   {
      "name": "Terbregge",
      "countryCode": "NL",
      "stateCode": "ZH",
      "latitude": "51.95328000",
      "longitude": "4.51537000"
   },
   {
      "name": "The Hague",
      "countryCode": "NL",
      "stateCode": "ZH",
      "latitude": "52.07667000",
      "longitude": "4.29861000"
   },
   {
      "name": "Tuindorp",
      "countryCode": "NL",
      "stateCode": "ZH",
      "latitude": "51.93032000",
      "longitude": "4.37840000"
   },
   {
      "name": "Valkenburg",
      "countryCode": "NL",
      "stateCode": "ZH",
      "latitude": "52.18000000",
      "longitude": "4.43194000"
   },
   {
      "name": "Vierpolders",
      "countryCode": "NL",
      "stateCode": "ZH",
      "latitude": "51.87917000",
      "longitude": "4.17917000"
   },
   {
      "name": "Vlaardingen",
      "countryCode": "NL",
      "stateCode": "ZH",
      "latitude": "51.91250000",
      "longitude": "4.34167000"
   },
   {
      "name": "Vlietwijk",
      "countryCode": "NL",
      "stateCode": "ZH",
      "latitude": "52.12436000",
      "longitude": "4.45736000"
   },
   {
      "name": "Vogelwijk",
      "countryCode": "NL",
      "stateCode": "ZH",
      "latitude": "52.07631000",
      "longitude": "4.24790000"
   },
   {
      "name": "Vondelwijk",
      "countryCode": "NL",
      "stateCode": "ZH",
      "latitude": "52.05497000",
      "longitude": "4.65314000"
   },
   {
      "name": "Voorburg",
      "countryCode": "NL",
      "stateCode": "ZH",
      "latitude": "52.07417000",
      "longitude": "4.35972000"
   },
   {
      "name": "Voorhout",
      "countryCode": "NL",
      "stateCode": "ZH",
      "latitude": "52.22167000",
      "longitude": "4.48472000"
   },
   {
      "name": "Voorschoten",
      "countryCode": "NL",
      "stateCode": "ZH",
      "latitude": "52.12750000",
      "longitude": "4.44861000"
   },
   {
      "name": "Vreewijk",
      "countryCode": "NL",
      "stateCode": "ZH",
      "latitude": "51.88428000",
      "longitude": "4.51967000"
   },
   {
      "name": "Waarder",
      "countryCode": "NL",
      "stateCode": "ZH",
      "latitude": "52.06083000",
      "longitude": "4.82083000"
   },
   {
      "name": "Waddinxveen",
      "countryCode": "NL",
      "stateCode": "ZH",
      "latitude": "52.04500000",
      "longitude": "4.65139000"
   },
   {
      "name": "Warmond",
      "countryCode": "NL",
      "stateCode": "ZH",
      "latitude": "52.19667000",
      "longitude": "4.50278000"
   },
   {
      "name": "Wassenaar",
      "countryCode": "NL",
      "stateCode": "ZH",
      "latitude": "52.14583000",
      "longitude": "4.40278000"
   },
   {
      "name": "Weerestein",
      "countryCode": "NL",
      "stateCode": "ZH",
      "latitude": "52.30381000",
      "longitude": "4.58861000"
   },
   {
      "name": "Weijpoort",
      "countryCode": "NL",
      "stateCode": "ZH",
      "latitude": "52.08167000",
      "longitude": "4.80278000"
   },
   {
      "name": "Westmaas",
      "countryCode": "NL",
      "stateCode": "ZH",
      "latitude": "51.78667000",
      "longitude": "4.47500000"
   },
   {
      "name": "Woubrugge",
      "countryCode": "NL",
      "stateCode": "ZH",
      "latitude": "52.17000000",
      "longitude": "4.63611000"
   },
   {
      "name": "Ypenburg",
      "countryCode": "NL",
      "stateCode": "ZH",
      "latitude": "52.04098000",
      "longitude": "4.36981000"
   },
   {
      "name": "Zevenhoven",
      "countryCode": "NL",
      "stateCode": "ZH",
      "latitude": "52.18167000",
      "longitude": "4.77917000"
   },
   {
      "name": "Zoetermeer",
      "countryCode": "NL",
      "stateCode": "ZH",
      "latitude": "52.05750000",
      "longitude": "4.49306000"
   },
   {
      "name": "Zoeterwoude-Dorp",
      "countryCode": "NL",
      "stateCode": "ZH",
      "latitude": "52.12000000",
      "longitude": "4.49583000"
   },
   {
      "name": "Zuid-Beijerland",
      "countryCode": "NL",
      "stateCode": "ZH",
      "latitude": "51.75083000",
      "longitude": "4.36806000"
   },
   {
      "name": "Zuidwijk",
      "countryCode": "NL",
      "stateCode": "ZH",
      "latitude": "51.87532000",
      "longitude": "4.48514000"
   },
   {
      "name": "Zwijndrecht",
      "countryCode": "NL",
      "stateCode": "ZH",
      "latitude": "51.81750000",
      "longitude": "4.63333000"
   }
]