[
   {
      "name": "Annobón Province",
      "isoCode": "AN",
      "countryCode": "GQ",
      "latitude": "-1.42687820",
      "longitude": "5.63528010"
   },
   {
      "name": "Bioko Norte Province",
      "isoCode": "BN",
      "countryCode": "GQ",
      "latitude": "3.65950720",
      "longitude": "8.79218360"
   },
   {
      "name": "Bioko Sur Province",
      "isoCode": "BS",
      "countryCode": "GQ",
      "latitude": "3.42097850",
      "longitude": "8.61606740"
   },
   {
      "name": "Río Muni",
      "isoCode": "C",
      "countryCode": "GQ",
      "latitude": "1.46106060",
      "longitude": "9.67868940"
   },
   {
      "name": "Centro Sur Province",
      "isoCode": "CS",
      "countryCode": "GQ",
      "latitude": "1.34360840",
      "longitude": "10.43965600"
   },
   {
      "name": "Insular Region",
      "isoCode": "I",
      "countryCode": "GQ",
      "latitude": "37.09024000",
      "longitude": "-95.71289100"
   },
   {
      "name": "Kié-Ntem Province",
      "isoCode": "KN",
      "countryCode": "GQ",
      "latitude": "2.02809300",
      "longitude": "11.07117580"
   },
   {
      "name": "Litoral Province",
      "isoCode": "LI",
      "countryCode": "GQ",
      "latitude": "1.57502440",
      "longitude": "9.81249350"
   },
   {
      "name": "Wele-Nzas Province",
      "isoCode": "WN",
      "countryCode": "GQ",
      "latitude": "1.41661620",
      "longitude": "11.07117580"
   }
]