[
   {
      "name": "Goléré",
      "countryCode": "SN",
      "stateCode": "SL",
      "latitude": "16.25575000",
      "longitude": "-14.10165000"
   },
   {
      "name": "Ndioum",
      "countryCode": "SN",
      "stateCode": "SL",
      "latitude": "16.51293000",
      "longitude": "-14.64706000"
   },
   {
      "name": "Polel Diaoubé",
      "countryCode": "SN",
      "stateCode": "SL",
      "latitude": "15.26667000",
      "longitude": "-13.00000000"
   },
   {
      "name": "Richard-Toll",
      "countryCode": "SN",
      "stateCode": "SL",
      "latitude": "16.46250000",
      "longitude": "-15.70083000"
   },
   {
      "name": "Rosso",
      "countryCode": "SN",
      "stateCode": "SL",
      "latitude": "16.42028000",
      "longitude": "-15.79834000"
   },
   {
      "name": "Saint-Louis",
      "countryCode": "SN",
      "stateCode": "SL",
      "latitude": "16.01793000",
      "longitude": "-16.48962000"
   }
]