[
   {
      "name": "Isaka",
      "countryCode": "TZ",
      "stateCode": "22",
      "latitude": "-3.90000000",
      "longitude": "32.93333000"
   },
   {
      "name": "Kahama",
      "countryCode": "TZ",
      "stateCode": "22",
      "latitude": "-3.83333000",
      "longitude": "32.60000000"
   },
   {
      "name": "Kishapu",
      "countryCode": "TZ",
      "stateCode": "22",
      "latitude": "-3.61667000",
      "longitude": "33.86667000"
   },
   {
      "name": "Mhango",
      "countryCode": "TZ",
      "stateCode": "22",
      "latitude": "-3.28333000",
      "longitude": "32.85000000"
   },
   {
      "name": "Mwadui",
      "countryCode": "TZ",
      "stateCode": "22",
      "latitude": "-3.55000000",
      "longitude": "33.60000000"
   },
   {
      "name": "Old Shinyanga",
      "countryCode": "TZ",
      "stateCode": "22",
      "latitude": "-3.55000000",
      "longitude": "33.40000000"
   },
   {
      "name": "Shinyanga",
      "countryCode": "TZ",
      "stateCode": "22",
      "latitude": "-3.66393000",
      "longitude": "33.42118000"
   },
   {
      "name": "Songwa",
      "countryCode": "TZ",
      "stateCode": "22",
      "latitude": "-3.51667000",
      "longitude": "33.51667000"
   },
   {
      "name": "Tinde",
      "countryCode": "TZ",
      "stateCode": "22",
      "latitude": "-3.88333000",
      "longitude": "33.20000000"
   }
]