[
   {
      "name": "Chŏngju",
      "countryCode": "KP",
      "stateCode": "03",
      "latitude": "39.69333000",
      "longitude": "125.21028000"
   },
   {
      "name": "Chŏngju-gun",
      "countryCode": "KP",
      "stateCode": "03",
      "latitude": "39.70944000",
      "longitude": "125.25278000"
   },
   {
      "name": "Kujang-ŭp",
      "countryCode": "KP",
      "stateCode": "03",
      "latitude": "39.86722000",
      "longitude": "126.03028000"
   },
   {
      "name": "Kusŏng",
      "countryCode": "KP",
      "stateCode": "03",
      "latitude": "39.98111000",
      "longitude": "125.24472000"
   },
   {
      "name": "Kwaksan",
      "countryCode": "KP",
      "stateCode": "03",
      "latitude": "39.68750000",
      "longitude": "125.08278000"
   },
   {
      "name": "Panghyŏn-dong",
      "countryCode": "KP",
      "stateCode": "03",
      "latitude": "39.88722000",
      "longitude": "125.24139000"
   },
   {
      "name": "Pukchil-lodongjagu",
      "countryCode": "KP",
      "stateCode": "03",
      "latitude": "40.20194000",
      "longitude": "125.74833000"
   },
   {
      "name": "Sakchu-ŭp",
      "countryCode": "KP",
      "stateCode": "03",
      "latitude": "40.38944000",
      "longitude": "125.04667000"
   },
   {
      "name": "Sinŭiju",
      "countryCode": "KP",
      "stateCode": "03",
      "latitude": "40.10056000",
      "longitude": "124.39806000"
   },
   {
      "name": "Yŏmju-ŭp",
      "countryCode": "KP",
      "stateCode": "03",
      "latitude": "39.89333000",
      "longitude": "124.59806000"
   },
   {
      "name": "Yŏngbyŏn",
      "countryCode": "KP",
      "stateCode": "03",
      "latitude": "39.81333000",
      "longitude": "125.80417000"
   },
   {
      "name": "Ŭiju",
      "countryCode": "KP",
      "stateCode": "03",
      "latitude": "40.19944000",
      "longitude": "124.53167000"
   }
]