[
   {
      "name": "Acevedo",
      "countryCode": "CO",
      "stateCode": "HUI",
      "latitude": "1.83611111",
      "longitude": "-75.85500000"
   },
   {
      "name": "Aipe",
      "countryCode": "CO",
      "stateCode": "HUI",
      "latitude": "3.22194444",
      "longitude": "-75.23750000"
   },
   {
      "name": "Algeciras",
      "countryCode": "CO",
      "stateCode": "HUI",
      "latitude": "2.52194444",
      "longitude": "-75.31444444"
   },
   {
      "name": "Altamira",
      "countryCode": "CO",
      "stateCode": "HUI",
      "latitude": "2.06333333",
      "longitude": "-75.78777778"
   },
   {
      "name": "Baraya",
      "countryCode": "CO",
      "stateCode": "HUI",
      "latitude": "3.15305556",
      "longitude": "-75.05250000"
   },
   {
      "name": "Campoalegre",
      "countryCode": "CO",
      "stateCode": "HUI",
      "latitude": "2.68666667",
      "longitude": "-75.32555556"
   },
   {
      "name": "Colombia",
      "countryCode": "CO",
      "stateCode": "HUI",
      "latitude": "3.37500000",
      "longitude": "-74.80194444"
   },
   {
      "name": "El Agrado",
      "countryCode": "CO",
      "stateCode": "HUI",
      "latitude": "2.25833056",
      "longitude": "-75.77250000"
   },
   {
      "name": "Elias",
      "countryCode": "CO",
      "stateCode": "HUI",
      "latitude": "2.01361111",
      "longitude": "-75.93972222"
   },
   {
      "name": "Garzón",
      "countryCode": "CO",
      "stateCode": "HUI",
      "latitude": "2.19611111",
      "longitude": "-75.62916667"
   },
   {
      "name": "Gigante",
      "countryCode": "CO",
      "stateCode": "HUI",
      "latitude": "2.38666944",
      "longitude": "-75.54610000"
   },
   {
      "name": "Guadalupe",
      "countryCode": "CO",
      "stateCode": "HUI",
      "latitude": "2.02500000",
      "longitude": "-75.75638889"
   },
   {
      "name": "Hobo",
      "countryCode": "CO",
      "stateCode": "HUI",
      "latitude": "2.58250000",
      "longitude": "-75.45111111"
   },
   {
      "name": "Iquira",
      "countryCode": "CO",
      "stateCode": "HUI",
      "latitude": "2.64833333",
      "longitude": "-75.63638889"
   },
   {
      "name": "Isnos",
      "countryCode": "CO",
      "stateCode": "HUI",
      "latitude": "1.92888889",
      "longitude": "-76.21583333"
   },
   {
      "name": "La Argentina",
      "countryCode": "CO",
      "stateCode": "HUI",
      "latitude": "2.19755555",
      "longitude": "-75.98888888"
   },
   {
      "name": "La Plata",
      "countryCode": "CO",
      "stateCode": "HUI",
      "latitude": "2.39000000",
      "longitude": "-75.89194444"
   },
   {
      "name": "Nataga",
      "countryCode": "CO",
      "stateCode": "HUI",
      "latitude": "2.54388889",
      "longitude": "-75.80861111"
   },
   {
      "name": "Neiva",
      "countryCode": "CO",
      "stateCode": "HUI",
      "latitude": "2.92750000",
      "longitude": "-75.28750000"
   },
   {
      "name": "Oporapa",
      "countryCode": "CO",
      "stateCode": "HUI",
      "latitude": "2.02305556",
      "longitude": "-75.99527778"
   },
   {
      "name": "Paicol",
      "countryCode": "CO",
      "stateCode": "HUI",
      "latitude": "2.44972222",
      "longitude": "-75.77388889"
   },
   {
      "name": "Palermo",
      "countryCode": "CO",
      "stateCode": "HUI",
      "latitude": "2.88833333",
      "longitude": "-75.43388889"
   },
   {
      "name": "Palestina",
      "countryCode": "CO",
      "stateCode": "HUI",
      "latitude": "1.72250000",
      "longitude": "-76.13055556"
   },
   {
      "name": "Pital",
      "countryCode": "CO",
      "stateCode": "HUI",
      "latitude": "2.26638889",
      "longitude": "-75.80444444"
   },
   {
      "name": "Pitalito",
      "countryCode": "CO",
      "stateCode": "HUI",
      "latitude": "1.85388889",
      "longitude": "-76.05138889"
   },
   {
      "name": "Rivera",
      "countryCode": "CO",
      "stateCode": "HUI",
      "latitude": "2.77722222",
      "longitude": "-75.25638889"
   },
   {
      "name": "Saladoblanco",
      "countryCode": "CO",
      "stateCode": "HUI",
      "latitude": "1.99333333",
      "longitude": "-76.04527778"
   },
   {
      "name": "San Agustín",
      "countryCode": "CO",
      "stateCode": "HUI",
      "latitude": "1.87916667",
      "longitude": "-76.26833333"
   },
   {
      "name": "Santa María",
      "countryCode": "CO",
      "stateCode": "HUI",
      "latitude": "2.93777778",
      "longitude": "-75.58694444"
   },
   {
      "name": "Suaza",
      "countryCode": "CO",
      "stateCode": "HUI",
      "latitude": "1.97500000",
      "longitude": "-75.79555556"
   },
   {
      "name": "Tarqui",
      "countryCode": "CO",
      "stateCode": "HUI",
      "latitude": "2.11055556",
      "longitude": "-75.82305556"
   },
   {
      "name": "Tello",
      "countryCode": "CO",
      "stateCode": "HUI",
      "latitude": "3.06666667",
      "longitude": "-75.13861111"
   },
   {
      "name": "Teruel",
      "countryCode": "CO",
      "stateCode": "HUI",
      "latitude": "2.74055556",
      "longitude": "-75.56833333"
   },
   {
      "name": "Tesalia",
      "countryCode": "CO",
      "stateCode": "HUI",
      "latitude": "2.48472222",
      "longitude": "-75.73000000"
   },
   {
      "name": "Timana",
      "countryCode": "CO",
      "stateCode": "HUI",
      "latitude": "1.97136000",
      "longitude": "-75.93123000"
   },
   {
      "name": "Villavieja",
      "countryCode": "CO",
      "stateCode": "HUI",
      "latitude": "3.21888889",
      "longitude": "-75.21833333"
   },
   {
      "name": "Yaguará",
      "countryCode": "CO",
      "stateCode": "HUI",
      "latitude": "2.66361111",
      "longitude": "-75.51750000"
   }
]