[
   {
      "name": "Djebilet Rosfa",
      "countryCode": "DZ",
      "stateCode": "14",
      "latitude": "34.86375000",
      "longitude": "0.83496000"
   },
   {
      "name": "Frenda",
      "countryCode": "DZ",
      "stateCode": "14",
      "latitude": "35.06544000",
      "longitude": "1.04945000"
   },
   {
      "name": "Ksar Chellala",
      "countryCode": "DZ",
      "stateCode": "14",
      "latitude": "35.21222000",
      "longitude": "2.31889000"
   },
   {
      "name": "Mehdia daira de meghila",
      "countryCode": "DZ",
      "stateCode": "14",
      "latitude": "35.43058000",
      "longitude": "1.75714000"
   },
   {
      "name": "Sougueur",
      "countryCode": "DZ",
      "stateCode": "14",
      "latitude": "35.18568000",
      "longitude": "1.49612000"
   },
   {
      "name": "Tiaret",
      "countryCode": "DZ",
      "stateCode": "14",
      "latitude": "35.37103000",
      "longitude": "1.31699000"
   },
   {
      "name": "’Aïn Deheb",
      "countryCode": "DZ",
      "stateCode": "14",
      "latitude": "34.84218000",
      "longitude": "1.54697000"
   }
]