[
   {
      "name": "Ardon",
      "countryCode": "CH",
      "stateCode": "VS",
      "latitude": "46.20951000",
      "longitude": "7.26012000"
   },
   {
      "name": "Ayent",
      "countryCode": "CH",
      "stateCode": "VS",
      "latitude": "46.28249000",
      "longitude": "7.41028000"
   },
   {
      "name": "Bagnes",
      "countryCode": "CH",
      "stateCode": "VS",
      "latitude": "46.08333000",
      "longitude": "7.21667000"
   },
   {
      "name": "Baltschieder",
      "countryCode": "CH",
      "stateCode": "VS",
      "latitude": "46.30888000",
      "longitude": "7.86570000"
   },
   {
      "name": "Basse-Nendaz",
      "countryCode": "CH",
      "stateCode": "VS",
      "latitude": "46.18993000",
      "longitude": "7.31209000"
   },
   {
      "name": "Brig",
      "countryCode": "CH",
      "stateCode": "VS",
      "latitude": "46.31667000",
      "longitude": "7.98333000"
   },
   {
      "name": "Brig District",
      "countryCode": "CH",
      "stateCode": "VS",
      "latitude": "46.28255000",
      "longitude": "8.01185000"
   },
   {
      "name": "Chalais",
      "countryCode": "CH",
      "stateCode": "VS",
      "latitude": "46.26758000",
      "longitude": "7.51145000"
   },
   {
      "name": "Chamoson",
      "countryCode": "CH",
      "stateCode": "VS",
      "latitude": "46.20275000",
      "longitude": "7.22319000"
   },
   {
      "name": "Champéry",
      "countryCode": "CH",
      "stateCode": "VS",
      "latitude": "46.17543000",
      "longitude": "6.86903000"
   },
   {
      "name": "Charrat",
      "countryCode": "CH",
      "stateCode": "VS",
      "latitude": "46.12490000",
      "longitude": "7.13138000"
   },
   {
      "name": "Chermignon-d’en Haut",
      "countryCode": "CH",
      "stateCode": "VS",
      "latitude": "46.28844000",
      "longitude": "7.47487000"
   },
   {
      "name": "Chippis",
      "countryCode": "CH",
      "stateCode": "VS",
      "latitude": "46.28020000",
      "longitude": "7.53962000"
   },
   {
      "name": "Collombey",
      "countryCode": "CH",
      "stateCode": "VS",
      "latitude": "46.27385000",
      "longitude": "6.94789000"
   },
   {
      "name": "Conthey",
      "countryCode": "CH",
      "stateCode": "VS",
      "latitude": "46.22370000",
      "longitude": "7.30283000"
   },
   {
      "name": "Conthey District",
      "countryCode": "CH",
      "stateCode": "VS",
      "latitude": "46.20485000",
      "longitude": "7.27857000"
   },
   {
      "name": "Entremont District",
      "countryCode": "CH",
      "stateCode": "VS",
      "latitude": "46.02099000",
      "longitude": "7.21260000"
   },
   {
      "name": "Evionnaz",
      "countryCode": "CH",
      "stateCode": "VS",
      "latitude": "46.18096000",
      "longitude": "7.02232000"
   },
   {
      "name": "Evolène",
      "countryCode": "CH",
      "stateCode": "VS",
      "latitude": "46.11422000",
      "longitude": "7.49407000"
   },
   {
      "name": "Fiesch",
      "countryCode": "CH",
      "stateCode": "VS",
      "latitude": "46.39981000",
      "longitude": "8.13533000"
   },
   {
      "name": "Fully",
      "countryCode": "CH",
      "stateCode": "VS",
      "latitude": "46.13851000",
      "longitude": "7.11468000"
   },
   {
      "name": "Gampel",
      "countryCode": "CH",
      "stateCode": "VS",
      "latitude": "46.31599000",
      "longitude": "7.74210000"
   },
   {
      "name": "Goms District",
      "countryCode": "CH",
      "stateCode": "VS",
      "latitude": "46.46161000",
      "longitude": "8.22190000"
   },
   {
      "name": "Grimisuat",
      "countryCode": "CH",
      "stateCode": "VS",
      "latitude": "46.25938000",
      "longitude": "7.38408000"
   },
   {
      "name": "Grächen",
      "countryCode": "CH",
      "stateCode": "VS",
      "latitude": "46.19529000",
      "longitude": "7.83745000"
   },
   {
      "name": "Grône",
      "countryCode": "CH",
      "stateCode": "VS",
      "latitude": "46.25288000",
      "longitude": "7.45947000"
   },
   {
      "name": "Hérens District",
      "countryCode": "CH",
      "stateCode": "VS",
      "latitude": "46.19407000",
      "longitude": "7.42391000"
   },
   {
      "name": "Hérémence",
      "countryCode": "CH",
      "stateCode": "VS",
      "latitude": "46.18032000",
      "longitude": "7.40477000"
   },
   {
      "name": "Lens",
      "countryCode": "CH",
      "stateCode": "VS",
      "latitude": "46.28298000",
      "longitude": "7.44976000"
   },
   {
      "name": "Leuk",
      "countryCode": "CH",
      "stateCode": "VS",
      "latitude": "46.31736000",
      "longitude": "7.63412000"
   },
   {
      "name": "Leuk District",
      "countryCode": "CH",
      "stateCode": "VS",
      "latitude": "46.31439000",
      "longitude": "7.67291000"
   },
   {
      "name": "Leukerbad",
      "countryCode": "CH",
      "stateCode": "VS",
      "latitude": "46.37943000",
      "longitude": "7.62687000"
   },
   {
      "name": "Leytron",
      "countryCode": "CH",
      "stateCode": "VS",
      "latitude": "46.18660000",
      "longitude": "7.20780000"
   },
   {
      "name": "Martigny District",
      "countryCode": "CH",
      "stateCode": "VS",
      "latitude": "46.12386000",
      "longitude": "7.10354000"
   },
   {
      "name": "Martigny-Combe",
      "countryCode": "CH",
      "stateCode": "VS",
      "latitude": "46.07817000",
      "longitude": "7.05099000"
   },
   {
      "name": "Martigny-Ville",
      "countryCode": "CH",
      "stateCode": "VS",
      "latitude": "46.10276000",
      "longitude": "7.07245000"
   },
   {
      "name": "Montana",
      "countryCode": "CH",
      "stateCode": "VS",
      "latitude": "46.31338000",
      "longitude": "7.48839000"
   },
   {
      "name": "Monthey",
      "countryCode": "CH",
      "stateCode": "VS",
      "latitude": "46.25451000",
      "longitude": "6.95406000"
   },
   {
      "name": "Monthey District",
      "countryCode": "CH",
      "stateCode": "VS",
      "latitude": "46.27043000",
      "longitude": "6.90274000"
   },
   {
      "name": "Naters",
      "countryCode": "CH",
      "stateCode": "VS",
      "latitude": "46.32536000",
      "longitude": "7.98912000"
   },
   {
      "name": "Orsières",
      "countryCode": "CH",
      "stateCode": "VS",
      "latitude": "46.02903000",
      "longitude": "7.14437000"
   },
   {
      "name": "Randogne",
      "countryCode": "CH",
      "stateCode": "VS",
      "latitude": "46.30952000",
      "longitude": "7.50058000"
   },
   {
      "name": "Raron",
      "countryCode": "CH",
      "stateCode": "VS",
      "latitude": "46.31196000",
      "longitude": "7.80029000"
   },
   {
      "name": "Raron District",
      "countryCode": "CH",
      "stateCode": "VS",
      "latitude": "46.30000000",
      "longitude": "7.80000000"
   },
   {
      "name": "Riddes",
      "countryCode": "CH",
      "stateCode": "VS",
      "latitude": "46.17276000",
      "longitude": "7.22360000"
   },
   {
      "name": "Saas-Fee",
      "countryCode": "CH",
      "stateCode": "VS",
      "latitude": "46.10805000",
      "longitude": "7.92741000"
   },
   {
      "name": "Saas-Grund",
      "countryCode": "CH",
      "stateCode": "VS",
      "latitude": "46.12281000",
      "longitude": "7.93651000"
   },
   {
      "name": "Saillon",
      "countryCode": "CH",
      "stateCode": "VS",
      "latitude": "46.17035000",
      "longitude": "7.18771000"
   },
   {
      "name": "Saint-Léonard",
      "countryCode": "CH",
      "stateCode": "VS",
      "latitude": "46.25152000",
      "longitude": "7.41714000"
   },
   {
      "name": "Saint-Maurice",
      "countryCode": "CH",
      "stateCode": "VS",
      "latitude": "46.21826000",
      "longitude": "7.00320000"
   },
   {
      "name": "Saint-Maurice District",
      "countryCode": "CH",
      "stateCode": "VS",
      "latitude": "46.15384000",
      "longitude": "6.99823000"
   },
   {
      "name": "Salgesch",
      "countryCode": "CH",
      "stateCode": "VS",
      "latitude": "46.31155000",
      "longitude": "7.57120000"
   },
   {
      "name": "Salvan",
      "countryCode": "CH",
      "stateCode": "VS",
      "latitude": "46.11890000",
      "longitude": "7.02078000"
   },
   {
      "name": "Sankt Niklaus",
      "countryCode": "CH",
      "stateCode": "VS",
      "latitude": "46.17717000",
      "longitude": "7.80349000"
   },
   {
      "name": "Savièse",
      "countryCode": "CH",
      "stateCode": "VS",
      "latitude": "46.25115000",
      "longitude": "7.34558000"
   },
   {
      "name": "Saxon",
      "countryCode": "CH",
      "stateCode": "VS",
      "latitude": "46.14937000",
      "longitude": "7.17514000"
   },
   {
      "name": "Sierre",
      "countryCode": "CH",
      "stateCode": "VS",
      "latitude": "46.29192000",
      "longitude": "7.53559000"
   },
   {
      "name": "Sierre District",
      "countryCode": "CH",
      "stateCode": "VS",
      "latitude": "46.27052000",
      "longitude": "7.51570000"
   },
   {
      "name": "Sion District",
      "countryCode": "CH",
      "stateCode": "VS",
      "latitude": "46.23343000",
      "longitude": "7.34939000"
   },
   {
      "name": "Sitten",
      "countryCode": "CH",
      "stateCode": "VS",
      "latitude": "46.22739000",
      "longitude": "7.35559000"
   },
   {
      "name": "Stalden",
      "countryCode": "CH",
      "stateCode": "VS",
      "latitude": "46.23341000",
      "longitude": "7.87273000"
   },
   {
      "name": "Tanay",
      "countryCode": "CH",
      "stateCode": "VS",
      "latitude": "46.34503000",
      "longitude": "6.83041000"
   },
   {
      "name": "Troistorrents",
      "countryCode": "CH",
      "stateCode": "VS",
      "latitude": "46.22890000",
      "longitude": "6.91589000"
   },
   {
      "name": "Turtmann",
      "countryCode": "CH",
      "stateCode": "VS",
      "latitude": "46.30028000",
      "longitude": "7.70200000"
   },
   {
      "name": "Varen",
      "countryCode": "CH",
      "stateCode": "VS",
      "latitude": "46.31860000",
      "longitude": "7.60743000"
   },
   {
      "name": "Verbier",
      "countryCode": "CH",
      "stateCode": "VS",
      "latitude": "46.10020000",
      "longitude": "7.22651000"
   },
   {
      "name": "Vernayaz",
      "countryCode": "CH",
      "stateCode": "VS",
      "latitude": "46.13667000",
      "longitude": "7.03906000"
   },
   {
      "name": "Vex",
      "countryCode": "CH",
      "stateCode": "VS",
      "latitude": "46.21239000",
      "longitude": "7.39826000"
   },
   {
      "name": "Vionnaz",
      "countryCode": "CH",
      "stateCode": "VS",
      "latitude": "46.31101000",
      "longitude": "6.90062000"
   },
   {
      "name": "Visp",
      "countryCode": "CH",
      "stateCode": "VS",
      "latitude": "46.29370000",
      "longitude": "7.88149000"
   },
   {
      "name": "Visp District",
      "countryCode": "CH",
      "stateCode": "VS",
      "latitude": "46.17612000",
      "longitude": "7.85609000"
   },
   {
      "name": "Visperterminen",
      "countryCode": "CH",
      "stateCode": "VS",
      "latitude": "46.25899000",
      "longitude": "7.90192000"
   },
   {
      "name": "Vouvry",
      "countryCode": "CH",
      "stateCode": "VS",
      "latitude": "46.33746000",
      "longitude": "6.88950000"
   },
   {
      "name": "Vétroz",
      "countryCode": "CH",
      "stateCode": "VS",
      "latitude": "46.22171000",
      "longitude": "7.27858000"
   },
   {
      "name": "Zermatt",
      "countryCode": "CH",
      "stateCode": "VS",
      "latitude": "46.01998000",
      "longitude": "7.74863000"
   }
]