[
   {
      "name": "Pinar del Río Province",
      "isoCode": "01",
      "countryCode": "CU",
      "latitude": "22.40762560",
      "longitude": "-83.84730150"
   },
   {
      "name": "Havana Province",
      "isoCode": "03",
      "countryCode": "CU",
      "latitude": "23.05406980",
      "longitude": "-82.34518900"
   },
   {
      "name": "Matanzas Province",
      "isoCode": "04",
      "countryCode": "CU",
      "latitude": "22.57671230",
      "longitude": "-81.33994140"
   },
   {
      "name": "Villa Clara Province",
      "isoCode": "05",
      "countryCode": "CU",
      "latitude": "22.49372040",
      "longitude": "-79.91927020"
   },
   {
      "name": "Cienfuegos Province",
      "isoCode": "06",
      "countryCode": "CU",
      "latitude": "22.23797830",
      "longitude": "-80.36586500"
   },
   {
      "name": "Sancti Spíritus Province",
      "isoCode": "07",
      "countryCode": "CU",
      "latitude": "21.99382140",
      "longitude": "-79.47038850"
   },
   {
      "name": "Ciego de Ávila Province",
      "isoCode": "08",
      "countryCode": "CU",
      "latitude": "21.93295150",
      "longitude": "-78.56608520"
   },
   {
      "name": "Camagüey Province",
      "isoCode": "09",
      "countryCode": "CU",
      "latitude": "21.21672470",
      "longitude": "-77.74520810"
   },
   {
      "name": "Las Tunas Province",
      "isoCode": "10",
      "countryCode": "CU",
      "latitude": "21.06051620",
      "longitude": "-76.91820970"
   },
   {
      "name": "Holguín Province",
      "isoCode": "11",
      "countryCode": "CU",
      "latitude": "20.78378930",
      "longitude": "-75.80690820"
   },
   {
      "name": "Granma Province",
      "isoCode": "12",
      "countryCode": "CU",
      "latitude": "20.38449020",
      "longitude": "-76.64127120"
   },
   {
      "name": "Santiago de Cuba Province",
      "isoCode": "13",
      "countryCode": "CU",
      "latitude": "20.23976820",
      "longitude": "-75.99276520"
   },
   {
      "name": "Guantánamo Province",
      "isoCode": "14",
      "countryCode": "CU",
      "latitude": "20.14559170",
      "longitude": "-74.87410450"
   },
   {
      "name": "Artemisa Province",
      "isoCode": "15",
      "countryCode": "CU",
      "latitude": "22.75229030",
      "longitude": "-82.99316070"
   },
   {
      "name": "Mayabeque Province",
      "isoCode": "16",
      "countryCode": "CU",
      "latitude": "22.89265290",
      "longitude": "-81.95348150"
   },
   {
      "name": "Isla de la Juventud",
      "isoCode": "99",
      "countryCode": "CU",
      "latitude": "21.70847370",
      "longitude": "-82.82202320"
   }
]