[
   {
      "name": "Amli",
      "countryCode": "IN",
      "stateCode": "DH",
      "latitude": "20.28333000",
      "longitude": "73.01667000"
   },
   {
      "name": "Dadra",
      "countryCode": "IN",
      "stateCode": "DH",
      "latitude": "20.32504000",
      "longitude": "72.96618000"
   },
   {
      "name": "Dadra & Nagar Haveli",
      "countryCode": "IN",
      "stateCode": "DH",
      "latitude": "20.20651000",
      "longitude": "73.00811000"
   },
   {
      "name": "Daman",
      "countryCode": "IN",
      "stateCode": "DH",
      "latitude": "20.41431000",
      "longitude": "72.83236000"
   },
   {
      "name": "Daman District",
      "countryCode": "IN",
      "stateCode": "DH",
      "latitude": "20.41667000",
      "longitude": "72.88333000"
   },
   {
      "name": "Diu",
      "countryCode": "IN",
      "stateCode": "DH",
      "latitude": "20.72081000",
      "longitude": "70.93989000"
   },
   {
      "name": "Silvassa",
      "countryCode": "IN",
      "stateCode": "DH",
      "latitude": "20.27386000",
      "longitude": "72.99673000"
   }
]