[
   {
      "name": "Alle",
      "countryCode": "CH",
      "stateCode": "JU",
      "latitude": "47.42542000",
      "longitude": "7.13018000"
   },
   {
      "name": "Bassecourt",
      "countryCode": "CH",
      "stateCode": "JU",
      "latitude": "47.33808000",
      "longitude": "7.24373000"
   },
   {
      "name": "Boncourt",
      "countryCode": "CH",
      "stateCode": "JU",
      "latitude": "47.49493000",
      "longitude": "7.01297000"
   },
   {
      "name": "Courfaivre",
      "countryCode": "CH",
      "stateCode": "JU",
      "latitude": "47.33461000",
      "longitude": "7.28186000"
   },
   {
      "name": "Courgenay",
      "countryCode": "CH",
      "stateCode": "JU",
      "latitude": "47.40483000",
      "longitude": "7.12522000"
   },
   {
      "name": "Courrendlin",
      "countryCode": "CH",
      "stateCode": "JU",
      "latitude": "47.33853000",
      "longitude": "7.37243000"
   },
   {
      "name": "Courroux",
      "countryCode": "CH",
      "stateCode": "JU",
      "latitude": "47.36069000",
      "longitude": "7.37371000"
   },
   {
      "name": "Courtételle",
      "countryCode": "CH",
      "stateCode": "JU",
      "latitude": "47.34074000",
      "longitude": "7.31827000"
   },
   {
      "name": "Delémont",
      "countryCode": "CH",
      "stateCode": "JU",
      "latitude": "47.36493000",
      "longitude": "7.34453000"
   },
   {
      "name": "Delémont District",
      "countryCode": "CH",
      "stateCode": "JU",
      "latitude": "47.35434000",
      "longitude": "7.33053000"
   },
   {
      "name": "Fontenais",
      "countryCode": "CH",
      "stateCode": "JU",
      "latitude": "47.40292000",
      "longitude": "7.08108000"
   },
   {
      "name": "Franches-Montagnes District",
      "countryCode": "CH",
      "stateCode": "JU",
      "latitude": "47.24935000",
      "longitude": "7.04562000"
   },
   {
      "name": "Glovelier",
      "countryCode": "CH",
      "stateCode": "JU",
      "latitude": "47.33534000",
      "longitude": "7.20556000"
   },
   {
      "name": "Le Noirmont",
      "countryCode": "CH",
      "stateCode": "JU",
      "latitude": "47.22464000",
      "longitude": "6.95784000"
   },
   {
      "name": "Les Bois",
      "countryCode": "CH",
      "stateCode": "JU",
      "latitude": "47.17715000",
      "longitude": "6.90498000"
   },
   {
      "name": "Les Breuleux",
      "countryCode": "CH",
      "stateCode": "JU",
      "latitude": "47.21099000",
      "longitude": "7.00792000"
   },
   {
      "name": "Porrentruy",
      "countryCode": "CH",
      "stateCode": "JU",
      "latitude": "47.41728000",
      "longitude": "7.07573000"
   },
   {
      "name": "Porrentruy District",
      "countryCode": "CH",
      "stateCode": "JU",
      "latitude": "47.41475000",
      "longitude": "7.07638000"
   },
   {
      "name": "Saignelégier",
      "countryCode": "CH",
      "stateCode": "JU",
      "latitude": "47.25619000",
      "longitude": "6.99648000"
   },
   {
      "name": "Vicques",
      "countryCode": "CH",
      "stateCode": "JU",
      "latitude": "47.35000000",
      "longitude": "7.41342000"
   }
]