[
   {
      "name": "Abriola",
      "countryCode": "IT",
      "stateCode": "77",
      "latitude": "40.50748000",
      "longitude": "15.81310000"
   },
   {
      "name": "Accettura",
      "countryCode": "IT",
      "stateCode": "77",
      "latitude": "40.49102000",
      "longitude": "16.15798000"
   },
   {
      "name": "Acerenza",
      "countryCode": "IT",
      "stateCode": "77",
      "latitude": "40.79386000",
      "longitude": "15.93808000"
   },
   {
      "name": "Albano di Lucania",
      "countryCode": "IT",
      "stateCode": "77",
      "latitude": "40.58614000",
      "longitude": "16.03712000"
   },
   {
      "name": "Aliano",
      "countryCode": "IT",
      "stateCode": "77",
      "latitude": "40.31359000",
      "longitude": "16.22984000"
   },
   {
      "name": "Anzi",
      "countryCode": "IT",
      "stateCode": "77",
      "latitude": "40.51662000",
      "longitude": "15.92457000"
   },
   {
      "name": "Armento",
      "countryCode": "IT",
      "stateCode": "77",
      "latitude": "40.30660000",
      "longitude": "16.06550000"
   },
   {
      "name": "Atella",
      "countryCode": "IT",
      "stateCode": "77",
      "latitude": "40.87855000",
      "longitude": "15.65226000"
   },
   {
      "name": "Avigliano",
      "countryCode": "IT",
      "stateCode": "77",
      "latitude": "40.73291000",
      "longitude": "15.72004000"
   },
   {
      "name": "Balvano",
      "countryCode": "IT",
      "stateCode": "77",
      "latitude": "40.64953000",
      "longitude": "15.51345000"
   },
   {
      "name": "Banzi",
      "countryCode": "IT",
      "stateCode": "77",
      "latitude": "40.86063000",
      "longitude": "16.00976000"
   },
   {
      "name": "Baragiano",
      "countryCode": "IT",
      "stateCode": "77",
      "latitude": "40.68001000",
      "longitude": "15.59398000"
   },
   {
      "name": "Barile",
      "countryCode": "IT",
      "stateCode": "77",
      "latitude": "40.94327000",
      "longitude": "15.67167000"
   },
   {
      "name": "Bella",
      "countryCode": "IT",
      "stateCode": "77",
      "latitude": "40.76059000",
      "longitude": "15.54101000"
   },
   {
      "name": "Bernalda",
      "countryCode": "IT",
      "stateCode": "77",
      "latitude": "40.41261000",
      "longitude": "16.68919000"
   },
   {
      "name": "Brienza",
      "countryCode": "IT",
      "stateCode": "77",
      "latitude": "40.47751000",
      "longitude": "15.62927000"
   },
   {
      "name": "Brindisi Montagna",
      "countryCode": "IT",
      "stateCode": "77",
      "latitude": "40.60952000",
      "longitude": "15.93977000"
   },
   {
      "name": "Calciano",
      "countryCode": "IT",
      "stateCode": "77",
      "latitude": "40.58802000",
      "longitude": "16.19238000"
   },
   {
      "name": "Calvello",
      "countryCode": "IT",
      "stateCode": "77",
      "latitude": "40.47482000",
      "longitude": "15.85092000"
   },
   {
      "name": "Calvera",
      "countryCode": "IT",
      "stateCode": "77",
      "latitude": "40.14871000",
      "longitude": "16.14362000"
   },
   {
      "name": "Campomaggiore",
      "countryCode": "IT",
      "stateCode": "77",
      "latitude": "40.56590000",
      "longitude": "16.07250000"
   },
   {
      "name": "Cancellara",
      "countryCode": "IT",
      "stateCode": "77",
      "latitude": "40.73068000",
      "longitude": "15.92470000"
   },
   {
      "name": "Carbone",
      "countryCode": "IT",
      "stateCode": "77",
      "latitude": "40.14227000",
      "longitude": "16.08846000"
   },
   {
      "name": "Castelgrande",
      "countryCode": "IT",
      "stateCode": "77",
      "latitude": "40.78639000",
      "longitude": "15.43109000"
   },
   {
      "name": "Castelluccio Inferiore",
      "countryCode": "IT",
      "stateCode": "77",
      "latitude": "40.00151000",
      "longitude": "15.98149000"
   },
   {
      "name": "Castelluccio Superiore",
      "countryCode": "IT",
      "stateCode": "77",
      "latitude": "40.01003000",
      "longitude": "15.97184000"
   },
   {
      "name": "Castelmezzano",
      "countryCode": "IT",
      "stateCode": "77",
      "latitude": "40.52832000",
      "longitude": "16.04585000"
   },
   {
      "name": "Castelsaraceno",
      "countryCode": "IT",
      "stateCode": "77",
      "latitude": "40.16213000",
      "longitude": "15.99281000"
   },
   {
      "name": "Castronuovo di Sant'Andrea",
      "countryCode": "IT",
      "stateCode": "77",
      "latitude": "40.18903000",
      "longitude": "16.18559000"
   },
   {
      "name": "Cersosimo",
      "countryCode": "IT",
      "stateCode": "77",
      "latitude": "40.04703000",
      "longitude": "16.35059000"
   },
   {
      "name": "Chiaromonte",
      "countryCode": "IT",
      "stateCode": "77",
      "latitude": "40.12323000",
      "longitude": "16.21440000"
   },
   {
      "name": "Cirigliano",
      "countryCode": "IT",
      "stateCode": "77",
      "latitude": "40.39376000",
      "longitude": "16.17194000"
   },
   {
      "name": "Colobraro",
      "countryCode": "IT",
      "stateCode": "77",
      "latitude": "40.18841000",
      "longitude": "16.42480000"
   },
   {
      "name": "Corleto Perticara",
      "countryCode": "IT",
      "stateCode": "77",
      "latitude": "40.38214000",
      "longitude": "16.03917000"
   },
   {
      "name": "Craco-Sant'Angelo",
      "countryCode": "IT",
      "stateCode": "77",
      "latitude": "40.37992000",
      "longitude": "16.43708000"
   },
   {
      "name": "Episcopia",
      "countryCode": "IT",
      "stateCode": "77",
      "latitude": "40.07481000",
      "longitude": "16.09818000"
   },
   {
      "name": "Fardella",
      "countryCode": "IT",
      "stateCode": "77",
      "latitude": "40.11381000",
      "longitude": "16.16978000"
   },
   {
      "name": "Ferrandina",
      "countryCode": "IT",
      "stateCode": "77",
      "latitude": "40.50084000",
      "longitude": "16.45258000"
   },
   {
      "name": "Filiano",
      "countryCode": "IT",
      "stateCode": "77",
      "latitude": "40.81042000",
      "longitude": "15.70984000"
   },
   {
      "name": "Forenza",
      "countryCode": "IT",
      "stateCode": "77",
      "latitude": "40.86041000",
      "longitude": "15.85457000"
   },
   {
      "name": "Francavilla in Sinni",
      "countryCode": "IT",
      "stateCode": "77",
      "latitude": "40.08142000",
      "longitude": "16.20417000"
   },
   {
      "name": "Gallicchio",
      "countryCode": "IT",
      "stateCode": "77",
      "latitude": "40.29232000",
      "longitude": "16.13561000"
   },
   {
      "name": "Garaguso",
      "countryCode": "IT",
      "stateCode": "77",
      "latitude": "40.54866000",
      "longitude": "16.22827000"
   },
   {
      "name": "Genzano di Lucania",
      "countryCode": "IT",
      "stateCode": "77",
      "latitude": "40.84589000",
      "longitude": "16.03124000"
   },
   {
      "name": "Ginestra",
      "countryCode": "IT",
      "stateCode": "77",
      "latitude": "40.93092000",
      "longitude": "15.73497000"
   },
   {
      "name": "Gorgoglione",
      "countryCode": "IT",
      "stateCode": "77",
      "latitude": "40.39532000",
      "longitude": "16.14456000"
   },
   {
      "name": "Grassano",
      "countryCode": "IT",
      "stateCode": "77",
      "latitude": "40.63457000",
      "longitude": "16.27792000"
   },
   {
      "name": "Grottole",
      "countryCode": "IT",
      "stateCode": "77",
      "latitude": "40.60333000",
      "longitude": "16.37831000"
   },
   {
      "name": "Grumento Nova",
      "countryCode": "IT",
      "stateCode": "77",
      "latitude": "40.28281000",
      "longitude": "15.88877000"
   },
   {
      "name": "Guardia Perticara",
      "countryCode": "IT",
      "stateCode": "77",
      "latitude": "40.36167000",
      "longitude": "16.09845000"
   },
   {
      "name": "Irsina",
      "countryCode": "IT",
      "stateCode": "77",
      "latitude": "40.75015000",
      "longitude": "16.23816000"
   },
   {
      "name": "La Martella",
      "countryCode": "IT",
      "stateCode": "77",
      "latitude": "40.66251000",
      "longitude": "16.53551000"
   },
   {
      "name": "Lagonegro",
      "countryCode": "IT",
      "stateCode": "77",
      "latitude": "40.12785000",
      "longitude": "15.76212000"
   },
   {
      "name": "Latronico",
      "countryCode": "IT",
      "stateCode": "77",
      "latitude": "40.08909000",
      "longitude": "16.00947000"
   },
   {
      "name": "Laurenzana",
      "countryCode": "IT",
      "stateCode": "77",
      "latitude": "40.45908000",
      "longitude": "15.97075000"
   },
   {
      "name": "Lauria",
      "countryCode": "IT",
      "stateCode": "77",
      "latitude": "40.04702000",
      "longitude": "15.83812000"
   },
   {
      "name": "Lavello",
      "countryCode": "IT",
      "stateCode": "77",
      "latitude": "41.04769000",
      "longitude": "15.78915000"
   },
   {
      "name": "Lido",
      "countryCode": "IT",
      "stateCode": "77",
      "latitude": "40.19128000",
      "longitude": "16.70692000"
   },
   {
      "name": "Maratea",
      "countryCode": "IT",
      "stateCode": "77",
      "latitude": "39.99932000",
      "longitude": "15.71539000"
   },
   {
      "name": "Marconia",
      "countryCode": "IT",
      "stateCode": "77",
      "latitude": "40.36355000",
      "longitude": "16.68823000"
   },
   {
      "name": "Marsico Nuovo",
      "countryCode": "IT",
      "stateCode": "77",
      "latitude": "40.42359000",
      "longitude": "15.73462000"
   },
   {
      "name": "Marsicovetere",
      "countryCode": "IT",
      "stateCode": "77",
      "latitude": "40.37591000",
      "longitude": "15.82569000"
   },
   {
      "name": "Maschito",
      "countryCode": "IT",
      "stateCode": "77",
      "latitude": "40.90892000",
      "longitude": "15.82946000"
   },
   {
      "name": "Matera",
      "countryCode": "IT",
      "stateCode": "77",
      "latitude": "40.66599000",
      "longitude": "16.60463000"
   },
   {
      "name": "Melfi",
      "countryCode": "IT",
      "stateCode": "77",
      "latitude": "40.99571000",
      "longitude": "15.65578000"
   },
   {
      "name": "Miglionico",
      "countryCode": "IT",
      "stateCode": "77",
      "latitude": "40.56763000",
      "longitude": "16.49964000"
   },
   {
      "name": "Missanello",
      "countryCode": "IT",
      "stateCode": "77",
      "latitude": "40.28311000",
      "longitude": "16.16650000"
   },
   {
      "name": "Moliterno",
      "countryCode": "IT",
      "stateCode": "77",
      "latitude": "40.24394000",
      "longitude": "15.86544000"
   },
   {
      "name": "Montalbano Jonico",
      "countryCode": "IT",
      "stateCode": "77",
      "latitude": "40.28591000",
      "longitude": "16.56960000"
   },
   {
      "name": "Montemilone",
      "countryCode": "IT",
      "stateCode": "77",
      "latitude": "41.02742000",
      "longitude": "15.96661000"
   },
   {
      "name": "Montemurro",
      "countryCode": "IT",
      "stateCode": "77",
      "latitude": "40.29765000",
      "longitude": "15.99182000"
   },
   {
      "name": "Montescaglioso",
      "countryCode": "IT",
      "stateCode": "77",
      "latitude": "40.55024000",
      "longitude": "16.66541000"
   },
   {
      "name": "Muro Lucano",
      "countryCode": "IT",
      "stateCode": "77",
      "latitude": "40.75379000",
      "longitude": "15.48808000"
   },
   {
      "name": "Nemoli",
      "countryCode": "IT",
      "stateCode": "77",
      "latitude": "40.06765000",
      "longitude": "15.79962000"
   },
   {
      "name": "Noepoli",
      "countryCode": "IT",
      "stateCode": "77",
      "latitude": "40.08705000",
      "longitude": "16.32834000"
   },
   {
      "name": "Nova Siri",
      "countryCode": "IT",
      "stateCode": "77",
      "latitude": "40.14823000",
      "longitude": "16.53976000"
   },
   {
      "name": "Nova Siri Scalo",
      "countryCode": "IT",
      "stateCode": "77",
      "latitude": "40.13177000",
      "longitude": "16.63593000"
   },
   {
      "name": "Oliveto Lucano",
      "countryCode": "IT",
      "stateCode": "77",
      "latitude": "40.53554000",
      "longitude": "16.18547000"
   },
   {
      "name": "Oppido Lucano",
      "countryCode": "IT",
      "stateCode": "77",
      "latitude": "40.76174000",
      "longitude": "15.98818000"
   },
   {
      "name": "Palazzo San Gervasio",
      "countryCode": "IT",
      "stateCode": "77",
      "latitude": "40.93156000",
      "longitude": "15.98149000"
   },
   {
      "name": "Paterno",
      "countryCode": "IT",
      "stateCode": "77",
      "latitude": "40.37507000",
      "longitude": "15.73510000"
   },
   {
      "name": "Pescopagano",
      "countryCode": "IT",
      "stateCode": "77",
      "latitude": "40.83494000",
      "longitude": "15.39946000"
   },
   {
      "name": "Picerno",
      "countryCode": "IT",
      "stateCode": "77",
      "latitude": "40.63975000",
      "longitude": "15.64232000"
   },
   {
      "name": "Pietragalla",
      "countryCode": "IT",
      "stateCode": "77",
      "latitude": "40.74572000",
      "longitude": "15.87398000"
   },
   {
      "name": "Pietrapertosa",
      "countryCode": "IT",
      "stateCode": "77",
      "latitude": "40.51731000",
      "longitude": "16.06244000"
   },
   {
      "name": "Pignola",
      "countryCode": "IT",
      "stateCode": "77",
      "latitude": "40.57412000",
      "longitude": "15.78295000"
   },
   {
      "name": "Pisticci",
      "countryCode": "IT",
      "stateCode": "77",
      "latitude": "40.39017000",
      "longitude": "16.55919000"
   },
   {
      "name": "Policoro",
      "countryCode": "IT",
      "stateCode": "77",
      "latitude": "40.21280000",
      "longitude": "16.67795000"
   },
   {
      "name": "Pomarico",
      "countryCode": "IT",
      "stateCode": "77",
      "latitude": "40.52804000",
      "longitude": "16.52708000"
   },
   {
      "name": "Potenza",
      "countryCode": "IT",
      "stateCode": "77",
      "latitude": "40.64175000",
      "longitude": "15.80794000"
   },
   {
      "name": "Provincia di Matera",
      "countryCode": "IT",
      "stateCode": "77",
      "latitude": "40.50000000",
      "longitude": "16.41667000"
   },
   {
      "name": "Provincia di Potenza",
      "countryCode": "IT",
      "stateCode": "77",
      "latitude": "40.46442000",
      "longitude": "15.89938000"
   },
   {
      "name": "Rapolla",
      "countryCode": "IT",
      "stateCode": "77",
      "latitude": "40.97499000",
      "longitude": "15.67201000"
   },
   {
      "name": "Rapone",
      "countryCode": "IT",
      "stateCode": "77",
      "latitude": "40.84710000",
      "longitude": "15.49818000"
   },
   {
      "name": "Rionero in Vulture",
      "countryCode": "IT",
      "stateCode": "77",
      "latitude": "40.92328000",
      "longitude": "15.67110000"
   },
   {
      "name": "Ripacandida",
      "countryCode": "IT",
      "stateCode": "77",
      "latitude": "40.91256000",
      "longitude": "15.72597000"
   },
   {
      "name": "Rivello",
      "countryCode": "IT",
      "stateCode": "77",
      "latitude": "40.07821000",
      "longitude": "15.75798000"
   },
   {
      "name": "Roccanova",
      "countryCode": "IT",
      "stateCode": "77",
      "latitude": "40.21250000",
      "longitude": "16.20429000"
   },
   {
      "name": "Rotonda",
      "countryCode": "IT",
      "stateCode": "77",
      "latitude": "39.95215000",
      "longitude": "16.03904000"
   },
   {
      "name": "Rotondella",
      "countryCode": "IT",
      "stateCode": "77",
      "latitude": "40.17136000",
      "longitude": "16.52491000"
   },
   {
      "name": "Ruoti",
      "countryCode": "IT",
      "stateCode": "77",
      "latitude": "40.71660000",
      "longitude": "15.68369000"
   },
   {
      "name": "Ruvo del Monte",
      "countryCode": "IT",
      "stateCode": "77",
      "latitude": "40.84951000",
      "longitude": "15.54217000"
   },
   {
      "name": "Salandra",
      "countryCode": "IT",
      "stateCode": "77",
      "latitude": "40.52668000",
      "longitude": "16.32037000"
   },
   {
      "name": "San Brancato",
      "countryCode": "IT",
      "stateCode": "77",
      "latitude": "40.25822000",
      "longitude": "16.25661000"
   },
   {
      "name": "San Chirico Nuovo",
      "countryCode": "IT",
      "stateCode": "77",
      "latitude": "40.67764000",
      "longitude": "16.07892000"
   },
   {
      "name": "San Chirico Raparo",
      "countryCode": "IT",
      "stateCode": "77",
      "latitude": "40.19242000",
      "longitude": "16.07618000"
   },
   {
      "name": "San Costantino Albanese",
      "countryCode": "IT",
      "stateCode": "77",
      "latitude": "40.03679000",
      "longitude": "16.30475000"
   },
   {
      "name": "San Fele",
      "countryCode": "IT",
      "stateCode": "77",
      "latitude": "40.81647000",
      "longitude": "15.54043000"
   },
   {
      "name": "San Giorgio Lucano",
      "countryCode": "IT",
      "stateCode": "77",
      "latitude": "40.11132000",
      "longitude": "16.38930000"
   },
   {
      "name": "San Martino d'Agri",
      "countryCode": "IT",
      "stateCode": "77",
      "latitude": "40.23913000",
      "longitude": "16.05216000"
   },
   {
      "name": "San Mauro Forte",
      "countryCode": "IT",
      "stateCode": "77",
      "latitude": "40.48333000",
      "longitude": "16.25155000"
   },
   {
      "name": "San Paolo Albanese",
      "countryCode": "IT",
      "stateCode": "77",
      "latitude": "40.03567000",
      "longitude": "16.33498000"
   },
   {
      "name": "San Severino Lucano",
      "countryCode": "IT",
      "stateCode": "77",
      "latitude": "40.02021000",
      "longitude": "16.13860000"
   },
   {
      "name": "Sant'Angelo le Fratte",
      "countryCode": "IT",
      "stateCode": "77",
      "latitude": "40.54490000",
      "longitude": "15.56156000"
   },
   {
      "name": "Sant'Arcangelo",
      "countryCode": "IT",
      "stateCode": "77",
      "latitude": "40.24852000",
      "longitude": "16.27046000"
   },
   {
      "name": "Sarconi",
      "countryCode": "IT",
      "stateCode": "77",
      "latitude": "40.24800000",
      "longitude": "15.88837000"
   },
   {
      "name": "Sasso di Castalda",
      "countryCode": "IT",
      "stateCode": "77",
      "latitude": "40.48525000",
      "longitude": "15.67569000"
   },
   {
      "name": "Satriano di Lucania",
      "countryCode": "IT",
      "stateCode": "77",
      "latitude": "40.54296000",
      "longitude": "15.64024000"
   },
   {
      "name": "Savoia di Lucania",
      "countryCode": "IT",
      "stateCode": "77",
      "latitude": "40.56949000",
      "longitude": "15.55132000"
   },
   {
      "name": "Scalo di Baragiano",
      "countryCode": "IT",
      "stateCode": "77",
      "latitude": "40.69500000",
      "longitude": "15.57508000"
   },
   {
      "name": "Scanzano Jonico",
      "countryCode": "IT",
      "stateCode": "77",
      "latitude": "40.25085000",
      "longitude": "16.69824000"
   },
   {
      "name": "Senise",
      "countryCode": "IT",
      "stateCode": "77",
      "latitude": "40.14616000",
      "longitude": "16.28867000"
   },
   {
      "name": "Spinoso",
      "countryCode": "IT",
      "stateCode": "77",
      "latitude": "40.26921000",
      "longitude": "15.96658000"
   },
   {
      "name": "Stigliano",
      "countryCode": "IT",
      "stateCode": "77",
      "latitude": "40.40237000",
      "longitude": "16.22983000"
   },
   {
      "name": "Teana",
      "countryCode": "IT",
      "stateCode": "77",
      "latitude": "40.12586000",
      "longitude": "16.15281000"
   },
   {
      "name": "Terranova di Pollino",
      "countryCode": "IT",
      "stateCode": "77",
      "latitude": "39.97765000",
      "longitude": "16.29583000"
   },
   {
      "name": "Tito",
      "countryCode": "IT",
      "stateCode": "77",
      "latitude": "40.58370000",
      "longitude": "15.67621000"
   },
   {
      "name": "Tolve",
      "countryCode": "IT",
      "stateCode": "77",
      "latitude": "40.69422000",
      "longitude": "16.01627000"
   },
   {
      "name": "Tramutola",
      "countryCode": "IT",
      "stateCode": "77",
      "latitude": "40.31858000",
      "longitude": "15.78753000"
   },
   {
      "name": "Trecchina",
      "countryCode": "IT",
      "stateCode": "77",
      "latitude": "40.02611000",
      "longitude": "15.77585000"
   },
   {
      "name": "Tricarico",
      "countryCode": "IT",
      "stateCode": "77",
      "latitude": "40.61458000",
      "longitude": "16.14259000"
   },
   {
      "name": "Trivigno",
      "countryCode": "IT",
      "stateCode": "77",
      "latitude": "40.58015000",
      "longitude": "15.98857000"
   },
   {
      "name": "Tursi",
      "countryCode": "IT",
      "stateCode": "77",
      "latitude": "40.24651000",
      "longitude": "16.47140000"
   },
   {
      "name": "Vaglio Basilicata",
      "countryCode": "IT",
      "stateCode": "77",
      "latitude": "40.66643000",
      "longitude": "15.91434000"
   },
   {
      "name": "Valsinni",
      "countryCode": "IT",
      "stateCode": "77",
      "latitude": "40.17098000",
      "longitude": "16.44388000"
   },
   {
      "name": "Venosa",
      "countryCode": "IT",
      "stateCode": "77",
      "latitude": "40.96283000",
      "longitude": "15.81285000"
   },
   {
      "name": "Vietri di Potenza",
      "countryCode": "IT",
      "stateCode": "77",
      "latitude": "40.60027000",
      "longitude": "15.50787000"
   },
   {
      "name": "Viggianello",
      "countryCode": "IT",
      "stateCode": "77",
      "latitude": "39.97227000",
      "longitude": "16.08521000"
   },
   {
      "name": "Viggiano",
      "countryCode": "IT",
      "stateCode": "77",
      "latitude": "40.34213000",
      "longitude": "15.89964000"
   },
   {
      "name": "Villa d'Agri",
      "countryCode": "IT",
      "stateCode": "77",
      "latitude": "40.35426000",
      "longitude": "15.82770000"
   },
   {
      "name": "Zona 179",
      "countryCode": "IT",
      "stateCode": "77",
      "latitude": "41.00313000",
      "longitude": "15.61868000"
   }
]