[
   {
      "name": "Aguelmous",
      "countryCode": "MA",
      "stateCode": "KHN",
      "latitude": "33.16139000",
      "longitude": "-5.84626000"
   },
   {
      "name": "Al Fqih Ben Çalah",
      "countryCode": "MA",
      "stateCode": "KHN",
      "latitude": "32.50213000",
      "longitude": "-6.68771000"
   },
   {
      "name": "Azilal",
      "countryCode": "MA",
      "stateCode": "KHN",
      "latitude": "31.96156000",
      "longitude": "-6.57109000"
   },
   {
      "name": "Azilal Province",
      "countryCode": "MA",
      "stateCode": "KHN",
      "latitude": "31.91667000",
      "longitude": "-6.50000000"
   },
   {
      "name": "Beni Mellal",
      "countryCode": "MA",
      "stateCode": "KHN",
      "latitude": "32.33725000",
      "longitude": "-6.34983000"
   },
   {
      "name": "Beni-Mellal",
      "countryCode": "MA",
      "stateCode": "KHN",
      "latitude": "32.50000000",
      "longitude": "-6.33333000"
   },
   {
      "name": "Boujniba",
      "countryCode": "MA",
      "stateCode": "KHN",
      "latitude": "32.90046000",
      "longitude": "-6.77464000"
   },
   {
      "name": "Bzou",
      "countryCode": "MA",
      "stateCode": "KHN",
      "latitude": "32.09171000",
      "longitude": "-7.04786000"
   },
   {
      "name": "Dar Ould Zidouh",
      "countryCode": "MA",
      "stateCode": "KHN",
      "latitude": "32.31247000",
      "longitude": "-6.90494000"
   },
   {
      "name": "Demnate",
      "countryCode": "MA",
      "stateCode": "KHN",
      "latitude": "31.73443000",
      "longitude": "-7.00505000"
   },
   {
      "name": "El Ksiba",
      "countryCode": "MA",
      "stateCode": "KHN",
      "latitude": "32.57286000",
      "longitude": "-6.01947000"
   },
   {
      "name": "Fquih Ben Salah Province",
      "countryCode": "MA",
      "stateCode": "KHN",
      "latitude": "32.50108000",
      "longitude": "-6.68415000"
   },
   {
      "name": "Ifrane",
      "countryCode": "MA",
      "stateCode": "KHN",
      "latitude": "31.70217000",
      "longitude": "-6.34940000"
   },
   {
      "name": "Isseksi",
      "countryCode": "MA",
      "stateCode": "KHN",
      "latitude": "32.22981000",
      "longitude": "-6.27661000"
   },
   {
      "name": "Itzer",
      "countryCode": "MA",
      "stateCode": "KHN",
      "latitude": "32.87830000",
      "longitude": "-5.05150000"
   },
   {
      "name": "Kasba Tadla",
      "countryCode": "MA",
      "stateCode": "KHN",
      "latitude": "32.59770000",
      "longitude": "-6.26844000"
   },
   {
      "name": "Kerrouchen",
      "countryCode": "MA",
      "stateCode": "KHN",
      "latitude": "32.79639000",
      "longitude": "-5.31880000"
   },
   {
      "name": "Khenifra",
      "countryCode": "MA",
      "stateCode": "KHN",
      "latitude": "32.93333000",
      "longitude": "-5.66667000"
   },
   {
      "name": "Khouribga",
      "countryCode": "MA",
      "stateCode": "KHN",
      "latitude": "32.88108000",
      "longitude": "-6.90630000"
   },
   {
      "name": "Khouribga Province",
      "countryCode": "MA",
      "stateCode": "KHN",
      "latitude": "32.93333000",
      "longitude": "-6.60000000"
   },
   {
      "name": "Midelt",
      "countryCode": "MA",
      "stateCode": "KHN",
      "latitude": "32.68520000",
      "longitude": "-4.74512000"
   },
   {
      "name": "Ouaoula",
      "countryCode": "MA",
      "stateCode": "KHN",
      "latitude": "31.87000000",
      "longitude": "-6.75000000"
   },
   {
      "name": "Oued Zem",
      "countryCode": "MA",
      "stateCode": "KHN",
      "latitude": "32.86270000",
      "longitude": "-6.57359000"
   },
   {
      "name": "Sidi Jaber",
      "countryCode": "MA",
      "stateCode": "KHN",
      "latitude": "32.38952000",
      "longitude": "-6.42095000"
   },
   {
      "name": "Timoulilt",
      "countryCode": "MA",
      "stateCode": "KHN",
      "latitude": "32.20368000",
      "longitude": "-6.46660000"
   },
   {
      "name": "Zawyat ech Cheïkh",
      "countryCode": "MA",
      "stateCode": "KHN",
      "latitude": "32.64445000",
      "longitude": "-5.91826000"
   }
]