[
   {
      "name": "Bắc Kạn",
      "countryCode": "VN",
      "stateCode": "53",
      "latitude": "22.14701000",
      "longitude": "105.83481000"
   },
   {
      "name": "Huyện Ba Bể",
      "countryCode": "VN",
      "stateCode": "53",
      "latitude": "22.41667000",
      "longitude": "105.75000000"
   },
   {
      "name": "Huyện Bạch Thông",
      "countryCode": "VN",
      "stateCode": "53",
      "latitude": "22.25758000",
      "longitude": "105.83295000"
   },
   {
      "name": "Huyện Chợ Đồn",
      "countryCode": "VN",
      "stateCode": "53",
      "latitude": "22.18681000",
      "longitude": "105.57280000"
   },
   {
      "name": "Huyện Na Rì",
      "countryCode": "VN",
      "stateCode": "53",
      "latitude": "22.17883000",
      "longitude": "106.11221000"
   },
   {
      "name": "Huyện Ngân Sơn",
      "countryCode": "VN",
      "stateCode": "53",
      "latitude": "22.42962000",
      "longitude": "106.01030000"
   },
   {
      "name": "Thị Xã Bắc Kạn",
      "countryCode": "VN",
      "stateCode": "53",
      "latitude": "22.14130000",
      "longitude": "105.83867000"
   }
]