[
   {
      "name": "Adur",
      "countryCode": "IN",
      "stateCode": "KL",
      "latitude": "9.15595000",
      "longitude": "76.73192000"
   },
   {
      "name": "Alappuzha",
      "countryCode": "IN",
      "stateCode": "KL",
      "latitude": "9.49004000",
      "longitude": "76.32640000"
   },
   {
      "name": "Aluva",
      "countryCode": "IN",
      "stateCode": "KL",
      "latitude": "10.10764000",
      "longitude": "76.35158000"
   },
   {
      "name": "Alwaye",
      "countryCode": "IN",
      "stateCode": "KL",
      "latitude": "10.10649000",
      "longitude": "76.35484000"
   },
   {
      "name": "Angamali",
      "countryCode": "IN",
      "stateCode": "KL",
      "latitude": "10.19055000",
      "longitude": "76.38789000"
   },
   {
      "name": "Aroor",
      "countryCode": "IN",
      "stateCode": "KL",
      "latitude": "9.86940000",
      "longitude": "76.30498000"
   },
   {
      "name": "Arukutti",
      "countryCode": "IN",
      "stateCode": "KL",
      "latitude": "9.86667000",
      "longitude": "76.35000000"
   },
   {
      "name": "Attingal",
      "countryCode": "IN",
      "stateCode": "KL",
      "latitude": "8.69609000",
      "longitude": "76.81507000"
   },
   {
      "name": "Avanoor",
      "countryCode": "IN",
      "stateCode": "KL",
      "latitude": "10.60826000",
      "longitude": "76.17620000"
   },
   {
      "name": "Azhikkal",
      "countryCode": "IN",
      "stateCode": "KL",
      "latitude": "11.91524000",
      "longitude": "75.34761000"
   },
   {
      "name": "Badagara",
      "countryCode": "IN",
      "stateCode": "KL",
      "latitude": "11.59776000",
      "longitude": "75.58142000"
   },
   {
      "name": "Beypore",
      "countryCode": "IN",
      "stateCode": "KL",
      "latitude": "11.17151000",
      "longitude": "75.80611000"
   },
   {
      "name": "Changanacheri",
      "countryCode": "IN",
      "stateCode": "KL",
      "latitude": "9.44203000",
      "longitude": "76.53604000"
   },
   {
      "name": "Chengannur",
      "countryCode": "IN",
      "stateCode": "KL",
      "latitude": "9.31575000",
      "longitude": "76.61513000"
   },
   {
      "name": "Cherpulassery",
      "countryCode": "IN",
      "stateCode": "KL",
      "latitude": "10.87655000",
      "longitude": "76.30932000"
   },
   {
      "name": "Cherthala",
      "countryCode": "IN",
      "stateCode": "KL",
      "latitude": "9.68444000",
      "longitude": "76.33558000"
   },
   {
      "name": "Chetwayi",
      "countryCode": "IN",
      "stateCode": "KL",
      "latitude": "10.52885000",
      "longitude": "76.04793000"
   },
   {
      "name": "Chittur",
      "countryCode": "IN",
      "stateCode": "KL",
      "latitude": "10.69967000",
      "longitude": "76.74710000"
   },
   {
      "name": "Chēlakara",
      "countryCode": "IN",
      "stateCode": "KL",
      "latitude": "10.69289000",
      "longitude": "76.34387000"
   },
   {
      "name": "Cochin",
      "countryCode": "IN",
      "stateCode": "KL",
      "latitude": "9.93988000",
      "longitude": "76.26022000"
   },
   {
      "name": "Dharmadam",
      "countryCode": "IN",
      "stateCode": "KL",
      "latitude": "11.77538000",
      "longitude": "75.46459000"
   },
   {
      "name": "Edakkulam",
      "countryCode": "IN",
      "stateCode": "KL",
      "latitude": "10.61020000",
      "longitude": "76.18352000"
   },
   {
      "name": "Elur",
      "countryCode": "IN",
      "stateCode": "KL",
      "latitude": "10.06667000",
      "longitude": "76.28333000"
   },
   {
      "name": "Erattupetta",
      "countryCode": "IN",
      "stateCode": "KL",
      "latitude": "9.68747000",
      "longitude": "76.77891000"
   },
   {
      "name": "Ernakulam",
      "countryCode": "IN",
      "stateCode": "KL",
      "latitude": "10.00000000",
      "longitude": "76.50000000"
   },
   {
      "name": "Ferokh",
      "countryCode": "IN",
      "stateCode": "KL",
      "latitude": "11.17989000",
      "longitude": "75.84141000"
   },
   {
      "name": "Guruvayur",
      "countryCode": "IN",
      "stateCode": "KL",
      "latitude": "10.59430000",
      "longitude": "76.04110000"
   },
   {
      "name": "Idukki",
      "countryCode": "IN",
      "stateCode": "KL",
      "latitude": "10.00000000",
      "longitude": "77.00000000"
   },
   {
      "name": "Iringal",
      "countryCode": "IN",
      "stateCode": "KL",
      "latitude": "11.55929000",
      "longitude": "75.61663000"
   },
   {
      "name": "Irinjalakuda",
      "countryCode": "IN",
      "stateCode": "KL",
      "latitude": "10.34238000",
      "longitude": "76.21124000"
   },
   {
      "name": "Kadakkavoor",
      "countryCode": "IN",
      "stateCode": "KL",
      "latitude": "8.67921000",
      "longitude": "76.76714000"
   },
   {
      "name": "Kalamassery",
      "countryCode": "IN",
      "stateCode": "KL",
      "latitude": "10.06140000",
      "longitude": "76.32631000"
   },
   {
      "name": "Kalavoor",
      "countryCode": "IN",
      "stateCode": "KL",
      "latitude": "9.57046000",
      "longitude": "76.32756000"
   },
   {
      "name": "Kalpatta",
      "countryCode": "IN",
      "stateCode": "KL",
      "latitude": "11.60871000",
      "longitude": "76.08343000"
   },
   {
      "name": "Kannangad",
      "countryCode": "IN",
      "stateCode": "KL",
      "latitude": "12.30814000",
      "longitude": "75.10632000"
   },
   {
      "name": "Kannavam",
      "countryCode": "IN",
      "stateCode": "KL",
      "latitude": "11.84450000",
      "longitude": "75.66266000"
   },
   {
      "name": "Kannur",
      "countryCode": "IN",
      "stateCode": "KL",
      "latitude": "12.16667000",
      "longitude": "75.33333000"
   },
   {
      "name": "Kasaragod",
      "countryCode": "IN",
      "stateCode": "KL",
      "latitude": "12.49838000",
      "longitude": "74.98959000"
   },
   {
      "name": "Kasaragod District",
      "countryCode": "IN",
      "stateCode": "KL",
      "latitude": "12.49246000",
      "longitude": "74.99062000"
   },
   {
      "name": "Kattanam",
      "countryCode": "IN",
      "stateCode": "KL",
      "latitude": "9.17614000",
      "longitude": "76.56325000"
   },
   {
      "name": "Kayankulam",
      "countryCode": "IN",
      "stateCode": "KL",
      "latitude": "9.18173000",
      "longitude": "76.50093000"
   },
   {
      "name": "Kizhake Chalakudi",
      "countryCode": "IN",
      "stateCode": "KL",
      "latitude": "10.30067000",
      "longitude": "76.33763000"
   },
   {
      "name": "Kodungallur",
      "countryCode": "IN",
      "stateCode": "KL",
      "latitude": "10.23263000",
      "longitude": "76.19513000"
   },
   {
      "name": "Kollam",
      "countryCode": "IN",
      "stateCode": "KL",
      "latitude": "8.88113000",
      "longitude": "76.58469000"
   },
   {
      "name": "Kotamangalam",
      "countryCode": "IN",
      "stateCode": "KL",
      "latitude": "10.06435000",
      "longitude": "76.62843000"
   },
   {
      "name": "Kottayam",
      "countryCode": "IN",
      "stateCode": "KL",
      "latitude": "9.66667000",
      "longitude": "76.66667000"
   },
   {
      "name": "Kovalam",
      "countryCode": "IN",
      "stateCode": "KL",
      "latitude": "8.36667000",
      "longitude": "76.99667000"
   },
   {
      "name": "Kozhikode",
      "countryCode": "IN",
      "stateCode": "KL",
      "latitude": "11.50000000",
      "longitude": "76.00000000"
   },
   {
      "name": "Kumbalam",
      "countryCode": "IN",
      "stateCode": "KL",
      "latitude": "9.90630000",
      "longitude": "76.31127000"
   },
   {
      "name": "Kunnamangalam",
      "countryCode": "IN",
      "stateCode": "KL",
      "latitude": "11.30459000",
      "longitude": "75.87772000"
   },
   {
      "name": "Kunnamkulam",
      "countryCode": "IN",
      "stateCode": "KL",
      "latitude": "10.64667000",
      "longitude": "76.06695000"
   },
   {
      "name": "Kunnumma",
      "countryCode": "IN",
      "stateCode": "KL",
      "latitude": "9.35672000",
      "longitude": "76.41343000"
   },
   {
      "name": "Kutiatodu",
      "countryCode": "IN",
      "stateCode": "KL",
      "latitude": "9.80000000",
      "longitude": "76.33333000"
   },
   {
      "name": "Kuttampuzha",
      "countryCode": "IN",
      "stateCode": "KL",
      "latitude": "10.15033000",
      "longitude": "76.73544000"
   },
   {
      "name": "Lalam",
      "countryCode": "IN",
      "stateCode": "KL",
      "latitude": "9.71667000",
      "longitude": "76.70000000"
   },
   {
      "name": "Mahē",
      "countryCode": "IN",
      "stateCode": "KL",
      "latitude": "11.70172000",
      "longitude": "75.53474000"
   },
   {
      "name": "Malappuram",
      "countryCode": "IN",
      "stateCode": "KL",
      "latitude": "11.00000000",
      "longitude": "76.16667000"
   },
   {
      "name": "Manjeri",
      "countryCode": "IN",
      "stateCode": "KL",
      "latitude": "11.12018000",
      "longitude": "76.11996000"
   },
   {
      "name": "Manjēshvar",
      "countryCode": "IN",
      "stateCode": "KL",
      "latitude": "12.71287000",
      "longitude": "74.88857000"
   },
   {
      "name": "Mannarakkat",
      "countryCode": "IN",
      "stateCode": "KL",
      "latitude": "10.99223000",
      "longitude": "76.46418000"
   },
   {
      "name": "Marayur",
      "countryCode": "IN",
      "stateCode": "KL",
      "latitude": "10.27641000",
      "longitude": "77.16205000"
   },
   {
      "name": "Mattanur",
      "countryCode": "IN",
      "stateCode": "KL",
      "latitude": "11.93018000",
      "longitude": "75.57152000"
   },
   {
      "name": "Mavelikara",
      "countryCode": "IN",
      "stateCode": "KL",
      "latitude": "9.25929000",
      "longitude": "76.55642000"
   },
   {
      "name": "Mavoor",
      "countryCode": "IN",
      "stateCode": "KL",
      "latitude": "11.26667000",
      "longitude": "75.91667000"
   },
   {
      "name": "Muluppilagadu",
      "countryCode": "IN",
      "stateCode": "KL",
      "latitude": "11.79788000",
      "longitude": "75.45111000"
   },
   {
      "name": "Munnar",
      "countryCode": "IN",
      "stateCode": "KL",
      "latitude": "10.08818000",
      "longitude": "77.06239000"
   },
   {
      "name": "Muvattupula",
      "countryCode": "IN",
      "stateCode": "KL",
      "latitude": "9.98493000",
      "longitude": "76.57728000"
   },
   {
      "name": "Muvattupuzha",
      "countryCode": "IN",
      "stateCode": "KL",
      "latitude": "9.97985000",
      "longitude": "76.57381000"
   },
   {
      "name": "Nadapuram",
      "countryCode": "IN",
      "stateCode": "KL",
      "latitude": "11.68465000",
      "longitude": "75.65493000"
   },
   {
      "name": "Naduvannur",
      "countryCode": "IN",
      "stateCode": "KL",
      "latitude": "11.48772000",
      "longitude": "75.77511000"
   },
   {
      "name": "Nedumangad",
      "countryCode": "IN",
      "stateCode": "KL",
      "latitude": "8.60267000",
      "longitude": "77.00139000"
   },
   {
      "name": "Neyyattinkara",
      "countryCode": "IN",
      "stateCode": "KL",
      "latitude": "8.39854000",
      "longitude": "77.08586000"
   },
   {
      "name": "Nilēshwar",
      "countryCode": "IN",
      "stateCode": "KL",
      "latitude": "12.25953000",
      "longitude": "75.13520000"
   },
   {
      "name": "Ottappalam",
      "countryCode": "IN",
      "stateCode": "KL",
      "latitude": "10.77350000",
      "longitude": "76.37758000"
   },
   {
      "name": "Palackattumala",
      "countryCode": "IN",
      "stateCode": "KL",
      "latitude": "9.74356000",
      "longitude": "76.62940000"
   },
   {
      "name": "Palakkad district",
      "countryCode": "IN",
      "stateCode": "KL",
      "latitude": "10.77500000",
      "longitude": "76.65100000"
   },
   {
      "name": "Palghat",
      "countryCode": "IN",
      "stateCode": "KL",
      "latitude": "10.77319000",
      "longitude": "76.65366000"
   },
   {
      "name": "Panamaram",
      "countryCode": "IN",
      "stateCode": "KL",
      "latitude": "11.74014000",
      "longitude": "76.07369000"
   },
   {
      "name": "Pappinisshēri",
      "countryCode": "IN",
      "stateCode": "KL",
      "latitude": "11.95655000",
      "longitude": "75.34034000"
   },
   {
      "name": "Paravur Tekkumbhagam",
      "countryCode": "IN",
      "stateCode": "KL",
      "latitude": "8.79470000",
      "longitude": "76.66798000"
   },
   {
      "name": "Pariyapuram",
      "countryCode": "IN",
      "stateCode": "KL",
      "latitude": "11.01667000",
      "longitude": "75.86667000"
   },
   {
      "name": "Pathanamthitta",
      "countryCode": "IN",
      "stateCode": "KL",
      "latitude": "9.26667000",
      "longitude": "76.78333000"
   },
   {
      "name": "Pattanamtitta",
      "countryCode": "IN",
      "stateCode": "KL",
      "latitude": "9.28068000",
      "longitude": "76.86967000"
   },
   {
      "name": "Payyannur",
      "countryCode": "IN",
      "stateCode": "KL",
      "latitude": "12.09350000",
      "longitude": "75.20249000"
   },
   {
      "name": "Perumbavoor",
      "countryCode": "IN",
      "stateCode": "KL",
      "latitude": "10.10695000",
      "longitude": "76.47366000"
   },
   {
      "name": "Perumpavur",
      "countryCode": "IN",
      "stateCode": "KL",
      "latitude": "10.11544000",
      "longitude": "76.47611000"
   },
   {
      "name": "Perya",
      "countryCode": "IN",
      "stateCode": "KL",
      "latitude": "11.83334000",
      "longitude": "75.85408000"
   },
   {
      "name": "Piravam",
      "countryCode": "IN",
      "stateCode": "KL",
      "latitude": "9.86667000",
      "longitude": "76.50000000"
   },
   {
      "name": "Ponmana",
      "countryCode": "IN",
      "stateCode": "KL",
      "latitude": "9.00798000",
      "longitude": "76.52023000"
   },
   {
      "name": "Ponnani",
      "countryCode": "IN",
      "stateCode": "KL",
      "latitude": "10.76695000",
      "longitude": "75.92523000"
   },
   {
      "name": "Punalur",
      "countryCode": "IN",
      "stateCode": "KL",
      "latitude": "9.01956000",
      "longitude": "76.92261000"
   },
   {
      "name": "Ramamangalam",
      "countryCode": "IN",
      "stateCode": "KL",
      "latitude": "9.93333000",
      "longitude": "76.50000000"
   },
   {
      "name": "Shertallai",
      "countryCode": "IN",
      "stateCode": "KL",
      "latitude": "9.68581000",
      "longitude": "76.33996000"
   },
   {
      "name": "Shōranur",
      "countryCode": "IN",
      "stateCode": "KL",
      "latitude": "10.76181000",
      "longitude": "76.27078000"
   },
   {
      "name": "Talipparamba",
      "countryCode": "IN",
      "stateCode": "KL",
      "latitude": "12.04161000",
      "longitude": "75.35927000"
   },
   {
      "name": "Tellicherry",
      "countryCode": "IN",
      "stateCode": "KL",
      "latitude": "11.74811000",
      "longitude": "75.49290000"
   },
   {
      "name": "Thanniyam",
      "countryCode": "IN",
      "stateCode": "KL",
      "latitude": "10.41667000",
      "longitude": "76.13333000"
   },
   {
      "name": "Thiruvananthapuram",
      "countryCode": "IN",
      "stateCode": "KL",
      "latitude": "8.60399000",
      "longitude": "76.98574000"
   },
   {
      "name": "Thrissur",
      "countryCode": "IN",
      "stateCode": "KL",
      "latitude": "10.51667000",
      "longitude": "76.21667000"
   },
   {
      "name": "Thrissur District",
      "countryCode": "IN",
      "stateCode": "KL",
      "latitude": "10.52022000",
      "longitude": "76.22040000"
   },
   {
      "name": "Tirur",
      "countryCode": "IN",
      "stateCode": "KL",
      "latitude": "10.91368000",
      "longitude": "75.92118000"
   },
   {
      "name": "Tiruvalla",
      "countryCode": "IN",
      "stateCode": "KL",
      "latitude": "9.38160000",
      "longitude": "76.57489000"
   },
   {
      "name": "Vaikam",
      "countryCode": "IN",
      "stateCode": "KL",
      "latitude": "9.74858000",
      "longitude": "76.39637000"
   },
   {
      "name": "Varkala",
      "countryCode": "IN",
      "stateCode": "KL",
      "latitude": "8.73330000",
      "longitude": "76.71670000"
   },
   {
      "name": "Vayalar",
      "countryCode": "IN",
      "stateCode": "KL",
      "latitude": "9.71158000",
      "longitude": "76.33888000"
   },
   {
      "name": "Vettur",
      "countryCode": "IN",
      "stateCode": "KL",
      "latitude": "8.71742000",
      "longitude": "76.72582000"
   },
   {
      "name": "Wayanad",
      "countryCode": "IN",
      "stateCode": "KL",
      "latitude": "11.60500000",
      "longitude": "76.08300000"
   }
]