[
   {
      "name": "Barberena",
      "countryCode": "GT",
      "stateCode": "SR",
      "latitude": "14.30739000",
      "longitude": "-90.36156000"
   },
   {
      "name": "Casillas",
      "countryCode": "GT",
      "stateCode": "SR",
      "latitude": "14.42222000",
      "longitude": "-90.24417000"
   },
   {
      "name": "Chiquimulilla",
      "countryCode": "GT",
      "stateCode": "SR",
      "latitude": "14.08380000",
      "longitude": "-90.38547000"
   },
   {
      "name": "Cuilapa",
      "countryCode": "GT",
      "stateCode": "SR",
      "latitude": "14.27639000",
      "longitude": "-90.29889000"
   },
   {
      "name": "Guazacapán",
      "countryCode": "GT",
      "stateCode": "SR",
      "latitude": "14.07417000",
      "longitude": "-90.41667000"
   },
   {
      "name": "Municipio de Casillas",
      "countryCode": "GT",
      "stateCode": "SR",
      "latitude": "14.37854000",
      "longitude": "-90.17260000"
   },
   {
      "name": "Municipio de Chiquimulilla",
      "countryCode": "GT",
      "stateCode": "SR",
      "latitude": "14.09716000",
      "longitude": "-90.37903000"
   },
   {
      "name": "Municipio de Guazacapán",
      "countryCode": "GT",
      "stateCode": "SR",
      "latitude": "14.01786000",
      "longitude": "-90.43400000"
   },
   {
      "name": "Nueva Santa Rosa",
      "countryCode": "GT",
      "stateCode": "SR",
      "latitude": "14.38111000",
      "longitude": "-90.27611000"
   },
   {
      "name": "Oratorio",
      "countryCode": "GT",
      "stateCode": "SR",
      "latitude": "14.22806000",
      "longitude": "-90.17583000"
   },
   {
      "name": "Pueblo Nuevo Viñas",
      "countryCode": "GT",
      "stateCode": "SR",
      "latitude": "14.22576000",
      "longitude": "-90.47613000"
   },
   {
      "name": "San Juan Tecuaco",
      "countryCode": "GT",
      "stateCode": "SR",
      "latitude": "14.08361000",
      "longitude": "-90.26649000"
   },
   {
      "name": "San Rafael Las Flores",
      "countryCode": "GT",
      "stateCode": "SR",
      "latitude": "14.48139000",
      "longitude": "-90.17333000"
   },
   {
      "name": "Santa Cruz Naranjo",
      "countryCode": "GT",
      "stateCode": "SR",
      "latitude": "14.38806000",
      "longitude": "-90.36972000"
   },
   {
      "name": "Santa María Ixhuatán",
      "countryCode": "GT",
      "stateCode": "SR",
      "latitude": "14.19000000",
      "longitude": "-90.27472000"
   },
   {
      "name": "Santa Rosa de Lima",
      "countryCode": "GT",
      "stateCode": "SR",
      "latitude": "14.38806000",
      "longitude": "-90.29556000"
   },
   {
      "name": "Taxisco",
      "countryCode": "GT",
      "stateCode": "SR",
      "latitude": "14.06719000",
      "longitude": "-90.46791000"
   }
]