[
   {
      "name": "Assiniboia",
      "countryCode": "CA",
      "stateCode": "SK",
      "latitude": "49.63336000",
      "longitude": "-105.98446000"
   },
   {
      "name": "Biggar",
      "countryCode": "CA",
      "stateCode": "SK",
      "latitude": "52.06680000",
      "longitude": "-108.00135000"
   },
   {
      "name": "Canora",
      "countryCode": "CA",
      "stateCode": "SK",
      "latitude": "51.63328000",
      "longitude": "-102.43425000"
   },
   {
      "name": "Carlyle",
      "countryCode": "CA",
      "stateCode": "SK",
      "latitude": "49.63334000",
      "longitude": "-102.26765000"
   },
   {
      "name": "Dalmeny",
      "countryCode": "CA",
      "stateCode": "SK",
      "latitude": "52.33339000",
      "longitude": "-106.76792000"
   },
   {
      "name": "Esterhazy",
      "countryCode": "CA",
      "stateCode": "SK",
      "latitude": "50.65001000",
      "longitude": "-102.08426000"
   },
   {
      "name": "Estevan",
      "countryCode": "CA",
      "stateCode": "SK",
      "latitude": "49.13337000",
      "longitude": "-102.98422000"
   },
   {
      "name": "Foam Lake",
      "countryCode": "CA",
      "stateCode": "SK",
      "latitude": "51.65001000",
      "longitude": "-103.53431000"
   },
   {
      "name": "Gravelbourg",
      "countryCode": "CA",
      "stateCode": "SK",
      "latitude": "49.88336000",
      "longitude": "-106.55122000"
   },
   {
      "name": "Hudson Bay",
      "countryCode": "CA",
      "stateCode": "SK",
      "latitude": "52.85003000",
      "longitude": "-102.38425000"
   },
   {
      "name": "Humboldt",
      "countryCode": "CA",
      "stateCode": "SK",
      "latitude": "52.20005000",
      "longitude": "-105.12550000"
   },
   {
      "name": "Indian Head",
      "countryCode": "CA",
      "stateCode": "SK",
      "latitude": "50.53336000",
      "longitude": "-103.66775000"
   },
   {
      "name": "Kamsack",
      "countryCode": "CA",
      "stateCode": "SK",
      "latitude": "51.56668000",
      "longitude": "-101.90093000"
   },
   {
      "name": "Kerrobert",
      "countryCode": "CA",
      "stateCode": "SK",
      "latitude": "51.91682000",
      "longitude": "-109.13479000"
   },
   {
      "name": "Kindersley",
      "countryCode": "CA",
      "stateCode": "SK",
      "latitude": "51.46681000",
      "longitude": "-109.16818000"
   },
   {
      "name": "La Ronge",
      "countryCode": "CA",
      "stateCode": "SK",
      "latitude": "55.10013000",
      "longitude": "-105.28422000"
   },
   {
      "name": "Langenburg",
      "countryCode": "CA",
      "stateCode": "SK",
      "latitude": "50.84999000",
      "longitude": "-101.71763000"
   },
   {
      "name": "Langham",
      "countryCode": "CA",
      "stateCode": "SK",
      "latitude": "52.36680000",
      "longitude": "-106.96793000"
   },
   {
      "name": "Lanigan",
      "countryCode": "CA",
      "stateCode": "SK",
      "latitude": "51.85006000",
      "longitude": "-105.03443000"
   },
   {
      "name": "Lumsden",
      "countryCode": "CA",
      "stateCode": "SK",
      "latitude": "50.65009000",
      "longitude": "-104.86783000"
   },
   {
      "name": "Macklin",
      "countryCode": "CA",
      "stateCode": "SK",
      "latitude": "52.33344000",
      "longitude": "-109.93484000"
   },
   {
      "name": "Maple Creek",
      "countryCode": "CA",
      "stateCode": "SK",
      "latitude": "49.91678000",
      "longitude": "-109.48481000"
   },
   {
      "name": "Martensville",
      "countryCode": "CA",
      "stateCode": "SK",
      "latitude": "52.28339000",
      "longitude": "-106.66792000"
   },
   {
      "name": "Meadow Lake",
      "countryCode": "CA",
      "stateCode": "SK",
      "latitude": "54.13348000",
      "longitude": "-108.43471000"
   },
   {
      "name": "Melfort",
      "countryCode": "CA",
      "stateCode": "SK",
      "latitude": "52.86673000",
      "longitude": "-104.61768000"
   },
   {
      "name": "Melville",
      "countryCode": "CA",
      "stateCode": "SK",
      "latitude": "50.91671000",
      "longitude": "-102.80099000"
   },
   {
      "name": "Moose Jaw",
      "countryCode": "CA",
      "stateCode": "SK",
      "latitude": "50.40005000",
      "longitude": "-105.53445000"
   },
   {
      "name": "Moosomin",
      "countryCode": "CA",
      "stateCode": "SK",
      "latitude": "50.13332000",
      "longitude": "-101.66766000"
   },
   {
      "name": "Nipawin",
      "countryCode": "CA",
      "stateCode": "SK",
      "latitude": "53.36678000",
      "longitude": "-104.00092000"
   },
   {
      "name": "North Battleford",
      "countryCode": "CA",
      "stateCode": "SK",
      "latitude": "52.77972000",
      "longitude": "-108.29670000"
   },
   {
      "name": "Outlook",
      "countryCode": "CA",
      "stateCode": "SK",
      "latitude": "51.50008000",
      "longitude": "-107.05128000"
   },
   {
      "name": "Oxbow",
      "countryCode": "CA",
      "stateCode": "SK",
      "latitude": "49.23335000",
      "longitude": "-102.16760000"
   },
   {
      "name": "Pelican Narrows",
      "countryCode": "CA",
      "stateCode": "SK",
      "latitude": "55.16685000",
      "longitude": "-102.93410000"
   },
   {
      "name": "Pilot Butte",
      "countryCode": "CA",
      "stateCode": "SK",
      "latitude": "50.46678000",
      "longitude": "-104.41778000"
   },
   {
      "name": "Preeceville",
      "countryCode": "CA",
      "stateCode": "SK",
      "latitude": "51.94998000",
      "longitude": "-102.66766000"
   },
   {
      "name": "Prince Albert",
      "countryCode": "CA",
      "stateCode": "SK",
      "latitude": "53.20008000",
      "longitude": "-105.76772000"
   },
   {
      "name": "Regina",
      "countryCode": "CA",
      "stateCode": "SK",
      "latitude": "50.45008000",
      "longitude": "-104.61780000"
   },
   {
      "name": "Regina Beach",
      "countryCode": "CA",
      "stateCode": "SK",
      "latitude": "50.78338000",
      "longitude": "-105.00112000"
   },
   {
      "name": "Rosetown",
      "countryCode": "CA",
      "stateCode": "SK",
      "latitude": "51.55010000",
      "longitude": "-108.00136000"
   },
   {
      "name": "Rosthern",
      "countryCode": "CA",
      "stateCode": "SK",
      "latitude": "52.66679000",
      "longitude": "-106.33446000"
   },
   {
      "name": "Saskatoon",
      "countryCode": "CA",
      "stateCode": "SK",
      "latitude": "52.13238000",
      "longitude": "-106.66892000"
   },
   {
      "name": "Shaunavon",
      "countryCode": "CA",
      "stateCode": "SK",
      "latitude": "49.65005000",
      "longitude": "-108.41810000"
   },
   {
      "name": "Shellbrook",
      "countryCode": "CA",
      "stateCode": "SK",
      "latitude": "53.21679000",
      "longitude": "-106.40109000"
   },
   {
      "name": "Swift Current",
      "countryCode": "CA",
      "stateCode": "SK",
      "latitude": "50.28337000",
      "longitude": "-107.80135000"
   },
   {
      "name": "Tisdale",
      "countryCode": "CA",
      "stateCode": "SK",
      "latitude": "52.85002000",
      "longitude": "-104.05096000"
   },
   {
      "name": "Unity",
      "countryCode": "CA",
      "stateCode": "SK",
      "latitude": "52.45014000",
      "longitude": "-109.16816000"
   },
   {
      "name": "Wadena",
      "countryCode": "CA",
      "stateCode": "SK",
      "latitude": "51.94999000",
      "longitude": "-103.80102000"
   },
   {
      "name": "Warman",
      "countryCode": "CA",
      "stateCode": "SK",
      "latitude": "52.31679000",
      "longitude": "-106.56791000"
   },
   {
      "name": "Watrous",
      "countryCode": "CA",
      "stateCode": "SK",
      "latitude": "51.66677000",
      "longitude": "-105.46788000"
   },
   {
      "name": "Weyburn",
      "countryCode": "CA",
      "stateCode": "SK",
      "latitude": "49.66675000",
      "longitude": "-103.85109000"
   },
   {
      "name": "White City",
      "countryCode": "CA",
      "stateCode": "SK",
      "latitude": "50.43338000",
      "longitude": "-104.36778000"
   },
   {
      "name": "Wilkie",
      "countryCode": "CA",
      "stateCode": "SK",
      "latitude": "52.41683000",
      "longitude": "-108.70142000"
   },
   {
      "name": "Wynyard",
      "countryCode": "CA",
      "stateCode": "SK",
      "latitude": "51.76674000",
      "longitude": "-104.18436000"
   },
   {
      "name": "Yorkton",
      "countryCode": "CA",
      "stateCode": "SK",
      "latitude": "51.21670000",
      "longitude": "-102.46766000"
   }
]