[
   {
      "name": "Abocho",
      "countryCode": "NG",
      "stateCode": "KO",
      "latitude": "7.56770000",
      "longitude": "6.98630000"
   },
   {
      "name": "Adoru",
      "countryCode": "NG",
      "stateCode": "KO",
      "latitude": "6.97694000",
      "longitude": "7.16262000"
   },
   {
      "name": "Ankpa",
      "countryCode": "NG",
      "stateCode": "KO",
      "latitude": "7.40249000",
      "longitude": "7.63196000"
   },
   {
      "name": "Bugana",
      "countryCode": "NG",
      "stateCode": "KO",
      "latitude": "7.99917000",
      "longitude": "7.58361000"
   },
   {
      "name": "Dekina",
      "countryCode": "NG",
      "stateCode": "KO",
      "latitude": "7.68967000",
      "longitude": "7.04380000"
   },
   {
      "name": "Egbe",
      "countryCode": "NG",
      "stateCode": "KO",
      "latitude": "8.21667000",
      "longitude": "5.51667000"
   },
   {
      "name": "Icheu",
      "countryCode": "NG",
      "stateCode": "KO",
      "latitude": "7.70670000",
      "longitude": "6.77180000"
   },
   {
      "name": "Idah",
      "countryCode": "NG",
      "stateCode": "KO",
      "latitude": "7.11345000",
      "longitude": "6.73866000"
   },
   {
      "name": "Isanlu-Itedoijowa",
      "countryCode": "NG",
      "stateCode": "KO",
      "latitude": "8.27445000",
      "longitude": "5.83528000"
   },
   {
      "name": "Kabba",
      "countryCode": "NG",
      "stateCode": "KO",
      "latitude": "7.82719000",
      "longitude": "6.07502000"
   },
   {
      "name": "Koton-Karfe",
      "countryCode": "NG",
      "stateCode": "KO",
      "latitude": "8.09120000",
      "longitude": "6.79782000"
   },
   {
      "name": "Lokoja",
      "countryCode": "NG",
      "stateCode": "KO",
      "latitude": "7.79688000",
      "longitude": "6.74048000"
   },
   {
      "name": "Ogaminana",
      "countryCode": "NG",
      "stateCode": "KO",
      "latitude": "7.59383000",
      "longitude": "6.21798000"
   },
   {
      "name": "Ogurugu",
      "countryCode": "NG",
      "stateCode": "KO",
      "latitude": "6.78636000",
      "longitude": "6.95017000"
   },
   {
      "name": "Okene",
      "countryCode": "NG",
      "stateCode": "KO",
      "latitude": "7.55122000",
      "longitude": "6.23589000"
   }
]