[
   {
      "name": "Akmenė District Municipality",
      "isoCode": "01",
      "countryCode": "LT",
      "latitude": "56.24550290",
      "longitude": "22.74711690"
   },
   {
      "name": "Alytus City Municipality",
      "isoCode": "02",
      "countryCode": "LT",
      "latitude": "54.39629380",
      "longitude": "24.04587610"
   },
   {
      "name": "Alytus District Municipality",
      "isoCode": "03",
      "countryCode": "LT",
      "latitude": "54.32974960",
      "longitude": "24.19609310"
   },
   {
      "name": "Birštonas Municipality",
      "isoCode": "05",
      "countryCode": "LT",
      "latitude": "54.56696640",
      "longitude": "24.00930980"
   },
   {
      "name": "Biržai District Municipality",
      "isoCode": "06",
      "countryCode": "LT",
      "latitude": "56.20177190",
      "longitude": "24.75601180"
   },
   {
      "name": "Druskininkai municipality",
      "isoCode": "07",
      "countryCode": "LT",
      "latitude": "53.99336850",
      "longitude": "24.03424380"
   },
   {
      "name": "Elektrėnai municipality",
      "isoCode": "08",
      "countryCode": "LT",
      "latitude": "54.76539340",
      "longitude": "24.77405830"
   },
   {
      "name": "Ignalina District Municipality",
      "isoCode": "09",
      "countryCode": "LT",
      "latitude": "55.40903420",
      "longitude": "26.32848930"
   },
   {
      "name": "Jonava District Municipality",
      "isoCode": "10",
      "countryCode": "LT",
      "latitude": "55.07272420",
      "longitude": "24.27933370"
   },
   {
      "name": "Joniškis District Municipality",
      "isoCode": "11",
      "countryCode": "LT",
      "latitude": "56.23607300",
      "longitude": "23.61365790"
   },
   {
      "name": "Jurbarkas District Municipality",
      "isoCode": "12",
      "countryCode": "LT",
      "latitude": "55.07740700",
      "longitude": "22.74195690"
   },
   {
      "name": "Kaišiadorys District Municipality",
      "isoCode": "13",
      "countryCode": "LT",
      "latitude": "54.85886690",
      "longitude": "24.42779290"
   },
   {
      "name": "Kalvarija municipality",
      "isoCode": "14",
      "countryCode": "LT",
      "latitude": "54.37616740",
      "longitude": "23.19203210"
   },
   {
      "name": "Kaunas City Municipality",
      "isoCode": "15",
      "countryCode": "LT",
      "latitude": "54.91453260",
      "longitude": "23.90535180"
   },
   {
      "name": "Kaunas District Municipality",
      "isoCode": "16",
      "countryCode": "LT",
      "latitude": "54.99362360",
      "longitude": "23.63249410"
   },
   {
      "name": "Kazlų Rūda municipality",
      "isoCode": "17",
      "countryCode": "LT",
      "latitude": "54.78075260",
      "longitude": "23.48402430"
   },
   {
      "name": "Kėdainiai District Municipality",
      "isoCode": "18",
      "countryCode": "LT",
      "latitude": "55.35609470",
      "longitude": "23.98326830"
   },
   {
      "name": "Kelmė District Municipality",
      "isoCode": "19",
      "countryCode": "LT",
      "latitude": "55.62663520",
      "longitude": "22.87817200"
   },
   {
      "name": "Klaipeda City Municipality",
      "isoCode": "20",
      "countryCode": "LT",
      "latitude": "55.70329480",
      "longitude": "21.14427950"
   },
   {
      "name": "Klaipėda District Municipality",
      "isoCode": "21",
      "countryCode": "LT",
      "latitude": "55.68416150",
      "longitude": "21.44164640"
   },
   {
      "name": "Kretinga District Municipality",
      "isoCode": "22",
      "countryCode": "LT",
      "latitude": "55.88384200",
      "longitude": "21.23509190"
   },
   {
      "name": "Kupiškis District Municipality",
      "isoCode": "23",
      "countryCode": "LT",
      "latitude": "55.84287410",
      "longitude": "25.02958160"
   },
   {
      "name": "Lazdijai District Municipality",
      "isoCode": "24",
      "countryCode": "LT",
      "latitude": "54.23432670",
      "longitude": "23.51565050"
   },
   {
      "name": "Marijampolė Municipality",
      "isoCode": "25",
      "countryCode": "LT",
      "latitude": "54.57110940",
      "longitude": "23.48593710"
   },
   {
      "name": "Mažeikiai District Municipality",
      "isoCode": "26",
      "countryCode": "LT",
      "latitude": "56.30924390",
      "longitude": "22.34146800"
   },
   {
      "name": "Molėtai District Municipality",
      "isoCode": "27",
      "countryCode": "LT",
      "latitude": "55.22653090",
      "longitude": "25.41800110"
   },
   {
      "name": "Neringa Municipality",
      "isoCode": "28",
      "countryCode": "LT",
      "latitude": "55.45724030",
      "longitude": "21.08390050"
   },
   {
      "name": "Pagėgiai municipality",
      "isoCode": "29",
      "countryCode": "LT",
      "latitude": "55.17213200",
      "longitude": "21.96836140"
   },
   {
      "name": "Pakruojis District Municipality",
      "isoCode": "30",
      "countryCode": "LT",
      "latitude": "56.07326050",
      "longitude": "23.93899060"
   },
   {
      "name": "Palanga City Municipality",
      "isoCode": "31",
      "countryCode": "LT",
      "latitude": "55.92019800",
      "longitude": "21.06776140"
   },
   {
      "name": "Panevėžys City Municipality",
      "isoCode": "32",
      "countryCode": "LT",
      "latitude": "55.73479150",
      "longitude": "24.35747740"
   },
   {
      "name": "Panevėžys District Municipality",
      "isoCode": "33",
      "countryCode": "LT",
      "latitude": "55.61667280",
      "longitude": "24.31422830"
   },
   {
      "name": "Pasvalys District Municipality",
      "isoCode": "34",
      "countryCode": "LT",
      "latitude": "56.06046190",
      "longitude": "24.39629100"
   },
   {
      "name": "Plungė District Municipality",
      "isoCode": "35",
      "countryCode": "LT",
      "latitude": "55.91078400",
      "longitude": "21.84540690"
   },
   {
      "name": "Prienai District Municipality",
      "isoCode": "36",
      "countryCode": "LT",
      "latitude": "54.63835800",
      "longitude": "23.94680090"
   },
   {
      "name": "Radviliškis District Municipality",
      "isoCode": "37",
      "countryCode": "LT",
      "latitude": "55.81083990",
      "longitude": "23.54648700"
   },
   {
      "name": "Raseiniai District Municipality",
      "isoCode": "38",
      "countryCode": "LT",
      "latitude": "55.38194990",
      "longitude": "23.11561290"
   },
   {
      "name": "Rietavas municipality",
      "isoCode": "39",
      "countryCode": "LT",
      "latitude": "55.70217190",
      "longitude": "21.99865640"
   },
   {
      "name": "Rokiškis District Municipality",
      "isoCode": "40",
      "countryCode": "LT",
      "latitude": "55.95550390",
      "longitude": "25.58592490"
   },
   {
      "name": "Šakiai District Municipality",
      "isoCode": "41",
      "countryCode": "LT",
      "latitude": "54.95267100",
      "longitude": "23.04801990"
   },
   {
      "name": "Šalčininkai District Municipality",
      "isoCode": "42",
      "countryCode": "LT",
      "latitude": "54.30976700",
      "longitude": "25.38756400"
   },
   {
      "name": "Šiauliai City Municipality",
      "isoCode": "43",
      "countryCode": "LT",
      "latitude": "55.93490850",
      "longitude": "23.31368230"
   },
   {
      "name": "Šiauliai District Municipality",
      "isoCode": "44",
      "countryCode": "LT",
      "latitude": "55.97214560",
      "longitude": "23.03323710"
   },
   {
      "name": "Šilalė District Municipality",
      "isoCode": "45",
      "countryCode": "LT",
      "latitude": "55.49268000",
      "longitude": "22.18455590"
   },
   {
      "name": "Šilutė District Municipality",
      "isoCode": "46",
      "countryCode": "LT",
      "latitude": "55.35041400",
      "longitude": "21.46598590"
   },
   {
      "name": "Širvintos District Municipality",
      "isoCode": "47",
      "countryCode": "LT",
      "latitude": "55.04310200",
      "longitude": "24.95698100"
   },
   {
      "name": "Skuodas District Municipality",
      "isoCode": "48",
      "countryCode": "LT",
      "latitude": "56.27021690",
      "longitude": "21.52143310"
   },
   {
      "name": "Švenčionys District Municipality",
      "isoCode": "49",
      "countryCode": "LT",
      "latitude": "55.10280980",
      "longitude": "26.00718550"
   },
   {
      "name": "Tauragė District Municipality",
      "isoCode": "50",
      "countryCode": "LT",
      "latitude": "55.25036600",
      "longitude": "22.29095000"
   },
   {
      "name": "Telšiai District Municipality",
      "isoCode": "51",
      "countryCode": "LT",
      "latitude": "55.91752150",
      "longitude": "22.34518400"
   },
   {
      "name": "Trakai District Municipality",
      "isoCode": "52",
      "countryCode": "LT",
      "latitude": "54.63791130",
      "longitude": "24.93468940"
   },
   {
      "name": "Ukmergė District Municipality",
      "isoCode": "53",
      "countryCode": "LT",
      "latitude": "55.24526500",
      "longitude": "24.77607490"
   },
   {
      "name": "Utena District Municipality",
      "isoCode": "54",
      "countryCode": "LT",
      "latitude": "55.50846140",
      "longitude": "25.68326420"
   },
   {
      "name": "Varėna District Municipality",
      "isoCode": "55",
      "countryCode": "LT",
      "latitude": "54.22033300",
      "longitude": "24.57899700"
   },
   {
      "name": "Vilkaviškis District Municipality",
      "isoCode": "56",
      "countryCode": "LT",
      "latitude": "54.65194500",
      "longitude": "23.03515500"
   },
   {
      "name": "Vilnius City Municipality",
      "isoCode": "57",
      "countryCode": "LT",
      "latitude": "54.67107610",
      "longitude": "25.28787210"
   },
   {
      "name": "Vilnius District Municipality",
      "isoCode": "58",
      "countryCode": "LT",
      "latitude": "54.77325780",
      "longitude": "25.58671130"
   },
   {
      "name": "Visaginas Municipality",
      "isoCode": "59",
      "countryCode": "LT",
      "latitude": "55.59411800",
      "longitude": "26.43079540"
   },
   {
      "name": "Zarasai District Municipality",
      "isoCode": "60",
      "countryCode": "LT",
      "latitude": "55.73096090",
      "longitude": "26.24529500"
   },
   {
      "name": "Alytus County",
      "isoCode": "AL",
      "countryCode": "LT",
      "latitude": "54.20002140",
      "longitude": "24.15126340"
   },
   {
      "name": "Klaipėda County",
      "isoCode": "KL",
      "countryCode": "LT",
      "latitude": "55.65197440",
      "longitude": "21.37439560"
   },
   {
      "name": "Kaunas County",
      "isoCode": "KU",
      "countryCode": "LT",
      "latitude": "54.98728630",
      "longitude": "23.95257360"
   },
   {
      "name": "Marijampolė County",
      "isoCode": "MR",
      "countryCode": "LT",
      "latitude": "54.78199710",
      "longitude": "23.13413650"
   },
   {
      "name": "Panevėžys County",
      "isoCode": "PN",
      "countryCode": "LT",
      "latitude": "55.97480490",
      "longitude": "25.07947670"
   },
   {
      "name": "Šiauliai County",
      "isoCode": "SA",
      "countryCode": "LT",
      "latitude": "55.99857510",
      "longitude": "23.13800510"
   },
   {
      "name": "Tauragė County",
      "isoCode": "TA",
      "countryCode": "LT",
      "latitude": "55.30725860",
      "longitude": "22.35729390"
   },
   {
      "name": "Telšiai County",
      "isoCode": "TE",
      "countryCode": "LT",
      "latitude": "56.10266160",
      "longitude": "22.11139150"
   },
   {
      "name": "Utena County",
      "isoCode": "UT",
      "countryCode": "LT",
      "latitude": "55.53189690",
      "longitude": "25.79046990"
   },
   {
      "name": "Vilnius County",
      "isoCode": "VL",
      "countryCode": "LT",
      "latitude": "54.80865020",
      "longitude": "25.21821390"
   }
]