[
   {
      "name": "Abadan",
      "countryCode": "IR",
      "stateCode": "06",
      "latitude": "30.33920000",
      "longitude": "48.30430000"
   },
   {
      "name": "Aghajari",
      "countryCode": "IR",
      "stateCode": "06",
      "latitude": "30.70060000",
      "longitude": "49.83150000"
   },
   {
      "name": "Ahvaz",
      "countryCode": "IR",
      "stateCode": "06",
      "latitude": "31.31901000",
      "longitude": "48.68420000"
   },
   {
      "name": "Behbahān",
      "countryCode": "IR",
      "stateCode": "06",
      "latitude": "30.59590000",
      "longitude": "50.24170000"
   },
   {
      "name": "Bāgh Shahrestān-e Malek",
      "countryCode": "IR",
      "stateCode": "06",
      "latitude": "31.50000000",
      "longitude": "49.91667000"
   },
   {
      "name": "Gotvand",
      "countryCode": "IR",
      "stateCode": "06",
      "latitude": "32.21667000",
      "longitude": "48.80000000"
   },
   {
      "name": "Hamidiyeh",
      "countryCode": "IR",
      "stateCode": "06",
      "latitude": "31.48107000",
      "longitude": "48.43303000"
   },
   {
      "name": "Jongīyeh",
      "countryCode": "IR",
      "stateCode": "06",
      "latitude": "31.25583000",
      "longitude": "48.61667000"
   },
   {
      "name": "Karun",
      "countryCode": "IR",
      "stateCode": "06",
      "latitude": "31.27618000",
      "longitude": "48.64174000"
   },
   {
      "name": "Khorramshahr",
      "countryCode": "IR",
      "stateCode": "06",
      "latitude": "30.44079000",
      "longitude": "48.18428000"
   },
   {
      "name": "Masjed Soleymān",
      "countryCode": "IR",
      "stateCode": "06",
      "latitude": "31.93640000",
      "longitude": "49.30390000"
   },
   {
      "name": "Omīdīyeh",
      "countryCode": "IR",
      "stateCode": "06",
      "latitude": "30.76277000",
      "longitude": "49.70226000"
   },
   {
      "name": "Rāmhormoz",
      "countryCode": "IR",
      "stateCode": "06",
      "latitude": "31.27997000",
      "longitude": "49.60351000"
   },
   {
      "name": "Rāmshīr",
      "countryCode": "IR",
      "stateCode": "06",
      "latitude": "30.89315000",
      "longitude": "49.40787000"
   },
   {
      "name": "Shahrak-e Kūlūrī",
      "countryCode": "IR",
      "stateCode": "06",
      "latitude": "32.35276000",
      "longitude": "48.47059000"
   },
   {
      "name": "Shahrestān-e Ahvāz",
      "countryCode": "IR",
      "stateCode": "06",
      "latitude": "31.25000000",
      "longitude": "48.65000000"
   },
   {
      "name": "Shahrestān-e Andīkā",
      "countryCode": "IR",
      "stateCode": "06",
      "latitude": "32.16667000",
      "longitude": "49.53333000"
   },
   {
      "name": "Shahrestān-e Andīmeshk",
      "countryCode": "IR",
      "stateCode": "06",
      "latitude": "32.70000000",
      "longitude": "48.30000000"
   },
   {
      "name": "Shahrestān-e Bandar-e Māhshahr",
      "countryCode": "IR",
      "stateCode": "06",
      "latitude": "30.63333000",
      "longitude": "49.11667000"
   },
   {
      "name": "Shahrestān-e Behbahān",
      "countryCode": "IR",
      "stateCode": "06",
      "latitude": "30.56667000",
      "longitude": "50.20000000"
   },
   {
      "name": "Shahrestān-e Bāvī",
      "countryCode": "IR",
      "stateCode": "06",
      "latitude": "31.50000000",
      "longitude": "48.95000000"
   },
   {
      "name": "Shahrestān-e Dasht-e Āzādegān",
      "countryCode": "IR",
      "stateCode": "06",
      "latitude": "31.70000000",
      "longitude": "48.06667000"
   },
   {
      "name": "Shahrestān-e Dezfūl",
      "countryCode": "IR",
      "stateCode": "06",
      "latitude": "32.56667000",
      "longitude": "48.78333000"
   },
   {
      "name": "Shahrestān-e Hendījān",
      "countryCode": "IR",
      "stateCode": "06",
      "latitude": "30.33333000",
      "longitude": "49.60000000"
   },
   {
      "name": "Shahrestān-e Lālī",
      "countryCode": "IR",
      "stateCode": "06",
      "latitude": "32.41667000",
      "longitude": "49.16667000"
   },
   {
      "name": "Shahrestān-e Masjed Soleymān",
      "countryCode": "IR",
      "stateCode": "06",
      "latitude": "31.98333000",
      "longitude": "49.26667000"
   },
   {
      "name": "Shahrestān-e Omīdīyeh",
      "countryCode": "IR",
      "stateCode": "06",
      "latitude": "30.75000000",
      "longitude": "49.70000000"
   },
   {
      "name": "Shahrestān-e Rāmhormoz",
      "countryCode": "IR",
      "stateCode": "06",
      "latitude": "31.21667000",
      "longitude": "49.65000000"
   },
   {
      "name": "Shahrestān-e Rāmshīr",
      "countryCode": "IR",
      "stateCode": "06",
      "latitude": "30.96667000",
      "longitude": "49.38333000"
   },
   {
      "name": "Shahrestān-e Shādegān",
      "countryCode": "IR",
      "stateCode": "06",
      "latitude": "30.66667000",
      "longitude": "48.66667000"
   },
   {
      "name": "Shahrestān-e Shūsh",
      "countryCode": "IR",
      "stateCode": "06",
      "latitude": "32.03333000",
      "longitude": "48.21667000"
   },
   {
      "name": "Shahrestān-e Shūshtar",
      "countryCode": "IR",
      "stateCode": "06",
      "latitude": "31.90000000",
      "longitude": "48.85000000"
   },
   {
      "name": "Shahrestān-e Ābādān",
      "countryCode": "IR",
      "stateCode": "06",
      "latitude": "30.21667000",
      "longitude": "48.53333000"
   },
   {
      "name": "Shahrestān-e Īz̄eh",
      "countryCode": "IR",
      "stateCode": "06",
      "latitude": "31.91667000",
      "longitude": "49.98333000"
   },
   {
      "name": "Shādegān",
      "countryCode": "IR",
      "stateCode": "06",
      "latitude": "30.64924000",
      "longitude": "48.66497000"
   },
   {
      "name": "Shūsh",
      "countryCode": "IR",
      "stateCode": "06",
      "latitude": "32.19420000",
      "longitude": "48.24360000"
   },
   {
      "name": "Shūshtar",
      "countryCode": "IR",
      "stateCode": "06",
      "latitude": "32.04972000",
      "longitude": "48.84843000"
   },
   {
      "name": "Sūsangerd",
      "countryCode": "IR",
      "stateCode": "06",
      "latitude": "31.56350000",
      "longitude": "48.18958000"
   },
   {
      "name": "sedeyen-e Yek",
      "countryCode": "IR",
      "stateCode": "06",
      "latitude": "31.36205000",
      "longitude": "48.81833000"
   }
]