[
   {
      "name": "Buk-gu",
      "countryCode": "KR",
      "stateCode": "26",
      "latitude": "35.19724000",
      "longitude": "128.99134000"
   },
   {
      "name": "Busan",
      "countryCode": "KR",
      "stateCode": "26",
      "latitude": "35.10168000",
      "longitude": "129.03004000"
   },
   {
      "name": "Dongnae-gu",
      "countryCode": "KR",
      "stateCode": "26",
      "latitude": "35.20447000",
      "longitude": "129.07800000"
   },
   {
      "name": "Gangseo-gu",
      "countryCode": "KR",
      "stateCode": "26",
      "latitude": "35.15930000",
      "longitude": "128.93300000"
   },
   {
      "name": "Geumjeong-gu",
      "countryCode": "KR",
      "stateCode": "26",
      "latitude": "35.25863000",
      "longitude": "129.09010000"
   },
   {
      "name": "Gijang",
      "countryCode": "KR",
      "stateCode": "26",
      "latitude": "35.24417000",
      "longitude": "129.21389000"
   },
   {
      "name": "Gijang-gun",
      "countryCode": "KR",
      "stateCode": "26",
      "latitude": "35.29721000",
      "longitude": "129.20076000"
   },
   {
      "name": "Haeundae-gu",
      "countryCode": "KR",
      "stateCode": "26",
      "latitude": "35.16665000",
      "longitude": "129.16792000"
   },
   {
      "name": "Jung-gu",
      "countryCode": "KR",
      "stateCode": "26",
      "latitude": "35.10594000",
      "longitude": "129.03331000"
   },
   {
      "name": "Nam-gu",
      "countryCode": "KR",
      "stateCode": "26",
      "latitude": "35.13648000",
      "longitude": "129.08266000"
   },
   {
      "name": "Saha-gu",
      "countryCode": "KR",
      "stateCode": "26",
      "latitude": "35.08552000",
      "longitude": "128.98725000"
   },
   {
      "name": "Sasang-gu",
      "countryCode": "KR",
      "stateCode": "26",
      "latitude": "35.14479000",
      "longitude": "128.97986000"
   },
   {
      "name": "Seo-gu",
      "countryCode": "KR",
      "stateCode": "26",
      "latitude": "35.12529000",
      "longitude": "129.01946000"
   },
   {
      "name": "Suyeong-gu",
      "countryCode": "KR",
      "stateCode": "26",
      "latitude": "35.15627000",
      "longitude": "129.11253000"
   },
   {
      "name": "Yeongdo-gu",
      "countryCode": "KR",
      "stateCode": "26",
      "latitude": "35.07849000",
      "longitude": "129.06483000"
   }
]