[
   {
      "name": "Aconibe",
      "countryCode": "GQ",
      "stateCode": "WN",
      "latitude": "1.29683000",
      "longitude": "10.93691000"
   },
   {
      "name": "Ayene",
      "countryCode": "GQ",
      "stateCode": "WN",
      "latitude": "1.85592000",
      "longitude": "10.68994000"
   },
   {
      "name": "Añisoc",
      "countryCode": "GQ",
      "stateCode": "WN",
      "latitude": "1.86580000",
      "longitude": "10.76892000"
   },
   {
      "name": "Mengomeyén",
      "countryCode": "GQ",
      "stateCode": "WN",
      "latitude": "1.69439000",
      "longitude": "11.03422000"
   },
   {
      "name": "Mongomo",
      "countryCode": "GQ",
      "stateCode": "WN",
      "latitude": "1.62742000",
      "longitude": "11.31346000"
   },
   {
      "name": "Nsok",
      "countryCode": "GQ",
      "stateCode": "WN",
      "latitude": "1.12985000",
      "longitude": "11.26603000"
   }
]