[
   {
      "name": "Djamaa",
      "countryCode": "DZ",
      "stateCode": "30",
      "latitude": "33.53388000",
      "longitude": "5.99306000"
   },
   {
      "name": "El Hadjira",
      "countryCode": "DZ",
      "stateCode": "30",
      "latitude": "32.61336000",
      "longitude": "5.51259000"
   },
   {
      "name": "Hassi Messaoud",
      "countryCode": "DZ",
      "stateCode": "30",
      "latitude": "31.68041000",
      "longitude": "6.07286000"
   },
   {
      "name": "Megarine",
      "countryCode": "DZ",
      "stateCode": "30",
      "latitude": "33.19195000",
      "longitude": "6.08695000"
   },
   {
      "name": "Ouargla",
      "countryCode": "DZ",
      "stateCode": "30",
      "latitude": "31.94932000",
      "longitude": "5.32502000"
   },
   {
      "name": "Rouissat",
      "countryCode": "DZ",
      "stateCode": "30",
      "latitude": "31.92427000",
      "longitude": "5.35018000"
   },
   {
      "name": "Sidi Amrane",
      "countryCode": "DZ",
      "stateCode": "30",
      "latitude": "33.49885000",
      "longitude": "6.00803000"
   },
   {
      "name": "Tebesbest",
      "countryCode": "DZ",
      "stateCode": "30",
      "latitude": "33.11667000",
      "longitude": "6.08333000"
   },
   {
      "name": "Touggourt",
      "countryCode": "DZ",
      "stateCode": "30",
      "latitude": "33.10527000",
      "longitude": "6.05796000"
   }
]