[
   {
      "name": "Azimpur",
      "countryCode": "BD",
      "stateCode": "13",
      "latitude": "23.72980000",
      "longitude": "90.38540000"
   },
   {
      "name": "Bhairab Bāzār",
      "countryCode": "BD",
      "stateCode": "13",
      "latitude": "24.05240000",
      "longitude": "90.97640000"
   },
   {
      "name": "Bājitpur",
      "countryCode": "BD",
      "stateCode": "13",
      "latitude": "24.21623000",
      "longitude": "90.95002000"
   },
   {
      "name": "Char Bhadrāsan",
      "countryCode": "BD",
      "stateCode": "13",
      "latitude": "23.30916000",
      "longitude": "90.22698000"
   },
   {
      "name": "Char Golora",
      "countryCode": "BD",
      "stateCode": "13",
      "latitude": "23.82037000",
      "longitude": "90.12175000"
   },
   {
      "name": "Dhaka",
      "countryCode": "BD",
      "stateCode": "13",
      "latitude": "23.81093000",
      "longitude": "90.36542000"
   },
   {
      "name": "Dohār",
      "countryCode": "BD",
      "stateCode": "13",
      "latitude": "23.59311000",
      "longitude": "90.14251000"
   },
   {
      "name": "Faridpur",
      "countryCode": "BD",
      "stateCode": "13",
      "latitude": "23.59419000",
      "longitude": "89.82147000"
   },
   {
      "name": "Gazipur",
      "countryCode": "BD",
      "stateCode": "13",
      "latitude": "24.20689000",
      "longitude": "90.47241000"
   },
   {
      "name": "Gopalganj",
      "countryCode": "BD",
      "stateCode": "13",
      "latitude": "23.16667000",
      "longitude": "89.91667000"
   },
   {
      "name": "Joymontop",
      "countryCode": "BD",
      "stateCode": "13",
      "latitude": "23.78789000",
      "longitude": "90.16472000"
   },
   {
      "name": "Khanbaniara",
      "countryCode": "BD",
      "stateCode": "13",
      "latitude": "23.78225000",
      "longitude": "90.18382000"
   },
   {
      "name": "Kishoregonj",
      "countryCode": "BD",
      "stateCode": "13",
      "latitude": "24.41667000",
      "longitude": "90.95000000"
   },
   {
      "name": "Kishorganj",
      "countryCode": "BD",
      "stateCode": "13",
      "latitude": "24.43944000",
      "longitude": "90.78291000"
   },
   {
      "name": "Madaripur",
      "countryCode": "BD",
      "stateCode": "13",
      "latitude": "23.25000000",
      "longitude": "90.20000000"
   },
   {
      "name": "Manikganj",
      "countryCode": "BD",
      "stateCode": "13",
      "latitude": "23.86667000",
      "longitude": "89.95000000"
   },
   {
      "name": "Mirzāpur",
      "countryCode": "BD",
      "stateCode": "13",
      "latitude": "24.10287000",
      "longitude": "90.09841000"
   },
   {
      "name": "Munshiganj",
      "countryCode": "BD",
      "stateCode": "13",
      "latitude": "23.55000000",
      "longitude": "90.36667000"
   },
   {
      "name": "Narayanganj",
      "countryCode": "BD",
      "stateCode": "13",
      "latitude": "23.75000000",
      "longitude": "90.58333000"
   },
   {
      "name": "Narsingdi",
      "countryCode": "BD",
      "stateCode": "13",
      "latitude": "23.92298000",
      "longitude": "90.71768000"
   },
   {
      "name": "Nāgarpur",
      "countryCode": "BD",
      "stateCode": "13",
      "latitude": "24.05783000",
      "longitude": "89.87696000"
   },
   {
      "name": "Paltan",
      "countryCode": "BD",
      "stateCode": "13",
      "latitude": "23.73625000",
      "longitude": "90.41426000"
   },
   {
      "name": "Parvez Ali",
      "countryCode": "BD",
      "stateCode": "13",
      "latitude": "23.81741000",
      "longitude": "90.11921000"
   },
   {
      "name": "Parvez Ali Hossain",
      "countryCode": "BD",
      "stateCode": "13",
      "latitude": "23.78758000",
      "longitude": "90.16487000"
   },
   {
      "name": "Pālang",
      "countryCode": "BD",
      "stateCode": "13",
      "latitude": "23.21824000",
      "longitude": "90.35076000"
   },
   {
      "name": "Rajbari",
      "countryCode": "BD",
      "stateCode": "13",
      "latitude": "23.66667000",
      "longitude": "89.55000000"
   },
   {
      "name": "Ramnagar",
      "countryCode": "BD",
      "stateCode": "13",
      "latitude": "23.77720000",
      "longitude": "90.17604000"
   },
   {
      "name": "Sakhipur",
      "countryCode": "BD",
      "stateCode": "13",
      "latitude": "24.31988000",
      "longitude": "90.16943000"
   },
   {
      "name": "Sayani",
      "countryCode": "BD",
      "stateCode": "13",
      "latitude": "23.79119000",
      "longitude": "90.16972000"
   },
   {
      "name": "Shariatpur",
      "countryCode": "BD",
      "stateCode": "13",
      "latitude": "23.25000000",
      "longitude": "90.36667000"
   },
   {
      "name": "Sonārgaon",
      "countryCode": "BD",
      "stateCode": "13",
      "latitude": "23.65000000",
      "longitude": "90.61667000"
   },
   {
      "name": "Tangail",
      "countryCode": "BD",
      "stateCode": "13",
      "latitude": "24.33853000",
      "longitude": "89.98667000"
   },
   {
      "name": "Tungi",
      "countryCode": "BD",
      "stateCode": "13",
      "latitude": "23.89154000",
      "longitude": "90.40232000"
   },
   {
      "name": "Tungipāra",
      "countryCode": "BD",
      "stateCode": "13",
      "latitude": "22.89983000",
      "longitude": "89.90326000"
   }
]