[
   {
      "name": "Adh Dhibiyah",
      "countryCode": "SA",
      "stateCode": "05",
      "latitude": "26.02700000",
      "longitude": "43.15700000"
   },
   {
      "name": "Al Bukayrīyah",
      "countryCode": "SA",
      "stateCode": "05",
      "latitude": "26.13915000",
      "longitude": "43.65782000"
   },
   {
      "name": "Al Fuwayliq",
      "countryCode": "SA",
      "stateCode": "05",
      "latitude": "26.44360000",
      "longitude": "43.25164000"
   },
   {
      "name": "Al Mithnab",
      "countryCode": "SA",
      "stateCode": "05",
      "latitude": "25.86012000",
      "longitude": "44.22228000"
   },
   {
      "name": "Al Thybiyah",
      "countryCode": "SA",
      "stateCode": "05",
      "latitude": "26.02700000",
      "longitude": "43.15700000"
   },
   {
      "name": "Ar Rass",
      "countryCode": "SA",
      "stateCode": "05",
      "latitude": "25.86944000",
      "longitude": "43.49730000"
   },
   {
      "name": "Arar",
      "countryCode": "SA",
      "stateCode": "05",
      "latitude": "30.98333333",
      "longitude": "41.01666667"
   },
   {
      "name": "Buraidah",
      "countryCode": "SA",
      "stateCode": "05",
      "latitude": "26.33333333",
      "longitude": "43.96666667"
   },
   {
      "name": "Buraydah",
      "countryCode": "SA",
      "stateCode": "05",
      "latitude": "26.32599000",
      "longitude": "43.97497000"
   },
   {
      "name": "Dukhnah",
      "countryCode": "SA",
      "stateCode": "05",
      "latitude": "25.35621000",
      "longitude": "43.62268000"
   },
   {
      "name": "Nisab",
      "countryCode": "SA",
      "stateCode": "05",
      "latitude": "29.19274000",
      "longitude": "44.71598000"
   },
   {
      "name": "Qiba",
      "countryCode": "SA",
      "stateCode": "05",
      "latitude": "27.40285000",
      "longitude": "44.32770000"
   },
   {
      "name": "Tanūmah",
      "countryCode": "SA",
      "stateCode": "05",
      "latitude": "27.10000000",
      "longitude": "44.13333000"
   },
   {
      "name": "Umm Radamah",
      "countryCode": "SA",
      "stateCode": "05",
      "latitude": "28.67985000",
      "longitude": "44.69549000"
   },
   {
      "name": "Wed Alnkil",
      "countryCode": "SA",
      "stateCode": "05",
      "latitude": "25.42670000",
      "longitude": "42.83430000"
   }
]