[
   {
      "name": "Ansan-si",
      "countryCode": "KR",
      "stateCode": "41",
      "latitude": "37.32361000",
      "longitude": "126.82194000"
   },
   {
      "name": "Anseong",
      "countryCode": "KR",
      "stateCode": "41",
      "latitude": "37.01083000",
      "longitude": "127.27028000"
   },
   {
      "name": "Anyang-si",
      "countryCode": "KR",
      "stateCode": "41",
      "latitude": "37.39250000",
      "longitude": "126.92694000"
   },
   {
      "name": "Bucheon-si",
      "countryCode": "KR",
      "stateCode": "41",
      "latitude": "37.50440000",
      "longitude": "126.76625000"
   },
   {
      "name": "Dongducheon",
      "countryCode": "KR",
      "stateCode": "41",
      "latitude": "37.91889000",
      "longitude": "127.06897000"
   },
   {
      "name": "Gapyeong",
      "countryCode": "KR",
      "stateCode": "41",
      "latitude": "37.83101000",
      "longitude": "127.51059000"
   },
   {
      "name": "Gapyeong-gun",
      "countryCode": "KR",
      "stateCode": "41",
      "latitude": "37.83080000",
      "longitude": "127.51522000"
   },
   {
      "name": "Gimpo-si",
      "countryCode": "KR",
      "stateCode": "41",
      "latitude": "37.63637000",
      "longitude": "126.69270000"
   },
   {
      "name": "Goyang-si",
      "countryCode": "KR",
      "stateCode": "41",
      "latitude": "37.65639000",
      "longitude": "126.83500000"
   },
   {
      "name": "Gunpo-si",
      "countryCode": "KR",
      "stateCode": "41",
      "latitude": "37.34261000",
      "longitude": "126.92149000"
   },
   {
      "name": "Guri-si",
      "countryCode": "KR",
      "stateCode": "41",
      "latitude": "37.59860000",
      "longitude": "127.13940000"
   },
   {
      "name": "Gwacheon-si",
      "countryCode": "KR",
      "stateCode": "41",
      "latitude": "37.43407000",
      "longitude": "126.99989000"
   },
   {
      "name": "Gwangju",
      "countryCode": "KR",
      "stateCode": "41",
      "latitude": "37.41000000",
      "longitude": "127.25722000"
   },
   {
      "name": "Gwangju-si",
      "countryCode": "KR",
      "stateCode": "41",
      "latitude": "37.40329000",
      "longitude": "127.29855000"
   },
   {
      "name": "Gwangmyeong-si",
      "countryCode": "KR",
      "stateCode": "41",
      "latitude": "37.44435000",
      "longitude": "126.86499000"
   },
   {
      "name": "Hanam",
      "countryCode": "KR",
      "stateCode": "41",
      "latitude": "37.54000000",
      "longitude": "127.20556000"
   },
   {
      "name": "Hanam-si",
      "countryCode": "KR",
      "stateCode": "41",
      "latitude": "37.53895000",
      "longitude": "127.21250000"
   },
   {
      "name": "Hwado",
      "countryCode": "KR",
      "stateCode": "41",
      "latitude": "37.65250000",
      "longitude": "127.30750000"
   },
   {
      "name": "Hwaseong-si",
      "countryCode": "KR",
      "stateCode": "41",
      "latitude": "37.20682000",
      "longitude": "126.81690000"
   },
   {
      "name": "Icheon-si",
      "countryCode": "KR",
      "stateCode": "41",
      "latitude": "37.27642000",
      "longitude": "127.43692000"
   },
   {
      "name": "Kwangmyŏng",
      "countryCode": "KR",
      "stateCode": "41",
      "latitude": "37.47722000",
      "longitude": "126.86639000"
   },
   {
      "name": "Munsan",
      "countryCode": "KR",
      "stateCode": "41",
      "latitude": "37.85944000",
      "longitude": "126.78500000"
   },
   {
      "name": "Namyangju",
      "countryCode": "KR",
      "stateCode": "41",
      "latitude": "37.63667000",
      "longitude": "127.21417000"
   },
   {
      "name": "Namyangju-si",
      "countryCode": "KR",
      "stateCode": "41",
      "latitude": "37.65217000",
      "longitude": "127.24010000"
   },
   {
      "name": "Osan",
      "countryCode": "KR",
      "stateCode": "41",
      "latitude": "37.15222000",
      "longitude": "127.07056000"
   },
   {
      "name": "Osan-si",
      "countryCode": "KR",
      "stateCode": "41",
      "latitude": "37.16230000",
      "longitude": "127.05246000"
   },
   {
      "name": "Paju-si",
      "countryCode": "KR",
      "stateCode": "41",
      "latitude": "37.75952000",
      "longitude": "126.77772000"
   },
   {
      "name": "Pocheon-si",
      "countryCode": "KR",
      "stateCode": "41",
      "latitude": "37.89370000",
      "longitude": "127.20028000"
   },
   {
      "name": "Pubal",
      "countryCode": "KR",
      "stateCode": "41",
      "latitude": "37.29167000",
      "longitude": "127.50778000"
   },
   {
      "name": "Pyeongtaek",
      "countryCode": "KR",
      "stateCode": "41",
      "latitude": "37.01372000",
      "longitude": "126.98748000"
   },
   {
      "name": "Seongnam-si",
      "countryCode": "KR",
      "stateCode": "41",
      "latitude": "37.41875000",
      "longitude": "127.12877000"
   },
   {
      "name": "Siheung",
      "countryCode": "KR",
      "stateCode": "41",
      "latitude": "37.39067000",
      "longitude": "126.78880000"
   },
   {
      "name": "Suwon",
      "countryCode": "KR",
      "stateCode": "41",
      "latitude": "37.29111000",
      "longitude": "127.00889000"
   },
   {
      "name": "Uijeongbu-si",
      "countryCode": "KR",
      "stateCode": "41",
      "latitude": "37.73865000",
      "longitude": "127.04770000"
   },
   {
      "name": "Uiwang-si",
      "countryCode": "KR",
      "stateCode": "41",
      "latitude": "37.34500000",
      "longitude": "126.97575000"
   },
   {
      "name": "Wabu",
      "countryCode": "KR",
      "stateCode": "41",
      "latitude": "37.58972000",
      "longitude": "127.22028000"
   },
   {
      "name": "Yangju",
      "countryCode": "KR",
      "stateCode": "41",
      "latitude": "37.83311000",
      "longitude": "127.06169000"
   },
   {
      "name": "Yangju-si",
      "countryCode": "KR",
      "stateCode": "41",
      "latitude": "37.81732000",
      "longitude": "127.04600000"
   },
   {
      "name": "Yangp'yŏng",
      "countryCode": "KR",
      "stateCode": "41",
      "latitude": "37.48972000",
      "longitude": "127.49056000"
   },
   {
      "name": "Yangpyeong-gun",
      "countryCode": "KR",
      "stateCode": "41",
      "latitude": "37.48880000",
      "longitude": "127.49222000"
   },
   {
      "name": "Yeoju-si",
      "countryCode": "KR",
      "stateCode": "41",
      "latitude": "37.29562000",
      "longitude": "127.63668000"
   },
   {
      "name": "Yeoncheon-gun",
      "countryCode": "KR",
      "stateCode": "41",
      "latitude": "38.09404000",
      "longitude": "127.07577000"
   },
   {
      "name": "Yongin-si",
      "countryCode": "KR",
      "stateCode": "41",
      "latitude": "37.23825000",
      "longitude": "127.17795000"
   }
]