[
   {
      "name": "Anse-à-Pitre",
      "countryCode": "HT",
      "stateCode": "SE",
      "latitude": "18.05000000",
      "longitude": "-71.75000000"
   },
   {
      "name": "Arrondissement de Bainet",
      "countryCode": "HT",
      "stateCode": "SE",
      "latitude": "18.25000000",
      "longitude": "-72.85000000"
   },
   {
      "name": "Arrondissement de Jacmel",
      "countryCode": "HT",
      "stateCode": "SE",
      "latitude": "18.33333000",
      "longitude": "-72.50000000"
   },
   {
      "name": "Belle-Anse",
      "countryCode": "HT",
      "stateCode": "SE",
      "latitude": "18.23768000",
      "longitude": "-72.06638000"
   },
   {
      "name": "Cayes-Jacmel",
      "countryCode": "HT",
      "stateCode": "SE",
      "latitude": "18.23110000",
      "longitude": "-72.39545000"
   },
   {
      "name": "Jacmel",
      "countryCode": "HT",
      "stateCode": "SE",
      "latitude": "18.23427000",
      "longitude": "-72.53539000"
   },
   {
      "name": "Kotdefè",
      "countryCode": "HT",
      "stateCode": "SE",
      "latitude": "18.18872000",
      "longitude": "-73.00287000"
   },
   {
      "name": "Marigot",
      "countryCode": "HT",
      "stateCode": "SE",
      "latitude": "18.23167000",
      "longitude": "-72.32289000"
   },
   {
      "name": "Thiotte",
      "countryCode": "HT",
      "stateCode": "SE",
      "latitude": "18.24384000",
      "longitude": "-71.84157000"
   }
]