[
   {
      "name": "Kalangala District",
      "isoCode": "101",
      "countryCode": "UG",
      "latitude": "-0.63505780",
      "longitude": "32.53727410"
   },
   {
      "name": "Kampala District",
      "isoCode": "102",
      "countryCode": "UG",
      "latitude": "0.34759640",
      "longitude": "32.58251970"
   },
   {
      "name": "Kiboga District",
      "isoCode": "103",
      "countryCode": "UG",
      "latitude": "0.96575900",
      "longitude": "31.71954590"
   },
   {
      "name": "Luwero District",
      "isoCode": "104",
      "countryCode": "UG",
      "latitude": "0.82711180",
      "longitude": "32.62774550"
   },
   {
      "name": "Masaka District",
      "isoCode": "105",
      "countryCode": "UG",
      "latitude": "-0.44636910",
      "longitude": "31.90179540"
   },
   {
      "name": "Mpigi District",
      "isoCode": "106",
      "countryCode": "UG",
      "latitude": "0.22735280",
      "longitude": "32.32492360"
   },
   {
      "name": "Mubende District",
      "isoCode": "107",
      "countryCode": "UG",
      "latitude": "0.57727580",
      "longitude": "31.53700030"
   },
   {
      "name": "Mukono District",
      "isoCode": "108",
      "countryCode": "UG",
      "latitude": "0.28354760",
      "longitude": "32.76330360"
   },
   {
      "name": "Nakasongola District",
      "isoCode": "109",
      "countryCode": "UG",
      "latitude": "1.34897210",
      "longitude": "32.44672380"
   },
   {
      "name": "Rakai District",
      "isoCode": "110",
      "countryCode": "UG",
      "latitude": "-0.70691350",
      "longitude": "31.53700030"
   },
   {
      "name": "Sembabule District",
      "isoCode": "111",
      "countryCode": "UG",
      "latitude": "0.06377150",
      "longitude": "31.35416310"
   },
   {
      "name": "Kayunga District",
      "isoCode": "112",
      "countryCode": "UG",
      "latitude": "0.98601820",
      "longitude": "32.85357550"
   },
   {
      "name": "Wakiso District",
      "isoCode": "113",
      "countryCode": "UG",
      "latitude": "0.06301900",
      "longitude": "32.44672380"
   },
   {
      "name": "Lyantonde District",
      "isoCode": "114",
      "countryCode": "UG",
      "latitude": "-0.22406960",
      "longitude": "31.21684660"
   },
   {
      "name": "Mityana District",
      "isoCode": "115",
      "countryCode": "UG",
      "latitude": "0.44548450",
      "longitude": "32.08374450"
   },
   {
      "name": "Nakaseke District",
      "isoCode": "116",
      "countryCode": "UG",
      "latitude": "1.22308480",
      "longitude": "32.08374450"
   },
   {
      "name": "Buikwe District",
      "isoCode": "117",
      "countryCode": "UG",
      "latitude": "0.31440460",
      "longitude": "32.98883190"
   },
   {
      "name": "Bukomansimbi District",
      "isoCode": "118",
      "countryCode": "UG",
      "latitude": "-0.14327520",
      "longitude": "31.60548930"
   },
   {
      "name": "Butambala District",
      "isoCode": "119",
      "countryCode": "UG",
      "latitude": "0.17425000",
      "longitude": "32.10646680"
   },
   {
      "name": "Buvuma District",
      "isoCode": "120",
      "countryCode": "UG",
      "latitude": "-0.37649120",
      "longitude": "33.25879300"
   },
   {
      "name": "Gomba District",
      "isoCode": "121",
      "countryCode": "UG",
      "latitude": "0.22297910",
      "longitude": "31.67393710"
   },
   {
      "name": "Kalungu District",
      "isoCode": "122",
      "countryCode": "UG",
      "latitude": "-0.09528310",
      "longitude": "31.76513620"
   },
   {
      "name": "Kyankwanzi District",
      "isoCode": "123",
      "countryCode": "UG",
      "latitude": "1.09660370",
      "longitude": "31.71954590"
   },
   {
      "name": "Lwengo District",
      "isoCode": "124",
      "countryCode": "UG",
      "latitude": "-0.41652880",
      "longitude": "31.39989950"
   },
   {
      "name": "Kyotera District",
      "isoCode": "125",
      "countryCode": "UG",
      "latitude": "-0.63589880",
      "longitude": "31.54556370"
   },
   {
      "name": "Bugiri District",
      "isoCode": "201",
      "countryCode": "UG",
      "latitude": "0.53161270",
      "longitude": "33.75177230"
   },
   {
      "name": "Busia District",
      "isoCode": "202",
      "countryCode": "UG",
      "latitude": "0.40447310",
      "longitude": "34.01958270"
   },
   {
      "name": "Iganga District",
      "isoCode": "203",
      "countryCode": "UG",
      "latitude": "0.66001370",
      "longitude": "33.48319060"
   },
   {
      "name": "Jinja District",
      "isoCode": "204",
      "countryCode": "UG",
      "latitude": "0.53437430",
      "longitude": "33.30371430"
   },
   {
      "name": "Kamuli District",
      "isoCode": "205",
      "countryCode": "UG",
      "latitude": "0.91871070",
      "longitude": "33.12390490"
   },
   {
      "name": "Kapchorwa District",
      "isoCode": "206",
      "countryCode": "UG",
      "latitude": "1.33502050",
      "longitude": "34.39763560"
   },
   {
      "name": "Katakwi District",
      "isoCode": "207",
      "countryCode": "UG",
      "latitude": "1.97310300",
      "longitude": "34.06414190"
   },
   {
      "name": "Kumi District",
      "isoCode": "208",
      "countryCode": "UG",
      "latitude": "1.48769990",
      "longitude": "33.93039910"
   },
   {
      "name": "Mbale District",
      "isoCode": "209",
      "countryCode": "UG",
      "latitude": "1.03442740",
      "longitude": "34.19768820"
   },
   {
      "name": "Pallisa District",
      "isoCode": "210",
      "countryCode": "UG",
      "latitude": "1.23242060",
      "longitude": "33.75177230"
   },
   {
      "name": "Soroti District",
      "isoCode": "211",
      "countryCode": "UG",
      "latitude": "1.72291170",
      "longitude": "33.52800720"
   },
   {
      "name": "Tororo District",
      "isoCode": "212",
      "countryCode": "UG",
      "latitude": "0.68709940",
      "longitude": "34.06414190"
   },
   {
      "name": "Kaberamaido District",
      "isoCode": "213",
      "countryCode": "UG",
      "latitude": "1.69633220",
      "longitude": "33.21385100"
   },
   {
      "name": "Mayuge District",
      "isoCode": "214",
      "countryCode": "UG",
      "latitude": "-0.21829820",
      "longitude": "33.57280270"
   },
   {
      "name": "Sironko District",
      "isoCode": "215",
      "countryCode": "UG",
      "latitude": "1.23022740",
      "longitude": "34.24910640"
   },
   {
      "name": "Amuria District",
      "isoCode": "216",
      "countryCode": "UG",
      "latitude": "2.03017000",
      "longitude": "33.64275330"
   },
   {
      "name": "Budaka District",
      "isoCode": "217",
      "countryCode": "UG",
      "latitude": "1.10162770",
      "longitude": "33.93039910"
   },
   {
      "name": "Bududa District",
      "isoCode": "218",
      "countryCode": "UG",
      "latitude": "1.00296930",
      "longitude": "34.33381230"
   },
   {
      "name": "Bukedea District",
      "isoCode": "219",
      "countryCode": "UG",
      "latitude": "1.35568980",
      "longitude": "34.10867930"
   },
   {
      "name": "Bukwo District",
      "isoCode": "220",
      "countryCode": "UG",
      "latitude": "1.28186510",
      "longitude": "34.72987650"
   },
   {
      "name": "Butaleja District",
      "isoCode": "221",
      "countryCode": "UG",
      "latitude": "0.84749220",
      "longitude": "33.84112880"
   },
   {
      "name": "Kaliro District",
      "isoCode": "222",
      "countryCode": "UG",
      "latitude": "1.04311070",
      "longitude": "33.48319060"
   },
   {
      "name": "Manafwa District",
      "isoCode": "223",
      "countryCode": "UG",
      "latitude": "0.90635990",
      "longitude": "34.28660910"
   },
   {
      "name": "Namutumba District",
      "isoCode": "224",
      "countryCode": "UG",
      "latitude": "0.84926100",
      "longitude": "33.66233010"
   },
   {
      "name": "Bulambuli District",
      "isoCode": "225",
      "countryCode": "UG",
      "latitude": "1.47988460",
      "longitude": "34.37544140"
   },
   {
      "name": "Buyende District",
      "isoCode": "226",
      "countryCode": "UG",
      "latitude": "1.24136820",
      "longitude": "33.12390490"
   },
   {
      "name": "Kibuku District",
      "isoCode": "227",
      "countryCode": "UG",
      "latitude": "1.04528740",
      "longitude": "33.79925360"
   },
   {
      "name": "Kween District",
      "isoCode": "228",
      "countryCode": "UG",
      "latitude": "1.44387900",
      "longitude": "34.59713200"
   },
   {
      "name": "Luuka District",
      "isoCode": "229",
      "countryCode": "UG",
      "latitude": "0.72505990",
      "longitude": "33.30371430"
   },
   {
      "name": "Namayingo District",
      "isoCode": "230",
      "countryCode": "UG",
      "latitude": "-0.28035750",
      "longitude": "33.75177230"
   },
   {
      "name": "Ngora District",
      "isoCode": "231",
      "countryCode": "UG",
      "latitude": "1.49081150",
      "longitude": "33.75177230"
   },
   {
      "name": "Serere District",
      "isoCode": "232",
      "countryCode": "UG",
      "latitude": "1.49940330",
      "longitude": "33.54900780"
   },
   {
      "name": "Butebo District",
      "isoCode": "233",
      "countryCode": "UG",
      "latitude": "1.21411240",
      "longitude": "33.90808960"
   },
   {
      "name": "Namisindwa District",
      "isoCode": "234",
      "countryCode": "UG",
      "latitude": "0.90710100",
      "longitude": "34.35740370"
   },
   {
      "name": "Adjumani District",
      "isoCode": "301",
      "countryCode": "UG",
      "latitude": "3.25485270",
      "longitude": "31.71954590"
   },
   {
      "name": "Apac District",
      "isoCode": "302",
      "countryCode": "UG",
      "latitude": "1.87302630",
      "longitude": "32.62774550"
   },
   {
      "name": "Arua District",
      "isoCode": "303",
      "countryCode": "UG",
      "latitude": "2.99598460",
      "longitude": "31.17103890"
   },
   {
      "name": "Gulu District",
      "isoCode": "304",
      "countryCode": "UG",
      "latitude": "2.81857760",
      "longitude": "32.44672380"
   },
   {
      "name": "Kitgum District",
      "isoCode": "305",
      "countryCode": "UG",
      "latitude": "3.33968290",
      "longitude": "33.16888830"
   },
   {
      "name": "Kotido District",
      "isoCode": "306",
      "countryCode": "UG",
      "latitude": "3.04156790",
      "longitude": "33.88577470"
   },
   {
      "name": "Lira District",
      "isoCode": "307",
      "countryCode": "UG",
      "latitude": "2.23161690",
      "longitude": "32.94376670"
   },
   {
      "name": "Moroto District",
      "isoCode": "308",
      "countryCode": "UG",
      "latitude": "2.61685450",
      "longitude": "34.59713200"
   },
   {
      "name": "Moyo District",
      "isoCode": "309",
      "countryCode": "UG",
      "latitude": "3.56964640",
      "longitude": "31.67393710"
   },
   {
      "name": "Nebbi District",
      "isoCode": "310",
      "countryCode": "UG",
      "latitude": "2.44093920",
      "longitude": "31.35416310"
   },
   {
      "name": "Nakapiripirit District",
      "isoCode": "311",
      "countryCode": "UG",
      "latitude": "1.96061730",
      "longitude": "34.59713200"
   },
   {
      "name": "Pader District",
      "isoCode": "312",
      "countryCode": "UG",
      "latitude": "2.94306820",
      "longitude": "32.80844960"
   },
   {
      "name": "Yumbe District",
      "isoCode": "313",
      "countryCode": "UG",
      "latitude": "3.46980230",
      "longitude": "31.24832910"
   },
   {
      "name": "Abim District",
      "isoCode": "314",
      "countryCode": "UG",
      "latitude": "2.70669800",
      "longitude": "33.65953370"
   },
   {
      "name": "Amolatar District",
      "isoCode": "315",
      "countryCode": "UG",
      "latitude": "1.60544020",
      "longitude": "32.80844960"
   },
   {
      "name": "Amuru District",
      "isoCode": "316",
      "countryCode": "UG",
      "latitude": "2.96678780",
      "longitude": "32.08374450"
   },
   {
      "name": "Dokolo District",
      "isoCode": "317",
      "countryCode": "UG",
      "latitude": "1.96364210",
      "longitude": "33.03387670"
   },
   {
      "name": "Kaabong District",
      "isoCode": "318",
      "countryCode": "UG",
      "latitude": "3.51262150",
      "longitude": "33.97500180"
   },
   {
      "name": "Koboko District",
      "isoCode": "319",
      "countryCode": "UG",
      "latitude": "3.52370580",
      "longitude": "31.03351000"
   },
   {
      "name": "Maracha District",
      "isoCode": "320",
      "countryCode": "UG",
      "latitude": "3.28731270",
      "longitude": "30.94030230"
   },
   {
      "name": "Oyam District",
      "isoCode": "321",
      "countryCode": "UG",
      "latitude": "2.27762810",
      "longitude": "32.44672380"
   },
   {
      "name": "Agago District",
      "isoCode": "322",
      "countryCode": "UG",
      "latitude": "2.92508200",
      "longitude": "33.34861470"
   },
   {
      "name": "Alebtong District",
      "isoCode": "323",
      "countryCode": "UG",
      "latitude": "2.25457730",
      "longitude": "33.34861470"
   },
   {
      "name": "Amudat District",
      "isoCode": "324",
      "countryCode": "UG",
      "latitude": "1.79162240",
      "longitude": "34.90655100"
   },
   {
      "name": "Kole District",
      "isoCode": "325",
      "countryCode": "UG",
      "latitude": "2.37010970",
      "longitude": "32.76330360"
   },
   {
      "name": "Lamwo District",
      "isoCode": "326",
      "countryCode": "UG",
      "latitude": "3.57075680",
      "longitude": "32.53727410"
   },
   {
      "name": "Napak District",
      "isoCode": "327",
      "countryCode": "UG",
      "latitude": "2.36299450",
      "longitude": "34.24215970"
   },
   {
      "name": "Nwoya District",
      "isoCode": "328",
      "countryCode": "UG",
      "latitude": "2.56244400",
      "longitude": "31.90179540"
   },
   {
      "name": "Otuke District",
      "isoCode": "329",
      "countryCode": "UG",
      "latitude": "2.52140590",
      "longitude": "33.34861470"
   },
   {
      "name": "Zombo District",
      "isoCode": "330",
      "countryCode": "UG",
      "latitude": "2.55442930",
      "longitude": "30.94173680"
   },
   {
      "name": "Omoro District",
      "isoCode": "331",
      "countryCode": "UG",
      "latitude": "2.71522300",
      "longitude": "32.49200880"
   },
   {
      "name": "Pakwach District",
      "isoCode": "332",
      "countryCode": "UG",
      "latitude": "2.46071410",
      "longitude": "31.49417380"
   },
   {
      "name": "Bundibugyo District",
      "isoCode": "401",
      "countryCode": "UG",
      "latitude": "0.68517630",
      "longitude": "30.02029640"
   },
   {
      "name": "Bushenyi District",
      "isoCode": "402",
      "countryCode": "UG",
      "latitude": "-0.48709180",
      "longitude": "30.20510960"
   },
   {
      "name": "Kabale District",
      "isoCode": "404",
      "countryCode": "UG",
      "latitude": "-1.24930840",
      "longitude": "30.06652360"
   },
   {
      "name": "Kabarole District",
      "isoCode": "405",
      "countryCode": "UG",
      "latitude": "0.58507910",
      "longitude": "30.25127280"
   },
   {
      "name": "Kasese District",
      "isoCode": "406",
      "countryCode": "UG",
      "latitude": "0.06462850",
      "longitude": "30.06652360"
   },
   {
      "name": "Kibaale District",
      "isoCode": "407",
      "countryCode": "UG",
      "latitude": "0.90668020",
      "longitude": "31.07937050"
   },
   {
      "name": "Kisoro District",
      "isoCode": "408",
      "countryCode": "UG",
      "latitude": "-1.22094300",
      "longitude": "29.64991620"
   },
   {
      "name": "Masindi District",
      "isoCode": "409",
      "countryCode": "UG",
      "latitude": "1.49203630",
      "longitude": "31.71954590"
   },
   {
      "name": "Mbarara District",
      "isoCode": "410",
      "countryCode": "UG",
      "latitude": "-0.60715960",
      "longitude": "30.65450220"
   },
   {
      "name": "Ntungamo District",
      "isoCode": "411",
      "countryCode": "UG",
      "latitude": "-0.98073410",
      "longitude": "30.25127280"
   },
   {
      "name": "Rukungiri District",
      "isoCode": "412",
      "countryCode": "UG",
      "latitude": "-0.75184900",
      "longitude": "29.92779470"
   },
   {
      "name": "Kamwenge District",
      "isoCode": "413",
      "countryCode": "UG",
      "latitude": "0.22579300",
      "longitude": "30.48184460"
   },
   {
      "name": "Kanungu District",
      "isoCode": "414",
      "countryCode": "UG",
      "latitude": "-0.81952530",
      "longitude": "29.74260400"
   },
   {
      "name": "Kyenjojo District",
      "isoCode": "415",
      "countryCode": "UG",
      "latitude": "0.60929230",
      "longitude": "30.64012310"
   },
   {
      "name": "Buliisa District",
      "isoCode": "416",
      "countryCode": "UG",
      "latitude": "2.02996070",
      "longitude": "31.53700030"
   },
   {
      "name": "Ibanda District",
      "isoCode": "417",
      "countryCode": "UG",
      "latitude": "-0.09648900",
      "longitude": "30.57395790"
   },
   {
      "name": "Isingiro District",
      "isoCode": "418",
      "countryCode": "UG",
      "latitude": "-0.84354300",
      "longitude": "30.80394740"
   },
   {
      "name": "Kiruhura District",
      "isoCode": "419",
      "countryCode": "UG",
      "latitude": "-0.19279980",
      "longitude": "30.80394740"
   },
   {
      "name": "Buhweju District",
      "isoCode": "420",
      "countryCode": "UG",
      "latitude": "-0.29113590",
      "longitude": "30.29741990"
   },
   {
      "name": "Kiryandongo District",
      "isoCode": "421",
      "countryCode": "UG",
      "latitude": "2.01799070",
      "longitude": "32.08374450"
   },
   {
      "name": "Kyegegwa District",
      "isoCode": "422",
      "countryCode": "UG",
      "latitude": "0.48181930",
      "longitude": "31.05500930"
   },
   {
      "name": "Mitooma District",
      "isoCode": "423",
      "countryCode": "UG",
      "latitude": "-0.61932760",
      "longitude": "30.02029640"
   },
   {
      "name": "Ntoroko District",
      "isoCode": "424",
      "countryCode": "UG",
      "latitude": "1.07881780",
      "longitude": "30.38966510"
   },
   {
      "name": "Rubirizi District",
      "isoCode": "425",
      "countryCode": "UG",
      "latitude": "-0.26424100",
      "longitude": "30.10840330"
   },
   {
      "name": "Sheema District",
      "isoCode": "426",
      "countryCode": "UG",
      "latitude": "-0.55152980",
      "longitude": "30.38966510"
   },
   {
      "name": "Kagadi District",
      "isoCode": "427",
      "countryCode": "UG",
      "latitude": "0.94007610",
      "longitude": "30.81256380"
   },
   {
      "name": "Kakumiro District",
      "isoCode": "428",
      "countryCode": "UG",
      "latitude": "0.78080350",
      "longitude": "31.32413890"
   },
   {
      "name": "Rubanda District",
      "isoCode": "429",
      "countryCode": "UG",
      "latitude": "-1.18611900",
      "longitude": "29.84535760"
   },
   {
      "name": "Bunyangabu District",
      "isoCode": "430",
      "countryCode": "UG",
      "latitude": "0.48709180",
      "longitude": "30.20510960"
   },
   {
      "name": "Rukiga District",
      "isoCode": "431",
      "countryCode": "UG",
      "latitude": "-1.13263370",
      "longitude": "30.04341200"
   },
   {
      "name": "Central Region",
      "isoCode": "C",
      "countryCode": "UG",
      "latitude": "44.29687500",
      "longitude": "-94.74017330"
   },
   {
      "name": "Eastern Region",
      "isoCode": "E",
      "countryCode": "UG",
      "latitude": "6.23740360",
      "longitude": "-0.45023680"
   },
   {
      "name": "Northern Region",
      "isoCode": "N",
      "countryCode": "UG",
      "latitude": "9.54392690",
      "longitude": "-0.90566230"
   },
   {
      "name": "Western Region",
      "isoCode": "W",
      "countryCode": "UG",
      "latitude": "40.76672150",
      "longitude": "-111.88772030"
   }
]