[
   {
      "name": "Igugunu",
      "countryCode": "TZ",
      "stateCode": "23",
      "latitude": "-4.56667000",
      "longitude": "34.63333000"
   },
   {
      "name": "Ikungi",
      "countryCode": "TZ",
      "stateCode": "23",
      "latitude": "-5.13333000",
      "longitude": "34.76667000"
   },
   {
      "name": "Ilongero",
      "countryCode": "TZ",
      "stateCode": "23",
      "latitude": "-4.66667000",
      "longitude": "34.86667000"
   },
   {
      "name": "Itigi",
      "countryCode": "TZ",
      "stateCode": "23",
      "latitude": "-5.70000000",
      "longitude": "34.48333000"
   },
   {
      "name": "Kilimatinde",
      "countryCode": "TZ",
      "stateCode": "23",
      "latitude": "-5.85000000",
      "longitude": "34.95000000"
   },
   {
      "name": "Kintinku",
      "countryCode": "TZ",
      "stateCode": "23",
      "latitude": "-5.88333000",
      "longitude": "35.23333000"
   },
   {
      "name": "Kiomboi",
      "countryCode": "TZ",
      "stateCode": "23",
      "latitude": "-4.26667000",
      "longitude": "34.36667000"
   },
   {
      "name": "Mgandu",
      "countryCode": "TZ",
      "stateCode": "23",
      "latitude": "-5.95000000",
      "longitude": "34.13333000"
   },
   {
      "name": "Mtinko",
      "countryCode": "TZ",
      "stateCode": "23",
      "latitude": "-4.55000000",
      "longitude": "34.85000000"
   },
   {
      "name": "Mungaa",
      "countryCode": "TZ",
      "stateCode": "23",
      "latitude": "-4.96667000",
      "longitude": "34.88333000"
   },
   {
      "name": "Ndago",
      "countryCode": "TZ",
      "stateCode": "23",
      "latitude": "-4.60000000",
      "longitude": "34.35000000"
   },
   {
      "name": "Puma",
      "countryCode": "TZ",
      "stateCode": "23",
      "latitude": "-5.00000000",
      "longitude": "34.73333000"
   },
   {
      "name": "Sepuka",
      "countryCode": "TZ",
      "stateCode": "23",
      "latitude": "-4.75000000",
      "longitude": "34.53333000"
   },
   {
      "name": "Shelui",
      "countryCode": "TZ",
      "stateCode": "23",
      "latitude": "-4.36667000",
      "longitude": "34.20000000"
   },
   {
      "name": "Singida",
      "countryCode": "TZ",
      "stateCode": "23",
      "latitude": "-4.81629000",
      "longitude": "34.74358000"
   }
]