[
   {
      "name": "Huyện Anh Sơn",
      "countryCode": "VN",
      "stateCode": "22",
      "latitude": "18.92902000",
      "longitude": "105.08294000"
   },
   {
      "name": "Huyện Con Cuông",
      "countryCode": "VN",
      "stateCode": "22",
      "latitude": "19.03898000",
      "longitude": "104.80353000"
   },
   {
      "name": "Huyện Diễn Châu",
      "countryCode": "VN",
      "stateCode": "22",
      "latitude": "18.98892000",
      "longitude": "105.57625000"
   },
   {
      "name": "Huyện Hưng Nguyên",
      "countryCode": "VN",
      "stateCode": "22",
      "latitude": "18.67811000",
      "longitude": "105.62523000"
   },
   {
      "name": "Huyện Kỳ Sơn",
      "countryCode": "VN",
      "stateCode": "22",
      "latitude": "19.42397000",
      "longitude": "104.22199000"
   },
   {
      "name": "Huyện Nam Đàn",
      "countryCode": "VN",
      "stateCode": "22",
      "latitude": "18.67041000",
      "longitude": "105.52575000"
   },
   {
      "name": "Huyện Nghi Lộc",
      "countryCode": "VN",
      "stateCode": "22",
      "latitude": "18.83131000",
      "longitude": "105.62411000"
   },
   {
      "name": "Huyện Nghĩa Đàn",
      "countryCode": "VN",
      "stateCode": "22",
      "latitude": "19.38234000",
      "longitude": "105.44072000"
   },
   {
      "name": "Huyện Quế Phong",
      "countryCode": "VN",
      "stateCode": "22",
      "latitude": "19.70177000",
      "longitude": "104.87913000"
   },
   {
      "name": "Huyện Quỳ Châu",
      "countryCode": "VN",
      "stateCode": "22",
      "latitude": "19.55707000",
      "longitude": "105.09173000"
   },
   {
      "name": "Huyện Quỳ Hợp",
      "countryCode": "VN",
      "stateCode": "22",
      "latitude": "19.32514000",
      "longitude": "105.16009000"
   },
   {
      "name": "Huyện Quỳnh Lưu",
      "countryCode": "VN",
      "stateCode": "22",
      "latitude": "19.22717000",
      "longitude": "105.64354000"
   },
   {
      "name": "Huyện Thanh Chương",
      "countryCode": "VN",
      "stateCode": "22",
      "latitude": "18.73929000",
      "longitude": "105.24053000"
   },
   {
      "name": "Huyện Tương Dương",
      "countryCode": "VN",
      "stateCode": "22",
      "latitude": "19.30979000",
      "longitude": "104.57788000"
   },
   {
      "name": "Huyện Yên Thành",
      "countryCode": "VN",
      "stateCode": "22",
      "latitude": "19.02724000",
      "longitude": "105.43649000"
   },
   {
      "name": "Huyện Đô Lương",
      "countryCode": "VN",
      "stateCode": "22",
      "latitude": "18.89259000",
      "longitude": "105.34027000"
   },
   {
      "name": "Vinh",
      "countryCode": "VN",
      "stateCode": "22",
      "latitude": "18.67337000",
      "longitude": "105.69232000"
   },
   {
      "name": "Yên Vinh",
      "countryCode": "VN",
      "stateCode": "22",
      "latitude": "18.66667000",
      "longitude": "105.66667000"
   }
]