[
   {
      "name": "Biên Hòa",
      "countryCode": "VN",
      "stateCode": "39",
      "latitude": "10.94469000",
      "longitude": "106.82432000"
   },
   {
      "name": "Huyện Long Thành",
      "countryCode": "VN",
      "stateCode": "39",
      "latitude": "10.76162000",
      "longitude": "107.02688000"
   },
   {
      "name": "Huyện Thống Nhất",
      "countryCode": "VN",
      "stateCode": "39",
      "latitude": "10.97764000",
      "longitude": "107.15909000"
   },
   {
      "name": "Huyện Trảng Bom",
      "countryCode": "VN",
      "stateCode": "39",
      "latitude": "10.96624000",
      "longitude": "107.03614000"
   },
   {
      "name": "Huyện Tân Phú",
      "countryCode": "VN",
      "stateCode": "39",
      "latitude": "11.39867000",
      "longitude": "107.39976000"
   },
   {
      "name": "Huyện Vĩnh Cửu",
      "countryCode": "VN",
      "stateCode": "39",
      "latitude": "11.25725000",
      "longitude": "107.02773000"
   },
   {
      "name": "Huyện Định Quán",
      "countryCode": "VN",
      "stateCode": "39",
      "latitude": "11.21866000",
      "longitude": "107.33959000"
   }
]