[
   {
      "name": "Eot Municipality",
      "countryCode": "FM",
      "stateCode": "TRK",
      "latitude": "7.38540000",
      "longitude": "151.73920000"
   },
   {
      "name": "Ettal Municipality",
      "countryCode": "FM",
      "stateCode": "TRK",
      "latitude": "5.59200000",
      "longitude": "153.56000000"
   },
   {
      "name": "Fananu Municipality",
      "countryCode": "FM",
      "stateCode": "TRK",
      "latitude": "8.55811000",
      "longitude": "151.90822000"
   },
   {
      "name": "Fanapanges Municipality",
      "countryCode": "FM",
      "stateCode": "TRK",
      "latitude": "7.35300000",
      "longitude": "151.66760000"
   },
   {
      "name": "Fefen Municipality",
      "countryCode": "FM",
      "stateCode": "TRK",
      "latitude": "7.35300000",
      "longitude": "151.83100000"
   },
   {
      "name": "Fonoton Municipality",
      "countryCode": "FM",
      "stateCode": "TRK",
      "latitude": "7.48600000",
      "longitude": "151.87940000"
   },
   {
      "name": "Houk Municipality",
      "countryCode": "FM",
      "stateCode": "TRK",
      "latitude": "6.68300000",
      "longitude": "149.30000000"
   },
   {
      "name": "Kuttu Municipality",
      "countryCode": "FM",
      "stateCode": "TRK",
      "latitude": "5.45300000",
      "longitude": "153.45600000"
   },
   {
      "name": "Lekinioch Municipality",
      "countryCode": "FM",
      "stateCode": "TRK",
      "latitude": "5.50700000",
      "longitude": "153.81900000"
   },
   {
      "name": "Losap Municipality",
      "countryCode": "FM",
      "stateCode": "TRK",
      "latitude": "6.89400000",
      "longitude": "152.73900000"
   },
   {
      "name": "Makur Municipality",
      "countryCode": "FM",
      "stateCode": "TRK",
      "latitude": "8.98500000",
      "longitude": "150.12600000"
   },
   {
      "name": "Moch Municipality",
      "countryCode": "FM",
      "stateCode": "TRK",
      "latitude": "5.49180000",
      "longitude": "153.53850000"
   },
   {
      "name": "Murilo",
      "countryCode": "FM",
      "stateCode": "TRK",
      "latitude": "8.69242000",
      "longitude": "152.33934000"
   },
   {
      "name": "Murilo Municipality",
      "countryCode": "FM",
      "stateCode": "TRK",
      "latitude": "8.69200000",
      "longitude": "152.34200000"
   },
   {
      "name": "Namoluk Municipality",
      "countryCode": "FM",
      "stateCode": "TRK",
      "latitude": "5.91500000",
      "longitude": "153.13600000"
   },
   {
      "name": "Nema",
      "countryCode": "FM",
      "stateCode": "TRK",
      "latitude": "6.98922000",
      "longitude": "152.57377000"
   },
   {
      "name": "Nema Municipality",
      "countryCode": "FM",
      "stateCode": "TRK",
      "latitude": "6.99300000",
      "longitude": "152.57400000"
   },
   {
      "name": "Nomwin Municipality",
      "countryCode": "FM",
      "stateCode": "TRK",
      "latitude": "8.43000000",
      "longitude": "151.74500000"
   },
   {
      "name": "Oneop Municipality",
      "countryCode": "FM",
      "stateCode": "TRK",
      "latitude": "5.50660000",
      "longitude": "153.70900000"
   },
   {
      "name": "Onou Municipality",
      "countryCode": "FM",
      "stateCode": "TRK",
      "latitude": "8.79900000",
      "longitude": "150.29000000"
   },
   {
      "name": "Onoun Municipality",
      "countryCode": "FM",
      "stateCode": "TRK",
      "latitude": "8.57500000",
      "longitude": "149.68550000"
   },
   {
      "name": "Paata-Tupunion Municipality",
      "countryCode": "FM",
      "stateCode": "TRK",
      "latitude": "7.37600000",
      "longitude": "151.58300000"
   },
   {
      "name": "Parem Municipality",
      "countryCode": "FM",
      "stateCode": "TRK",
      "latitude": "7.36200000",
      "longitude": "151.78900000"
   },
   {
      "name": "Piherarh Municipality",
      "countryCode": "FM",
      "stateCode": "TRK",
      "latitude": "8.56900000",
      "longitude": "150.41800000"
   },
   {
      "name": "Piis-Emwar Municipality",
      "countryCode": "FM",
      "stateCode": "TRK",
      "latitude": "6.83400000",
      "longitude": "152.70000000"
   },
   {
      "name": "Piis-Panewu Municipality",
      "countryCode": "FM",
      "stateCode": "TRK",
      "latitude": "7.67800000",
      "longitude": "151.76340000"
   },
   {
      "name": "Pollap Municipality",
      "countryCode": "FM",
      "stateCode": "TRK",
      "latitude": "7.63971000",
      "longitude": "149.43011000"
   },
   {
      "name": "Polowat Municipality",
      "countryCode": "FM",
      "stateCode": "TRK",
      "latitude": "7.35500000",
      "longitude": "149.18200000"
   },
   {
      "name": "Pwene Municipality",
      "countryCode": "FM",
      "stateCode": "TRK",
      "latitude": "7.33700000",
      "longitude": "151.58400000"
   },
   {
      "name": "Ramanum Municipality",
      "countryCode": "FM",
      "stateCode": "TRK",
      "latitude": "7.41350000",
      "longitude": "151.66460000"
   },
   {
      "name": "Ruo Municipality",
      "countryCode": "FM",
      "stateCode": "TRK",
      "latitude": "8.60900000",
      "longitude": "152.24400000"
   },
   {
      "name": "Satowan Municipality",
      "countryCode": "FM",
      "stateCode": "TRK",
      "latitude": "5.33400000",
      "longitude": "153.73650000"
   },
   {
      "name": "Siis Municipality",
      "countryCode": "FM",
      "stateCode": "TRK",
      "latitude": "7.29500000",
      "longitude": "151.82460000"
   },
   {
      "name": "Ta Municipality",
      "countryCode": "FM",
      "stateCode": "TRK",
      "latitude": "5.28420000",
      "longitude": "153.64650000"
   },
   {
      "name": "Tamatam Municipality",
      "countryCode": "FM",
      "stateCode": "TRK",
      "latitude": "7.53898000",
      "longitude": "149.41175000"
   },
   {
      "name": "Tolensom Municipality",
      "countryCode": "FM",
      "stateCode": "TRK",
      "latitude": "7.33300000",
      "longitude": "151.62300000"
   },
   {
      "name": "Tonoas Municipality",
      "countryCode": "FM",
      "stateCode": "TRK",
      "latitude": "7.38100000",
      "longitude": "151.89000000"
   },
   {
      "name": "Udot-Fonuweisom Municipality",
      "countryCode": "FM",
      "stateCode": "TRK",
      "latitude": "7.38900000",
      "longitude": "151.70800000"
   },
   {
      "name": "Uman-Fonuweisom Municipality",
      "countryCode": "FM",
      "stateCode": "TRK",
      "latitude": "7.29900000",
      "longitude": "151.87700000"
   },
   {
      "name": "Unanu Municipality",
      "countryCode": "FM",
      "stateCode": "TRK",
      "latitude": "8.75000000",
      "longitude": "150.33950000"
   },
   {
      "name": "Weno",
      "countryCode": "FM",
      "stateCode": "TRK",
      "latitude": "7.44648000",
      "longitude": "151.84135000"
   },
   {
      "name": "Weno Municipality",
      "countryCode": "FM",
      "stateCode": "TRK",
      "latitude": "7.44000000",
      "longitude": "151.88100000"
   },
   {
      "name": "Wonei Municipality",
      "countryCode": "FM",
      "stateCode": "TRK",
      "latitude": "7.38700000",
      "longitude": "151.60100000"
   }
]