[
   {
      "name": "Una-Sana Canton",
      "isoCode": "01",
      "countryCode": "BA",
      "latitude": "44.65031160",
      "longitude": "16.31716290"
   },
   {
      "name": "Posavina Canton",
      "isoCode": "02",
      "countryCode": "BA",
      "latitude": "45.07520940",
      "longitude": "18.37763040"
   },
   {
      "name": "Tuzla Canton",
      "isoCode": "03",
      "countryCode": "BA",
      "latitude": "44.53434630",
      "longitude": "18.69727970"
   },
   {
      "name": "Zenica-Doboj Canton",
      "isoCode": "04",
      "countryCode": "BA",
      "latitude": "44.21271090",
      "longitude": "18.16046250"
   },
   {
      "name": "Bosnian Podrinje Canton",
      "isoCode": "05",
      "countryCode": "BA",
      "latitude": "43.68749000",
      "longitude": "18.82443940"
   },
   {
      "name": "Central Bosnia Canton",
      "isoCode": "06",
      "countryCode": "BA",
      "latitude": "44.13818560",
      "longitude": "17.68667140"
   },
   {
      "name": "Herzegovina-Neretva Canton",
      "isoCode": "07",
      "countryCode": "BA",
      "latitude": "43.52651590",
      "longitude": "17.76362100"
   },
   {
      "name": "West Herzegovina Canton",
      "isoCode": "08",
      "countryCode": "BA",
      "latitude": "43.43692440",
      "longitude": "17.38488310"
   },
   {
      "name": "Sarajevo Canton",
      "isoCode": "09",
      "countryCode": "BA",
      "latitude": "43.85125640",
      "longitude": "18.29534420"
   },
   {
      "name": "Canton 10",
      "isoCode": "10",
      "countryCode": "BA",
      "latitude": "43.95341550",
      "longitude": "16.94251870"
   },
   {
      "name": "Federation of Bosnia and Herzegovina",
      "isoCode": "BIH",
      "countryCode": "BA",
      "latitude": "43.88748970",
      "longitude": "17.84279300"
   },
   {
      "name": "Brƒçko District",
      "isoCode": "BRC",
      "countryCode": "BA",
      "latitude": "44.84059440",
      "longitude": "18.74215300"
   },
   {
      "name": "Republika Srpska",
      "isoCode": "SRP",
      "countryCode": "BA",
      "latitude": "44.72801860",
      "longitude": "17.31481360"
   }
]