[
   {
      "name": "Ardatov",
      "countryCode": "RU",
      "stateCode": "MO",
      "latitude": "54.84767000",
      "longitude": "46.23878000"
   },
   {
      "name": "Ardatovskiy Rayon",
      "countryCode": "RU",
      "stateCode": "MO",
      "latitude": "54.83333000",
      "longitude": "46.25000000"
   },
   {
      "name": "Atemar",
      "countryCode": "RU",
      "stateCode": "MO",
      "latitude": "54.18097000",
      "longitude": "45.40909000"
   },
   {
      "name": "Atyashevo",
      "countryCode": "RU",
      "stateCode": "MO",
      "latitude": "54.56443000",
      "longitude": "46.06905000"
   },
   {
      "name": "Atyashevskiy Rayon",
      "countryCode": "RU",
      "stateCode": "MO",
      "latitude": "54.58333000",
      "longitude": "46.08333000"
   },
   {
      "name": "Atyur’yevskiy Rayon",
      "countryCode": "RU",
      "stateCode": "MO",
      "latitude": "54.33333000",
      "longitude": "43.41667000"
   },
   {
      "name": "Barashevo",
      "countryCode": "RU",
      "stateCode": "MO",
      "latitude": "54.53250000",
      "longitude": "42.87917000"
   },
   {
      "name": "Bol’shebereznikovskiy Rayon",
      "countryCode": "RU",
      "stateCode": "MO",
      "latitude": "54.16667000",
      "longitude": "45.83333000"
   },
   {
      "name": "Chamzinka",
      "countryCode": "RU",
      "stateCode": "MO",
      "latitude": "54.40188000",
      "longitude": "45.78387000"
   },
   {
      "name": "Chamzinskiy Rayon",
      "countryCode": "RU",
      "stateCode": "MO",
      "latitude": "54.41667000",
      "longitude": "45.75000000"
   },
   {
      "name": "Insar",
      "countryCode": "RU",
      "stateCode": "MO",
      "latitude": "53.86531000",
      "longitude": "44.37382000"
   },
   {
      "name": "Insarskiy Rayon",
      "countryCode": "RU",
      "stateCode": "MO",
      "latitude": "53.83333000",
      "longitude": "44.41667000"
   },
   {
      "name": "Kadoshkino",
      "countryCode": "RU",
      "stateCode": "MO",
      "latitude": "54.02570000",
      "longitude": "44.41910000"
   },
   {
      "name": "Kemlya",
      "countryCode": "RU",
      "stateCode": "MO",
      "latitude": "54.69630000",
      "longitude": "45.24240000"
   },
   {
      "name": "Kochkurovo",
      "countryCode": "RU",
      "stateCode": "MO",
      "latitude": "54.03576000",
      "longitude": "45.41845000"
   },
   {
      "name": "Kochkurovskiy Rayon",
      "countryCode": "RU",
      "stateCode": "MO",
      "latitude": "54.00000000",
      "longitude": "45.41667000"
   },
   {
      "name": "Kovylkino",
      "countryCode": "RU",
      "stateCode": "MO",
      "latitude": "54.03876000",
      "longitude": "43.91385000"
   },
   {
      "name": "Krasnoslobodsk",
      "countryCode": "RU",
      "stateCode": "MO",
      "latitude": "54.42530000",
      "longitude": "43.78963000"
   },
   {
      "name": "Krasnoslobodskiy Rayon",
      "countryCode": "RU",
      "stateCode": "MO",
      "latitude": "54.41667000",
      "longitude": "43.75000000"
   },
   {
      "name": "Lepley",
      "countryCode": "RU",
      "stateCode": "MO",
      "latitude": "54.30920000",
      "longitude": "42.85990000"
   },
   {
      "name": "Lukhovka",
      "countryCode": "RU",
      "stateCode": "MO",
      "latitude": "54.14844000",
      "longitude": "45.25728000"
   },
   {
      "name": "Lyambirskiy Rayon",
      "countryCode": "RU",
      "stateCode": "MO",
      "latitude": "54.33333000",
      "longitude": "45.25000000"
   },
   {
      "name": "Lyambir’",
      "countryCode": "RU",
      "stateCode": "MO",
      "latitude": "54.28172000",
      "longitude": "45.12494000"
   },
   {
      "name": "Nikolayevka",
      "countryCode": "RU",
      "stateCode": "MO",
      "latitude": "54.14510000",
      "longitude": "45.14440000"
   },
   {
      "name": "Partsa",
      "countryCode": "RU",
      "stateCode": "MO",
      "latitude": "54.36530000",
      "longitude": "42.86170000"
   },
   {
      "name": "Romodanovo",
      "countryCode": "RU",
      "stateCode": "MO",
      "latitude": "54.42753000",
      "longitude": "45.32962000"
   },
   {
      "name": "Romodanovskiy Rayon",
      "countryCode": "RU",
      "stateCode": "MO",
      "latitude": "54.41667000",
      "longitude": "45.33333000"
   },
   {
      "name": "Ruzayevka",
      "countryCode": "RU",
      "stateCode": "MO",
      "latitude": "54.06387000",
      "longitude": "44.95090000"
   },
   {
      "name": "Ruzayevskiy Rayon",
      "countryCode": "RU",
      "stateCode": "MO",
      "latitude": "54.08333000",
      "longitude": "44.83333000"
   },
   {
      "name": "Saransk",
      "countryCode": "RU",
      "stateCode": "MO",
      "latitude": "54.18380000",
      "longitude": "45.17490000"
   },
   {
      "name": "Shiringushi",
      "countryCode": "RU",
      "stateCode": "MO",
      "latitude": "53.84851000",
      "longitude": "42.76759000"
   },
   {
      "name": "Sosnovka",
      "countryCode": "RU",
      "stateCode": "MO",
      "latitude": "54.71161000",
      "longitude": "43.29774000"
   },
   {
      "name": "Staroshaygovskiy Rayon",
      "countryCode": "RU",
      "stateCode": "MO",
      "latitude": "54.33333000",
      "longitude": "44.50000000"
   },
   {
      "name": "Tatarskaya Pishlya",
      "countryCode": "RU",
      "stateCode": "MO",
      "latitude": "54.06085000",
      "longitude": "44.89978000"
   },
   {
      "name": "Temnikov",
      "countryCode": "RU",
      "stateCode": "MO",
      "latitude": "54.63023000",
      "longitude": "43.21483000"
   },
   {
      "name": "Temnikovskiy Rayon",
      "countryCode": "RU",
      "stateCode": "MO",
      "latitude": "54.66667000",
      "longitude": "43.16667000"
   },
   {
      "name": "Ten’gushevo",
      "countryCode": "RU",
      "stateCode": "MO",
      "latitude": "54.76861000",
      "longitude": "42.71889000"
   },
   {
      "name": "Ten’gushevskiy Rayon",
      "countryCode": "RU",
      "stateCode": "MO",
      "latitude": "54.66667000",
      "longitude": "42.75000000"
   },
   {
      "name": "Torbeyevo",
      "countryCode": "RU",
      "stateCode": "MO",
      "latitude": "54.07972000",
      "longitude": "43.24732000"
   },
   {
      "name": "Turgenevo",
      "countryCode": "RU",
      "stateCode": "MO",
      "latitude": "54.84555000",
      "longitude": "46.32968000"
   },
   {
      "name": "Udarnyy",
      "countryCode": "RU",
      "stateCode": "MO",
      "latitude": "54.34090000",
      "longitude": "42.86110000"
   },
   {
      "name": "Umet",
      "countryCode": "RU",
      "stateCode": "MO",
      "latitude": "54.11611000",
      "longitude": "42.69750000"
   },
   {
      "name": "Vysha",
      "countryCode": "RU",
      "stateCode": "MO",
      "latitude": "53.84768000",
      "longitude": "42.37766000"
   },
   {
      "name": "Yavas",
      "countryCode": "RU",
      "stateCode": "MO",
      "latitude": "54.41590000",
      "longitude": "42.84910000"
   },
   {
      "name": "Yel’nikovskiy Rayon",
      "countryCode": "RU",
      "stateCode": "MO",
      "latitude": "54.58333000",
      "longitude": "43.83333000"
   },
   {
      "name": "Zubova Polyana",
      "countryCode": "RU",
      "stateCode": "MO",
      "latitude": "54.07710000",
      "longitude": "42.83720000"
   },
   {
      "name": "Zubovo-Polyanskiy Rayon",
      "countryCode": "RU",
      "stateCode": "MO",
      "latitude": "54.00000000",
      "longitude": "42.75000000"
   },
   {
      "name": "Zykovo",
      "countryCode": "RU",
      "stateCode": "MO",
      "latitude": "54.06853000",
      "longitude": "45.08633000"
   }
]