[
   {
      "name": "Bảo Lộc",
      "countryCode": "VN",
      "stateCode": "35",
      "latitude": "11.54798000",
      "longitude": "107.80772000"
   },
   {
      "name": "Huyện Bảo Lâm",
      "countryCode": "VN",
      "stateCode": "35",
      "latitude": "11.71163000",
      "longitude": "107.75338000"
   },
   {
      "name": "Huyện Lâm Hà",
      "countryCode": "VN",
      "stateCode": "35",
      "latitude": "11.81890000",
      "longitude": "108.21215000"
   },
   {
      "name": "Huyện Đơn Dương",
      "countryCode": "VN",
      "stateCode": "35",
      "latitude": "11.75308000",
      "longitude": "108.55397000"
   },
   {
      "name": "Huyện Đạ Huoai",
      "countryCode": "VN",
      "stateCode": "35",
      "latitude": "11.42465000",
      "longitude": "107.63825000"
   },
   {
      "name": "Huyện Đạ Tẻh",
      "countryCode": "VN",
      "stateCode": "35",
      "latitude": "11.58446000",
      "longitude": "107.52792000"
   },
   {
      "name": "Huyện Đức Trọng",
      "countryCode": "VN",
      "stateCode": "35",
      "latitude": "11.62686000",
      "longitude": "108.35330000"
   },
   {
      "name": "Ðà Lạt",
      "countryCode": "VN",
      "stateCode": "35",
      "latitude": "11.94646000",
      "longitude": "108.44193000"
   },
   {
      "name": "Đam Rong",
      "countryCode": "VN",
      "stateCode": "35",
      "latitude": "12.05409000",
      "longitude": "108.14941000"
   },
   {
      "name": "Đinh Văn",
      "countryCode": "VN",
      "stateCode": "35",
      "latitude": "11.78624000",
      "longitude": "108.24282000"
   },
   {
      "name": "Đưc Trọng",
      "countryCode": "VN",
      "stateCode": "35",
      "latitude": "11.73559000",
      "longitude": "108.37330000"
   }
]