[
   {
      "name": "Bolnisi",
      "countryCode": "GE",
      "stateCode": "KK",
      "latitude": "41.44794000",
      "longitude": "44.53838000"
   },
   {
      "name": "Bolnisis Munitsip’alit’et’i",
      "countryCode": "GE",
      "stateCode": "KK",
      "latitude": "41.36667000",
      "longitude": "44.51667000"
   },
   {
      "name": "Didi Lilo",
      "countryCode": "GE",
      "stateCode": "KK",
      "latitude": "41.73611000",
      "longitude": "44.96472000"
   },
   {
      "name": "Dmanisis Munitsip’alit’et’i",
      "countryCode": "GE",
      "stateCode": "KK",
      "latitude": "41.35000000",
      "longitude": "44.13333000"
   },
   {
      "name": "Gardabani",
      "countryCode": "GE",
      "stateCode": "KK",
      "latitude": "41.46054000",
      "longitude": "45.09283000"
   },
   {
      "name": "Gardabnis Munitsip’alit’et’i",
      "countryCode": "GE",
      "stateCode": "KK",
      "latitude": "41.61667000",
      "longitude": "45.00000000"
   },
   {
      "name": "Manglisi",
      "countryCode": "GE",
      "stateCode": "KK",
      "latitude": "41.69698000",
      "longitude": "44.38448000"
   },
   {
      "name": "Marneuli",
      "countryCode": "GE",
      "stateCode": "KK",
      "latitude": "41.47588000",
      "longitude": "44.80895000"
   },
   {
      "name": "Marneulis Munitsip’alit’et’i",
      "countryCode": "GE",
      "stateCode": "KK",
      "latitude": "41.38333000",
      "longitude": "44.85000000"
   },
   {
      "name": "Naghvarevi",
      "countryCode": "GE",
      "stateCode": "KK",
      "latitude": "41.35272000",
      "longitude": "44.76178000"
   },
   {
      "name": "Rust’avi",
      "countryCode": "GE",
      "stateCode": "KK",
      "latitude": "41.54949000",
      "longitude": "44.99323000"
   },
   {
      "name": "Tetrits’q’alos Munitsip’alit’et’i",
      "countryCode": "GE",
      "stateCode": "KK",
      "latitude": "41.60000000",
      "longitude": "44.50000000"
   },
   {
      "name": "Tsalka",
      "countryCode": "GE",
      "stateCode": "KK",
      "latitude": "41.59460000",
      "longitude": "44.08909000"
   },
   {
      "name": "Ts’alk’is Munitsip’alit’et’i",
      "countryCode": "GE",
      "stateCode": "KK",
      "latitude": "41.63333000",
      "longitude": "43.96667000"
   },
   {
      "name": "T’et’ri Tsqaro",
      "countryCode": "GE",
      "stateCode": "KK",
      "latitude": "41.54448000",
      "longitude": "44.46153000"
   }
]