[
   {
      "name": "Adorjan",
      "countryCode": "RS",
      "stateCode": "VO",
      "latitude": "46.00333000",
      "longitude": "20.04007000"
   },
   {
      "name": "Aleksandrovo",
      "countryCode": "RS",
      "stateCode": "VO",
      "latitude": "45.63755000",
      "longitude": "20.59288000"
   },
   {
      "name": "Alibunar",
      "countryCode": "RS",
      "stateCode": "VO",
      "latitude": "45.08083000",
      "longitude": "20.96583000"
   },
   {
      "name": "Apatin",
      "countryCode": "RS",
      "stateCode": "VO",
      "latitude": "45.67260000",
      "longitude": "18.97800000"
   },
   {
      "name": "Aradac",
      "countryCode": "RS",
      "stateCode": "VO",
      "latitude": "45.38346000",
      "longitude": "20.30137000"
   },
   {
      "name": "Banatska Topola",
      "countryCode": "RS",
      "stateCode": "VO",
      "latitude": "45.67248000",
      "longitude": "20.46530000"
   },
   {
      "name": "Banatski Despotovac",
      "countryCode": "RS",
      "stateCode": "VO",
      "latitude": "45.36606000",
      "longitude": "20.66407000"
   },
   {
      "name": "Banatski Dvor",
      "countryCode": "RS",
      "stateCode": "VO",
      "latitude": "45.51866000",
      "longitude": "20.51146000"
   },
   {
      "name": "Banatski Karlovac",
      "countryCode": "RS",
      "stateCode": "VO",
      "latitude": "45.04987000",
      "longitude": "21.01800000"
   },
   {
      "name": "Banatsko Karađorđevo",
      "countryCode": "RS",
      "stateCode": "VO",
      "latitude": "45.58693000",
      "longitude": "20.56421000"
   },
   {
      "name": "Banatsko Veliko Selo",
      "countryCode": "RS",
      "stateCode": "VO",
      "latitude": "45.81961000",
      "longitude": "20.60772000"
   },
   {
      "name": "Baranda",
      "countryCode": "RS",
      "stateCode": "VO",
      "latitude": "45.08459000",
      "longitude": "20.44264000"
   },
   {
      "name": "Barice",
      "countryCode": "RS",
      "stateCode": "VO",
      "latitude": "45.18189000",
      "longitude": "21.08279000"
   },
   {
      "name": "Bačka Palanka",
      "countryCode": "RS",
      "stateCode": "VO",
      "latitude": "45.24966000",
      "longitude": "19.39664000"
   },
   {
      "name": "Bačka Topola",
      "countryCode": "RS",
      "stateCode": "VO",
      "latitude": "45.81516000",
      "longitude": "19.63180000"
   },
   {
      "name": "Bački Breg",
      "countryCode": "RS",
      "stateCode": "VO",
      "latitude": "45.92034000",
      "longitude": "18.92944000"
   },
   {
      "name": "Bački Petrovac",
      "countryCode": "RS",
      "stateCode": "VO",
      "latitude": "45.36056000",
      "longitude": "19.59167000"
   },
   {
      "name": "Bačko Gradište",
      "countryCode": "RS",
      "stateCode": "VO",
      "latitude": "45.53271000",
      "longitude": "20.03082000"
   },
   {
      "name": "Bačko Petrovo Selo",
      "countryCode": "RS",
      "stateCode": "VO",
      "latitude": "45.70681000",
      "longitude": "20.07928000"
   },
   {
      "name": "Bašaid",
      "countryCode": "RS",
      "stateCode": "VO",
      "latitude": "45.64102000",
      "longitude": "20.41434000"
   },
   {
      "name": "Bela Crkva",
      "countryCode": "RS",
      "stateCode": "VO",
      "latitude": "44.89750000",
      "longitude": "21.41722000"
   },
   {
      "name": "Belegiš",
      "countryCode": "RS",
      "stateCode": "VO",
      "latitude": "45.01920000",
      "longitude": "20.33323000"
   },
   {
      "name": "Belo Blato",
      "countryCode": "RS",
      "stateCode": "VO",
      "latitude": "45.27278000",
      "longitude": "20.37500000"
   },
   {
      "name": "Bečej",
      "countryCode": "RS",
      "stateCode": "VO",
      "latitude": "45.61632000",
      "longitude": "20.03331000"
   },
   {
      "name": "Beška",
      "countryCode": "RS",
      "stateCode": "VO",
      "latitude": "45.13092000",
      "longitude": "20.06698000"
   },
   {
      "name": "Bogojevo",
      "countryCode": "RS",
      "stateCode": "VO",
      "latitude": "45.53015000",
      "longitude": "19.13022000"
   },
   {
      "name": "Boka",
      "countryCode": "RS",
      "stateCode": "VO",
      "latitude": "45.35540000",
      "longitude": "20.82987000"
   },
   {
      "name": "Bosut",
      "countryCode": "RS",
      "stateCode": "VO",
      "latitude": "44.92977000",
      "longitude": "19.36086000"
   },
   {
      "name": "Botoš",
      "countryCode": "RS",
      "stateCode": "VO",
      "latitude": "45.30837000",
      "longitude": "20.63514000"
   },
   {
      "name": "Bočar",
      "countryCode": "RS",
      "stateCode": "VO",
      "latitude": "45.76994000",
      "longitude": "20.28390000"
   },
   {
      "name": "Buđanovci",
      "countryCode": "RS",
      "stateCode": "VO",
      "latitude": "44.89388000",
      "longitude": "19.86344000"
   },
   {
      "name": "Crepaja",
      "countryCode": "RS",
      "stateCode": "VO",
      "latitude": "45.00984000",
      "longitude": "20.63702000"
   },
   {
      "name": "Debeljača",
      "countryCode": "RS",
      "stateCode": "VO",
      "latitude": "45.07070000",
      "longitude": "20.60153000"
   },
   {
      "name": "Despotovo",
      "countryCode": "RS",
      "stateCode": "VO",
      "latitude": "45.45983000",
      "longitude": "19.52653000"
   },
   {
      "name": "Dobrica",
      "countryCode": "RS",
      "stateCode": "VO",
      "latitude": "45.21339000",
      "longitude": "20.84995000"
   },
   {
      "name": "Doroslovo",
      "countryCode": "RS",
      "stateCode": "VO",
      "latitude": "45.60699000",
      "longitude": "19.18868000"
   },
   {
      "name": "Elemir",
      "countryCode": "RS",
      "stateCode": "VO",
      "latitude": "45.44263000",
      "longitude": "20.30003000"
   },
   {
      "name": "Ečka",
      "countryCode": "RS",
      "stateCode": "VO",
      "latitude": "45.32328000",
      "longitude": "20.44294000"
   },
   {
      "name": "Farkaždin",
      "countryCode": "RS",
      "stateCode": "VO",
      "latitude": "45.19172000",
      "longitude": "20.47239000"
   },
   {
      "name": "Gakovo",
      "countryCode": "RS",
      "stateCode": "VO",
      "latitude": "45.90078000",
      "longitude": "19.06138000"
   },
   {
      "name": "Gardinovci",
      "countryCode": "RS",
      "stateCode": "VO",
      "latitude": "45.20359000",
      "longitude": "20.13558000"
   },
   {
      "name": "Gložan",
      "countryCode": "RS",
      "stateCode": "VO",
      "latitude": "45.27954000",
      "longitude": "19.56838000"
   },
   {
      "name": "Golubinci",
      "countryCode": "RS",
      "stateCode": "VO",
      "latitude": "44.98533000",
      "longitude": "20.06339000"
   },
   {
      "name": "Gornji Breg",
      "countryCode": "RS",
      "stateCode": "VO",
      "latitude": "45.91995000",
      "longitude": "20.01766000"
   },
   {
      "name": "Grabovci",
      "countryCode": "RS",
      "stateCode": "VO",
      "latitude": "44.76496000",
      "longitude": "19.84489000"
   },
   {
      "name": "Gudurica",
      "countryCode": "RS",
      "stateCode": "VO",
      "latitude": "45.16816000",
      "longitude": "21.44264000"
   },
   {
      "name": "Hajdučica",
      "countryCode": "RS",
      "stateCode": "VO",
      "latitude": "45.25010000",
      "longitude": "20.96016000"
   },
   {
      "name": "Hetin",
      "countryCode": "RS",
      "stateCode": "VO",
      "latitude": "45.66202000",
      "longitude": "20.79138000"
   },
   {
      "name": "Hrtkovci",
      "countryCode": "RS",
      "stateCode": "VO",
      "latitude": "44.88155000",
      "longitude": "19.76374000"
   },
   {
      "name": "Idvor",
      "countryCode": "RS",
      "stateCode": "VO",
      "latitude": "45.18895000",
      "longitude": "20.51442000"
   },
   {
      "name": "Ilandža",
      "countryCode": "RS",
      "stateCode": "VO",
      "latitude": "45.16897000",
      "longitude": "20.92008000"
   },
   {
      "name": "Inđija",
      "countryCode": "RS",
      "stateCode": "VO",
      "latitude": "45.04816000",
      "longitude": "20.08165000"
   },
   {
      "name": "Irig",
      "countryCode": "RS",
      "stateCode": "VO",
      "latitude": "45.05230000",
      "longitude": "19.84448000"
   },
   {
      "name": "Izbište",
      "countryCode": "RS",
      "stateCode": "VO",
      "latitude": "45.02253000",
      "longitude": "21.18388000"
   },
   {
      "name": "Janošik",
      "countryCode": "RS",
      "stateCode": "VO",
      "latitude": "45.17141000",
      "longitude": "21.00658000"
   },
   {
      "name": "Jarak",
      "countryCode": "RS",
      "stateCode": "VO",
      "latitude": "44.91843000",
      "longitude": "19.75477000"
   },
   {
      "name": "Jarkovac",
      "countryCode": "RS",
      "stateCode": "VO",
      "latitude": "45.26985000",
      "longitude": "20.76078000"
   },
   {
      "name": "Jazovo",
      "countryCode": "RS",
      "stateCode": "VO",
      "latitude": "45.89876000",
      "longitude": "20.22130000"
   },
   {
      "name": "Jaša Tomić",
      "countryCode": "RS",
      "stateCode": "VO",
      "latitude": "45.44725000",
      "longitude": "20.85546000"
   },
   {
      "name": "Jermenovci",
      "countryCode": "RS",
      "stateCode": "VO",
      "latitude": "45.18635000",
      "longitude": "21.04550000"
   },
   {
      "name": "Kanjiža",
      "countryCode": "RS",
      "stateCode": "VO",
      "latitude": "46.06667000",
      "longitude": "20.05000000"
   },
   {
      "name": "Kikinda",
      "countryCode": "RS",
      "stateCode": "VO",
      "latitude": "45.82972000",
      "longitude": "20.46528000"
   },
   {
      "name": "Kisač",
      "countryCode": "RS",
      "stateCode": "VO",
      "latitude": "45.35421000",
      "longitude": "19.72975000"
   },
   {
      "name": "Klek",
      "countryCode": "RS",
      "stateCode": "VO",
      "latitude": "45.42254000",
      "longitude": "20.48049000"
   },
   {
      "name": "Klenak",
      "countryCode": "RS",
      "stateCode": "VO",
      "latitude": "44.78846000",
      "longitude": "19.71004000"
   },
   {
      "name": "Knićanin",
      "countryCode": "RS",
      "stateCode": "VO",
      "latitude": "45.18675000",
      "longitude": "20.31900000"
   },
   {
      "name": "Kolut",
      "countryCode": "RS",
      "stateCode": "VO",
      "latitude": "45.89292000",
      "longitude": "18.92760000"
   },
   {
      "name": "Konak",
      "countryCode": "RS",
      "stateCode": "VO",
      "latitude": "45.31575000",
      "longitude": "20.91468000"
   },
   {
      "name": "Kovačica",
      "countryCode": "RS",
      "stateCode": "VO",
      "latitude": "45.11167000",
      "longitude": "20.62139000"
   },
   {
      "name": "Kovilj",
      "countryCode": "RS",
      "stateCode": "VO",
      "latitude": "45.23422000",
      "longitude": "20.02327000"
   },
   {
      "name": "Kovin",
      "countryCode": "RS",
      "stateCode": "VO",
      "latitude": "44.74750000",
      "longitude": "20.97611000"
   },
   {
      "name": "Kozjak",
      "countryCode": "RS",
      "stateCode": "VO",
      "latitude": "45.18264000",
      "longitude": "20.86381000"
   },
   {
      "name": "Krajišnik",
      "countryCode": "RS",
      "stateCode": "VO",
      "latitude": "45.45283000",
      "longitude": "20.72976000"
   },
   {
      "name": "Krčedin",
      "countryCode": "RS",
      "stateCode": "VO",
      "latitude": "45.13871000",
      "longitude": "20.13308000"
   },
   {
      "name": "Kulpin",
      "countryCode": "RS",
      "stateCode": "VO",
      "latitude": "45.40240000",
      "longitude": "19.58814000"
   },
   {
      "name": "Kumane",
      "countryCode": "RS",
      "stateCode": "VO",
      "latitude": "45.53946000",
      "longitude": "20.22902000"
   },
   {
      "name": "Kupinovo",
      "countryCode": "RS",
      "stateCode": "VO",
      "latitude": "44.70708000",
      "longitude": "20.04959000"
   },
   {
      "name": "Kupusina",
      "countryCode": "RS",
      "stateCode": "VO",
      "latitude": "45.73759000",
      "longitude": "19.01082000"
   },
   {
      "name": "Kuštilj",
      "countryCode": "RS",
      "stateCode": "VO",
      "latitude": "45.03487000",
      "longitude": "21.37989000"
   },
   {
      "name": "Lazarevo",
      "countryCode": "RS",
      "stateCode": "VO",
      "latitude": "45.38893000",
      "longitude": "20.53999000"
   },
   {
      "name": "Ljukovo",
      "countryCode": "RS",
      "stateCode": "VO",
      "latitude": "45.02604000",
      "longitude": "20.02737000"
   },
   {
      "name": "Lok",
      "countryCode": "RS",
      "stateCode": "VO",
      "latitude": "45.21583000",
      "longitude": "20.21222000"
   },
   {
      "name": "Lokve",
      "countryCode": "RS",
      "stateCode": "VO",
      "latitude": "45.15198000",
      "longitude": "21.03073000"
   },
   {
      "name": "Lukićevo",
      "countryCode": "RS",
      "stateCode": "VO",
      "latitude": "45.33815000",
      "longitude": "20.49895000"
   },
   {
      "name": "Maglić",
      "countryCode": "RS",
      "stateCode": "VO",
      "latitude": "45.36248000",
      "longitude": "19.53211000"
   },
   {
      "name": "Margita",
      "countryCode": "RS",
      "stateCode": "VO",
      "latitude": "45.21598000",
      "longitude": "21.17527000"
   },
   {
      "name": "Mačvanska Mitrovica",
      "countryCode": "RS",
      "stateCode": "VO",
      "latitude": "44.96739000",
      "longitude": "19.59314000"
   },
   {
      "name": "Melenci",
      "countryCode": "RS",
      "stateCode": "VO",
      "latitude": "45.51680000",
      "longitude": "20.31961000"
   },
   {
      "name": "Međa",
      "countryCode": "RS",
      "stateCode": "VO",
      "latitude": "45.53815000",
      "longitude": "20.80677000"
   },
   {
      "name": "Mihajlovo",
      "countryCode": "RS",
      "stateCode": "VO",
      "latitude": "45.47085000",
      "longitude": "20.41508000"
   },
   {
      "name": "Mokrin",
      "countryCode": "RS",
      "stateCode": "VO",
      "latitude": "45.93362000",
      "longitude": "20.41215000"
   },
   {
      "name": "Mol",
      "countryCode": "RS",
      "stateCode": "VO",
      "latitude": "45.76457000",
      "longitude": "20.13286000"
   },
   {
      "name": "Mošorin",
      "countryCode": "RS",
      "stateCode": "VO",
      "latitude": "45.30196000",
      "longitude": "20.16919000"
   },
   {
      "name": "Nakovo",
      "countryCode": "RS",
      "stateCode": "VO",
      "latitude": "45.87503000",
      "longitude": "20.56709000"
   },
   {
      "name": "Neuzina",
      "countryCode": "RS",
      "stateCode": "VO",
      "latitude": "45.34460000",
      "longitude": "20.71418000"
   },
   {
      "name": "Nikinci",
      "countryCode": "RS",
      "stateCode": "VO",
      "latitude": "44.85017000",
      "longitude": "19.82321000"
   },
   {
      "name": "Nikolinci",
      "countryCode": "RS",
      "stateCode": "VO",
      "latitude": "45.05245000",
      "longitude": "21.06695000"
   },
   {
      "name": "Nova Crnja",
      "countryCode": "RS",
      "stateCode": "VO",
      "latitude": "45.66833000",
      "longitude": "20.60500000"
   },
   {
      "name": "Nova Pazova",
      "countryCode": "RS",
      "stateCode": "VO",
      "latitude": "44.94366000",
      "longitude": "20.21931000"
   },
   {
      "name": "Novi Banovci",
      "countryCode": "RS",
      "stateCode": "VO",
      "latitude": "44.95691000",
      "longitude": "20.28076000"
   },
   {
      "name": "Novi Itebej",
      "countryCode": "RS",
      "stateCode": "VO",
      "latitude": "45.55918000",
      "longitude": "20.70030000"
   },
   {
      "name": "Novi Karlovci",
      "countryCode": "RS",
      "stateCode": "VO",
      "latitude": "45.07636000",
      "longitude": "20.17948000"
   },
   {
      "name": "Novi Kneževac",
      "countryCode": "RS",
      "stateCode": "VO",
      "latitude": "46.05000000",
      "longitude": "20.10000000"
   },
   {
      "name": "Novi Kozarci",
      "countryCode": "RS",
      "stateCode": "VO",
      "latitude": "45.78241000",
      "longitude": "20.62289000"
   },
   {
      "name": "Novi Sad",
      "countryCode": "RS",
      "stateCode": "VO",
      "latitude": "45.25167000",
      "longitude": "19.83694000"
   },
   {
      "name": "Novi Slankamen",
      "countryCode": "RS",
      "stateCode": "VO",
      "latitude": "45.12554000",
      "longitude": "20.23914000"
   },
   {
      "name": "Novo Miloševo",
      "countryCode": "RS",
      "stateCode": "VO",
      "latitude": "45.71916000",
      "longitude": "20.30364000"
   },
   {
      "name": "Obrovac",
      "countryCode": "RS",
      "stateCode": "VO",
      "latitude": "45.32106000",
      "longitude": "19.35048000"
   },
   {
      "name": "Opovo",
      "countryCode": "RS",
      "stateCode": "VO",
      "latitude": "45.05222000",
      "longitude": "20.43028000"
   },
   {
      "name": "Orlovat",
      "countryCode": "RS",
      "stateCode": "VO",
      "latitude": "45.24171000",
      "longitude": "20.58089000"
   },
   {
      "name": "Ostojićevo",
      "countryCode": "RS",
      "stateCode": "VO",
      "latitude": "45.88863000",
      "longitude": "20.16642000"
   },
   {
      "name": "Padej",
      "countryCode": "RS",
      "stateCode": "VO",
      "latitude": "45.82756000",
      "longitude": "20.16279000"
   },
   {
      "name": "Padina",
      "countryCode": "RS",
      "stateCode": "VO",
      "latitude": "45.11988000",
      "longitude": "20.72860000"
   },
   {
      "name": "Pančevo",
      "countryCode": "RS",
      "stateCode": "VO",
      "latitude": "44.87177000",
      "longitude": "20.64167000"
   },
   {
      "name": "Pavliš",
      "countryCode": "RS",
      "stateCode": "VO",
      "latitude": "45.10569000",
      "longitude": "21.23952000"
   },
   {
      "name": "Perlez",
      "countryCode": "RS",
      "stateCode": "VO",
      "latitude": "45.20813000",
      "longitude": "20.38197000"
   },
   {
      "name": "Petrovaradin",
      "countryCode": "RS",
      "stateCode": "VO",
      "latitude": "45.24667000",
      "longitude": "19.87944000"
   },
   {
      "name": "Pećinci",
      "countryCode": "RS",
      "stateCode": "VO",
      "latitude": "44.90889000",
      "longitude": "19.96639000"
   },
   {
      "name": "Plandište",
      "countryCode": "RS",
      "stateCode": "VO",
      "latitude": "45.22722000",
      "longitude": "21.12167000"
   },
   {
      "name": "Platičevo",
      "countryCode": "RS",
      "stateCode": "VO",
      "latitude": "44.82213000",
      "longitude": "19.79487000"
   },
   {
      "name": "Prigrevica",
      "countryCode": "RS",
      "stateCode": "VO",
      "latitude": "45.67636000",
      "longitude": "19.08809000"
   },
   {
      "name": "Putinci",
      "countryCode": "RS",
      "stateCode": "VO",
      "latitude": "44.99259000",
      "longitude": "19.97102000"
   },
   {
      "name": "Radenković",
      "countryCode": "RS",
      "stateCode": "VO",
      "latitude": "44.92191000",
      "longitude": "19.49543000"
   },
   {
      "name": "Radojevo",
      "countryCode": "RS",
      "stateCode": "VO",
      "latitude": "45.74617000",
      "longitude": "20.78917000"
   },
   {
      "name": "Ravni Topolovac",
      "countryCode": "RS",
      "stateCode": "VO",
      "latitude": "45.46082000",
      "longitude": "20.56939000"
   },
   {
      "name": "Ravnje",
      "countryCode": "RS",
      "stateCode": "VO",
      "latitude": "44.94326000",
      "longitude": "19.42280000"
   },
   {
      "name": "Ravno Selo",
      "countryCode": "RS",
      "stateCode": "VO",
      "latitude": "45.44967000",
      "longitude": "19.62097000"
   },
   {
      "name": "Riđica",
      "countryCode": "RS",
      "stateCode": "VO",
      "latitude": "45.99088000",
      "longitude": "19.10635000"
   },
   {
      "name": "Ruma",
      "countryCode": "RS",
      "stateCode": "VO",
      "latitude": "45.00806000",
      "longitude": "19.82222000"
   },
   {
      "name": "Rumenka",
      "countryCode": "RS",
      "stateCode": "VO",
      "latitude": "45.29400000",
      "longitude": "19.74306000"
   },
   {
      "name": "Rusko Selo",
      "countryCode": "RS",
      "stateCode": "VO",
      "latitude": "45.76291000",
      "longitude": "20.57117000"
   },
   {
      "name": "Sajan",
      "countryCode": "RS",
      "stateCode": "VO",
      "latitude": "45.84227000",
      "longitude": "20.27815000"
   },
   {
      "name": "Sakule",
      "countryCode": "RS",
      "stateCode": "VO",
      "latitude": "45.14667000",
      "longitude": "20.48619000"
   },
   {
      "name": "Salaš Noćajski",
      "countryCode": "RS",
      "stateCode": "VO",
      "latitude": "44.94722000",
      "longitude": "19.58611000"
   },
   {
      "name": "Samoš",
      "countryCode": "RS",
      "stateCode": "VO",
      "latitude": "45.20255000",
      "longitude": "20.77392000"
   },
   {
      "name": "Sanad",
      "countryCode": "RS",
      "stateCode": "VO",
      "latitude": "45.97596000",
      "longitude": "20.10816000"
   },
   {
      "name": "Sefkerin",
      "countryCode": "RS",
      "stateCode": "VO",
      "latitude": "45.00501000",
      "longitude": "20.48256000"
   },
   {
      "name": "Seleuš",
      "countryCode": "RS",
      "stateCode": "VO",
      "latitude": "45.12770000",
      "longitude": "20.91461000"
   },
   {
      "name": "Senta",
      "countryCode": "RS",
      "stateCode": "VO",
      "latitude": "45.92750000",
      "longitude": "20.07722000"
   },
   {
      "name": "Sečanj",
      "countryCode": "RS",
      "stateCode": "VO",
      "latitude": "45.36667000",
      "longitude": "20.77222000"
   },
   {
      "name": "Sombor",
      "countryCode": "RS",
      "stateCode": "VO",
      "latitude": "45.77417000",
      "longitude": "19.11222000"
   },
   {
      "name": "Sonta",
      "countryCode": "RS",
      "stateCode": "VO",
      "latitude": "45.59427000",
      "longitude": "19.09719000"
   },
   {
      "name": "Sremska Mitrovica",
      "countryCode": "RS",
      "stateCode": "VO",
      "latitude": "44.97639000",
      "longitude": "19.61222000"
   },
   {
      "name": "Sremski Karlovci",
      "countryCode": "RS",
      "stateCode": "VO",
      "latitude": "45.20285000",
      "longitude": "19.93373000"
   },
   {
      "name": "Srpska Crnja",
      "countryCode": "RS",
      "stateCode": "VO",
      "latitude": "45.72538000",
      "longitude": "20.69008000"
   },
   {
      "name": "Srpski Itebej",
      "countryCode": "RS",
      "stateCode": "VO",
      "latitude": "45.56715000",
      "longitude": "20.71350000"
   },
   {
      "name": "Stajićevo",
      "countryCode": "RS",
      "stateCode": "VO",
      "latitude": "45.29489000",
      "longitude": "20.45845000"
   },
   {
      "name": "Stanišić",
      "countryCode": "RS",
      "stateCode": "VO",
      "latitude": "45.93895000",
      "longitude": "19.16709000"
   },
   {
      "name": "Stara Pazova",
      "countryCode": "RS",
      "stateCode": "VO",
      "latitude": "44.98500000",
      "longitude": "20.16083000"
   },
   {
      "name": "Stari Banovci",
      "countryCode": "RS",
      "stateCode": "VO",
      "latitude": "44.98420000",
      "longitude": "20.28382000"
   },
   {
      "name": "Stari Lec",
      "countryCode": "RS",
      "stateCode": "VO",
      "latitude": "45.28401000",
      "longitude": "20.96433000"
   },
   {
      "name": "Stepanovićevo",
      "countryCode": "RS",
      "stateCode": "VO",
      "latitude": "45.41369000",
      "longitude": "19.70000000"
   },
   {
      "name": "Subotica",
      "countryCode": "RS",
      "stateCode": "VO",
      "latitude": "46.10000000",
      "longitude": "19.66667000"
   },
   {
      "name": "Surduk",
      "countryCode": "RS",
      "stateCode": "VO",
      "latitude": "45.07118000",
      "longitude": "20.32510000"
   },
   {
      "name": "Sutjeska",
      "countryCode": "RS",
      "stateCode": "VO",
      "latitude": "45.38312000",
      "longitude": "20.69620000"
   },
   {
      "name": "Taraš",
      "countryCode": "RS",
      "stateCode": "VO",
      "latitude": "45.46737000",
      "longitude": "20.19867000"
   },
   {
      "name": "Tiszahegyes",
      "countryCode": "RS",
      "stateCode": "VO",
      "latitude": "45.82648000",
      "longitude": "20.31791000"
   },
   {
      "name": "Titel",
      "countryCode": "RS",
      "stateCode": "VO",
      "latitude": "45.20611000",
      "longitude": "20.29444000"
   },
   {
      "name": "Toba",
      "countryCode": "RS",
      "stateCode": "VO",
      "latitude": "45.68943000",
      "longitude": "20.55714000"
   },
   {
      "name": "Tomaševac",
      "countryCode": "RS",
      "stateCode": "VO",
      "latitude": "45.26855000",
      "longitude": "20.62272000"
   },
   {
      "name": "Torak",
      "countryCode": "RS",
      "stateCode": "VO",
      "latitude": "45.50928000",
      "longitude": "20.60900000"
   },
   {
      "name": "Torda",
      "countryCode": "RS",
      "stateCode": "VO",
      "latitude": "45.58423000",
      "longitude": "20.45900000"
   },
   {
      "name": "Uljma",
      "countryCode": "RS",
      "stateCode": "VO",
      "latitude": "45.04213000",
      "longitude": "21.15393000"
   },
   {
      "name": "Uzdin",
      "countryCode": "RS",
      "stateCode": "VO",
      "latitude": "45.20512000",
      "longitude": "20.62342000"
   },
   {
      "name": "Velika Greda",
      "countryCode": "RS",
      "stateCode": "VO",
      "latitude": "45.24376000",
      "longitude": "21.03498000"
   },
   {
      "name": "Veliki Gaj",
      "countryCode": "RS",
      "stateCode": "VO",
      "latitude": "45.28849000",
      "longitude": "21.17057000"
   },
   {
      "name": "Veliko Središte",
      "countryCode": "RS",
      "stateCode": "VO",
      "latitude": "45.17919000",
      "longitude": "21.40353000"
   },
   {
      "name": "Veternik",
      "countryCode": "RS",
      "stateCode": "VO",
      "latitude": "45.25446000",
      "longitude": "19.75880000"
   },
   {
      "name": "Vilovo",
      "countryCode": "RS",
      "stateCode": "VO",
      "latitude": "45.24859000",
      "longitude": "20.15521000"
   },
   {
      "name": "Višnjićevo",
      "countryCode": "RS",
      "stateCode": "VO",
      "latitude": "44.96731000",
      "longitude": "19.28993000"
   },
   {
      "name": "Vladimirovac",
      "countryCode": "RS",
      "stateCode": "VO",
      "latitude": "45.03122000",
      "longitude": "20.86566000"
   },
   {
      "name": "Vlajkovac",
      "countryCode": "RS",
      "stateCode": "VO",
      "latitude": "45.07207000",
      "longitude": "21.19945000"
   },
   {
      "name": "Vojka",
      "countryCode": "RS",
      "stateCode": "VO",
      "latitude": "44.93713000",
      "longitude": "20.15236000"
   },
   {
      "name": "Vojvoda Stepa",
      "countryCode": "RS",
      "stateCode": "VO",
      "latitude": "45.68537000",
      "longitude": "20.65536000"
   },
   {
      "name": "Vrbas",
      "countryCode": "RS",
      "stateCode": "VO",
      "latitude": "45.57139000",
      "longitude": "19.64083000"
   },
   {
      "name": "Vrdnik",
      "countryCode": "RS",
      "stateCode": "VO",
      "latitude": "45.12174000",
      "longitude": "19.79227000"
   },
   {
      "name": "Vršac",
      "countryCode": "RS",
      "stateCode": "VO",
      "latitude": "45.11667000",
      "longitude": "21.30361000"
   },
   {
      "name": "Zmajevo",
      "countryCode": "RS",
      "stateCode": "VO",
      "latitude": "45.45408000",
      "longitude": "19.69050000"
   },
   {
      "name": "Zrenjanin",
      "countryCode": "RS",
      "stateCode": "VO",
      "latitude": "45.38361000",
      "longitude": "20.38194000"
   },
   {
      "name": "Ðurđevo",
      "countryCode": "RS",
      "stateCode": "VO",
      "latitude": "45.32591000",
      "longitude": "20.06532000"
   },
   {
      "name": "Čelarevo",
      "countryCode": "RS",
      "stateCode": "VO",
      "latitude": "45.26999000",
      "longitude": "19.52484000"
   },
   {
      "name": "Čenta",
      "countryCode": "RS",
      "stateCode": "VO",
      "latitude": "45.10814000",
      "longitude": "20.38947000"
   },
   {
      "name": "Čestereg",
      "countryCode": "RS",
      "stateCode": "VO",
      "latitude": "45.56361000",
      "longitude": "20.53194000"
   },
   {
      "name": "Čoka",
      "countryCode": "RS",
      "stateCode": "VO",
      "latitude": "45.94250000",
      "longitude": "20.14333000"
   },
   {
      "name": "Čortanovci",
      "countryCode": "RS",
      "stateCode": "VO",
      "latitude": "45.15460000",
      "longitude": "20.01851000"
   },
   {
      "name": "Čurug",
      "countryCode": "RS",
      "stateCode": "VO",
      "latitude": "45.47221000",
      "longitude": "20.06861000"
   },
   {
      "name": "Šajkaš",
      "countryCode": "RS",
      "stateCode": "VO",
      "latitude": "45.27315000",
      "longitude": "20.09051000"
   },
   {
      "name": "Šašinci",
      "countryCode": "RS",
      "stateCode": "VO",
      "latitude": "44.96514000",
      "longitude": "19.74151000"
   },
   {
      "name": "Šimanovci",
      "countryCode": "RS",
      "stateCode": "VO",
      "latitude": "44.87393000",
      "longitude": "20.09175000"
   },
   {
      "name": "Žabalj",
      "countryCode": "RS",
      "stateCode": "VO",
      "latitude": "45.37222000",
      "longitude": "20.06389000"
   },
   {
      "name": "Žitište",
      "countryCode": "RS",
      "stateCode": "VO",
      "latitude": "45.48500000",
      "longitude": "20.54972000"
   }
]