[
   {
      "name": "Brodarica",
      "countryCode": "HR",
      "stateCode": "15",
      "latitude": "43.68000000",
      "longitude": "15.91972000"
   },
   {
      "name": "Drniš",
      "countryCode": "HR",
      "stateCode": "15",
      "latitude": "43.86250000",
      "longitude": "16.15556000"
   },
   {
      "name": "Grad Drniš",
      "countryCode": "HR",
      "stateCode": "15",
      "latitude": "43.83333000",
      "longitude": "16.16667000"
   },
   {
      "name": "Grad Šibenik",
      "countryCode": "HR",
      "stateCode": "15",
      "latitude": "43.73576000",
      "longitude": "15.89602000"
   },
   {
      "name": "Kistanje",
      "countryCode": "HR",
      "stateCode": "15",
      "latitude": "43.98278000",
      "longitude": "15.96500000"
   },
   {
      "name": "Knin",
      "countryCode": "HR",
      "stateCode": "15",
      "latitude": "44.04063000",
      "longitude": "16.19662000"
   },
   {
      "name": "Murter",
      "countryCode": "HR",
      "stateCode": "15",
      "latitude": "43.82043000",
      "longitude": "15.58988000"
   },
   {
      "name": "Murter-Kornati",
      "countryCode": "HR",
      "stateCode": "15",
      "latitude": "43.80959000",
      "longitude": "15.60024000"
   },
   {
      "name": "Pirovac",
      "countryCode": "HR",
      "stateCode": "15",
      "latitude": "43.81917000",
      "longitude": "15.67278000"
   },
   {
      "name": "Primošten",
      "countryCode": "HR",
      "stateCode": "15",
      "latitude": "43.58632000",
      "longitude": "15.92302000"
   },
   {
      "name": "Promina",
      "countryCode": "HR",
      "stateCode": "15",
      "latitude": "43.95798000",
      "longitude": "16.09737000"
   },
   {
      "name": "Rogoznica",
      "countryCode": "HR",
      "stateCode": "15",
      "latitude": "43.52472000",
      "longitude": "15.97000000"
   },
   {
      "name": "Rogoznica Općina",
      "countryCode": "HR",
      "stateCode": "15",
      "latitude": "43.53620000",
      "longitude": "15.97086000"
   },
   {
      "name": "Skradin",
      "countryCode": "HR",
      "stateCode": "15",
      "latitude": "43.82028000",
      "longitude": "15.92361000"
   },
   {
      "name": "Tisno",
      "countryCode": "HR",
      "stateCode": "15",
      "latitude": "43.80417000",
      "longitude": "15.64333000"
   },
   {
      "name": "Tribunj",
      "countryCode": "HR",
      "stateCode": "15",
      "latitude": "43.75547000",
      "longitude": "15.74444000"
   },
   {
      "name": "Vodice",
      "countryCode": "HR",
      "stateCode": "15",
      "latitude": "43.76083000",
      "longitude": "15.78278000"
   },
   {
      "name": "Šibenik",
      "countryCode": "HR",
      "stateCode": "15",
      "latitude": "43.72722000",
      "longitude": "15.90583000"
   }
]