[
   {
      "name": "Balaka District",
      "isoCode": "BA",
      "countryCode": "MW",
      "latitude": "-15.05065950",
      "longitude": "35.08285880"
   },
   {
      "name": "Blantyre District",
      "isoCode": "BL",
      "countryCode": "MW",
      "latitude": "-15.67785410",
      "longitude": "34.95066250"
   },
   {
      "name": "Central Region",
      "isoCode": "C",
      "countryCode": "MW",
      "latitude": null,
      "longitude": null
   },
   {
      "name": "Chikwawa District",
      "isoCode": "CK",
      "countryCode": "MW",
      "latitude": "-16.19584460",
      "longitude": "34.77407930"
   },
   {
      "name": "Chiradzulu District",
      "isoCode": "CR",
      "countryCode": "MW",
      "latitude": "-15.74231510",
      "longitude": "35.25879640"
   },
   {
      "name": "Chitipa district",
      "isoCode": "CT",
      "countryCode": "MW",
      "latitude": "-9.70376550",
      "longitude": "33.27002530"
   },
   {
      "name": "Dedza District",
      "isoCode": "DE",
      "countryCode": "MW",
      "latitude": "-14.18945850",
      "longitude": "34.24215970"
   },
   {
      "name": "Dowa District",
      "isoCode": "DO",
      "countryCode": "MW",
      "latitude": "-13.60412560",
      "longitude": "33.88577470"
   },
   {
      "name": "Karonga District",
      "isoCode": "KR",
      "countryCode": "MW",
      "latitude": "-9.90363650",
      "longitude": "33.97500180"
   },
   {
      "name": "Kasungu District",
      "isoCode": "KS",
      "countryCode": "MW",
      "latitude": "-13.13670650",
      "longitude": "33.25879300"
   },
   {
      "name": "Lilongwe District",
      "isoCode": "LI",
      "countryCode": "MW",
      "latitude": "-14.04752280",
      "longitude": "33.61757700"
   },
   {
      "name": "Likoma District",
      "isoCode": "LK",
      "countryCode": "MW",
      "latitude": "-12.05840050",
      "longitude": "34.73540310"
   },
   {
      "name": "Mchinji District",
      "isoCode": "MC",
      "countryCode": "MW",
      "latitude": "-13.74015250",
      "longitude": "32.98883190"
   },
   {
      "name": "Mangochi District",
      "isoCode": "MG",
      "countryCode": "MW",
      "latitude": "-14.13882480",
      "longitude": "35.03881640"
   },
   {
      "name": "Machinga District",
      "isoCode": "MH",
      "countryCode": "MW",
      "latitude": "-14.94072630",
      "longitude": "35.47819260"
   },
   {
      "name": "Mulanje District",
      "isoCode": "MU",
      "countryCode": "MW",
      "latitude": "-15.93464340",
      "longitude": "35.52200120"
   },
   {
      "name": "Mwanza District",
      "isoCode": "MW",
      "countryCode": "MW",
      "latitude": "-2.46711970",
      "longitude": "32.89868120"
   },
   {
      "name": "Mzimba District",
      "isoCode": "MZ",
      "countryCode": "MW",
      "latitude": "-11.74754520",
      "longitude": "33.52800720"
   },
   {
      "name": "Northern Region",
      "isoCode": "N",
      "countryCode": "MW",
      "latitude": null,
      "longitude": null
   },
   {
      "name": "Nkhata Bay District",
      "isoCode": "NB",
      "countryCode": "MW",
      "latitude": "-11.71850420",
      "longitude": "34.33103640"
   },
   {
      "name": "Ntchisi District",
      "isoCode": "NI",
      "countryCode": "MW",
      "latitude": "-13.28419920",
      "longitude": "33.88577470"
   },
   {
      "name": "Nkhotakota District",
      "isoCode": "NK",
      "countryCode": "MW",
      "latitude": "-12.75419610",
      "longitude": "34.24215970"
   },
   {
      "name": "Nsanje District",
      "isoCode": "NS",
      "countryCode": "MW",
      "latitude": "-16.72882020",
      "longitude": "35.17087410"
   },
   {
      "name": "Ntcheu District",
      "isoCode": "NU",
      "countryCode": "MW",
      "latitude": "-14.90375380",
      "longitude": "34.77407930"
   },
   {
      "name": "Phalombe District",
      "isoCode": "PH",
      "countryCode": "MW",
      "latitude": "-15.70920380",
      "longitude": "35.65328480"
   },
   {
      "name": "Rumphi District",
      "isoCode": "RU",
      "countryCode": "MW",
      "latitude": "-10.78515370",
      "longitude": "34.33103640"
   },
   {
      "name": "Southern Region",
      "isoCode": "S",
      "countryCode": "MW",
      "latitude": "32.75049570",
      "longitude": "-97.33154760"
   },
   {
      "name": "Salima District",
      "isoCode": "SA",
      "countryCode": "MW",
      "latitude": "-13.68095860",
      "longitude": "34.41982430"
   },
   {
      "name": "Thyolo District",
      "isoCode": "TH",
      "countryCode": "MW",
      "latitude": "-16.12991770",
      "longitude": "35.12687810"
   },
   {
      "name": "Zomba District",
      "isoCode": "ZO",
      "countryCode": "MW",
      "latitude": "-15.37658570",
      "longitude": "35.33565180"
   }
]