[
   {
      "name": "Ba",
      "countryCode": "FJ",
      "stateCode": "W",
      "latitude": "-17.53430000",
      "longitude": "177.67407000"
   },
   {
      "name": "Ba Province",
      "countryCode": "FJ",
      "stateCode": "W",
      "latitude": "-17.66667000",
      "longitude": "177.66667000"
   },
   {
      "name": "Lautoka",
      "countryCode": "FJ",
      "stateCode": "W",
      "latitude": "-17.61686000",
      "longitude": "177.45049000"
   },
   {
      "name": "Nadi",
      "countryCode": "FJ",
      "stateCode": "W",
      "latitude": "-17.80309000",
      "longitude": "177.41617000"
   },
   {
      "name": "Nandronga and Navosa Province",
      "countryCode": "FJ",
      "stateCode": "W",
      "latitude": "-18.00000000",
      "longitude": "177.66667000"
   },
   {
      "name": "Ra Province",
      "countryCode": "FJ",
      "stateCode": "W",
      "latitude": "-17.50000000",
      "longitude": "178.16667000"
   }
]