[
   {
      "name": "Akom II",
      "countryCode": "CM",
      "stateCode": "SU",
      "latitude": "2.78333000",
      "longitude": "10.56667000"
   },
   {
      "name": "Ambam",
      "countryCode": "CM",
      "stateCode": "SU",
      "latitude": "2.38333000",
      "longitude": "11.28333000"
   },
   {
      "name": "Kribi",
      "countryCode": "CM",
      "stateCode": "SU",
      "latitude": "2.93725000",
      "longitude": "9.90765000"
   },
   {
      "name": "Lolodorf",
      "countryCode": "CM",
      "stateCode": "SU",
      "latitude": "3.23333000",
      "longitude": "10.73333000"
   },
   {
      "name": "Mvangué",
      "countryCode": "CM",
      "stateCode": "SU",
      "latitude": "2.96667000",
      "longitude": "11.51667000"
   },
   {
      "name": "Mvila",
      "countryCode": "CM",
      "stateCode": "SU",
      "latitude": "2.79796000",
      "longitude": "11.39434000"
   },
   {
      "name": "Sangmélima",
      "countryCode": "CM",
      "stateCode": "SU",
      "latitude": "2.93333000",
      "longitude": "11.98333000"
   },
   {
      "name": "Ébolowa",
      "countryCode": "CM",
      "stateCode": "SU",
      "latitude": "2.90000000",
      "longitude": "11.15000000"
   }
]