[
   {
      "name": "Al Dhaher",
      "countryCode": "YE",
      "stateCode": "SD",
      "latitude": "16.73140000",
      "longitude": "43.27530000"
   },
   {
      "name": "Al Hashwah",
      "countryCode": "YE",
      "stateCode": "SD",
      "latitude": "16.88840000",
      "longitude": "44.27380000"
   },
   {
      "name": "As Safra",
      "countryCode": "YE",
      "stateCode": "SD",
      "latitude": "17.01420000",
      "longitude": "43.85660000"
   },
   {
      "name": "Ash Shawātī",
      "countryCode": "YE",
      "stateCode": "SD",
      "latitude": "16.78314000",
      "longitude": "43.81265000"
   },
   {
      "name": "Baqim",
      "countryCode": "YE",
      "stateCode": "SD",
      "latitude": "17.37810000",
      "longitude": "43.46350000"
   },
   {
      "name": "Ghamr",
      "countryCode": "YE",
      "stateCode": "SD",
      "latitude": "16.98301000",
      "longitude": "43.31608000"
   },
   {
      "name": "Haydan",
      "countryCode": "YE",
      "stateCode": "SD",
      "latitude": "16.72870000",
      "longitude": "43.48490000"
   },
   {
      "name": "Kitaf wa Al Boqe'e",
      "countryCode": "YE",
      "stateCode": "SD",
      "latitude": "17.08080000",
      "longitude": "44.39620000"
   },
   {
      "name": "Majz",
      "countryCode": "YE",
      "stateCode": "SD",
      "latitude": "17.09230000",
      "longitude": "43.51040000"
   },
   {
      "name": "Monabbih",
      "countryCode": "YE",
      "stateCode": "SD",
      "latitude": "17.16930000",
      "longitude": "43.27910000"
   },
   {
      "name": "Qatabir",
      "countryCode": "YE",
      "stateCode": "SD",
      "latitude": "17.33680000",
      "longitude": "43.33110000"
   },
   {
      "name": "Rāziḩ",
      "countryCode": "YE",
      "stateCode": "SD",
      "latitude": "16.93704000",
      "longitude": "43.26080000"
   },
   {
      "name": "Sa'dah",
      "countryCode": "YE",
      "stateCode": "SD",
      "latitude": "16.94021000",
      "longitude": "43.76393000"
   },
   {
      "name": "Saqayn",
      "countryCode": "YE",
      "stateCode": "SD",
      "latitude": "16.86010000",
      "longitude": "43.47160000"
   },
   {
      "name": "Saḩār",
      "countryCode": "YE",
      "stateCode": "SD",
      "latitude": "16.88522000",
      "longitude": "43.68306000"
   },
   {
      "name": "Shada'a",
      "countryCode": "YE",
      "stateCode": "SD",
      "latitude": "16.89130000",
      "longitude": "43.18710000"
   },
   {
      "name": "Şa‘dah",
      "countryCode": "YE",
      "stateCode": "SD",
      "latitude": "16.91733000",
      "longitude": "43.76000000"
   }
]