[
   {
      "name": "Ad Dasmah",
      "countryCode": "KW",
      "stateCode": "KU",
      "latitude": "29.36500000",
      "longitude": "48.00139000"
   },
   {
      "name": "Ar Rābiyah",
      "countryCode": "KW",
      "stateCode": "KU",
      "latitude": "29.29500000",
      "longitude": "47.93306000"
   },
   {
      "name": "Ash Shāmīyah",
      "countryCode": "KW",
      "stateCode": "KU",
      "latitude": "29.34722000",
      "longitude": "47.96167000"
   },
   {
      "name": "Az Zawr",
      "countryCode": "KW",
      "stateCode": "KU",
      "latitude": "29.44250000",
      "longitude": "48.27472000"
   },
   {
      "name": "Kuwait City",
      "countryCode": "KW",
      "stateCode": "KU",
      "latitude": "29.36972000",
      "longitude": "47.97833000"
   }
]