[
   {
      "name": "Damāvand",
      "countryCode": "IR",
      "stateCode": "23",
      "latitude": "35.71842000",
      "longitude": "52.06958000"
   },
   {
      "name": "Eqbālīyeh",
      "countryCode": "IR",
      "stateCode": "23",
      "latitude": "35.30220000",
      "longitude": "51.53580000"
   },
   {
      "name": "Eslāmshahr",
      "countryCode": "IR",
      "stateCode": "23",
      "latitude": "35.55222000",
      "longitude": "51.23504000"
   },
   {
      "name": "Malārd",
      "countryCode": "IR",
      "stateCode": "23",
      "latitude": "35.66590000",
      "longitude": "50.97670000"
   },
   {
      "name": "Pardis",
      "countryCode": "IR",
      "stateCode": "23",
      "latitude": "35.74169000",
      "longitude": "51.77705000"
   },
   {
      "name": "Pīshvā",
      "countryCode": "IR",
      "stateCode": "23",
      "latitude": "35.30800000",
      "longitude": "51.72670000"
   },
   {
      "name": "Qarchak",
      "countryCode": "IR",
      "stateCode": "23",
      "latitude": "35.42867000",
      "longitude": "51.57544000"
   },
   {
      "name": "Qods",
      "countryCode": "IR",
      "stateCode": "23",
      "latitude": "35.71667000",
      "longitude": "51.06667000"
   },
   {
      "name": "Rey",
      "countryCode": "IR",
      "stateCode": "23",
      "latitude": "35.37448000",
      "longitude": "51.27743000"
   },
   {
      "name": "Robāţ Karīm",
      "countryCode": "IR",
      "stateCode": "23",
      "latitude": "35.48460000",
      "longitude": "51.08290000"
   },
   {
      "name": "Shahrak-e Emām Ḩasan",
      "countryCode": "IR",
      "stateCode": "23",
      "latitude": "35.48846000",
      "longitude": "51.34567000"
   },
   {
      "name": "Shahre Jadide Andisheh",
      "countryCode": "IR",
      "stateCode": "23",
      "latitude": "35.68030000",
      "longitude": "51.01930000"
   },
   {
      "name": "Shahrestān-e Bahārestān",
      "countryCode": "IR",
      "stateCode": "23",
      "latitude": "35.53333000",
      "longitude": "51.15000000"
   },
   {
      "name": "Shahrestān-e Damāvand",
      "countryCode": "IR",
      "stateCode": "23",
      "latitude": "35.63005000",
      "longitude": "52.13750000"
   },
   {
      "name": "Shahrestān-e Eslāmshahr",
      "countryCode": "IR",
      "stateCode": "23",
      "latitude": "35.58333000",
      "longitude": "51.25000000"
   },
   {
      "name": "Shahrestān-e Fīrūzkūh",
      "countryCode": "IR",
      "stateCode": "23",
      "latitude": "35.72852000",
      "longitude": "52.74164000"
   },
   {
      "name": "Shahrestān-e Malārd",
      "countryCode": "IR",
      "stateCode": "23",
      "latitude": "35.63333000",
      "longitude": "50.65000000"
   },
   {
      "name": "Shahrestān-e Pākdasht",
      "countryCode": "IR",
      "stateCode": "23",
      "latitude": "35.49448000",
      "longitude": "51.75302000"
   },
   {
      "name": "Shahrestān-e Pīshvā",
      "countryCode": "IR",
      "stateCode": "23",
      "latitude": "35.35000000",
      "longitude": "51.71667000"
   },
   {
      "name": "Shahrestān-e Robāţ Karīm",
      "countryCode": "IR",
      "stateCode": "23",
      "latitude": "35.52115000",
      "longitude": "51.03074000"
   },
   {
      "name": "Shahrestān-e Shahrīār",
      "countryCode": "IR",
      "stateCode": "23",
      "latitude": "35.62828000",
      "longitude": "51.06632000"
   },
   {
      "name": "Shahrestān-e Shemīrānāt",
      "countryCode": "IR",
      "stateCode": "23",
      "latitude": "35.93141000",
      "longitude": "51.58997000"
   },
   {
      "name": "Shahrestān-e Tehrān",
      "countryCode": "IR",
      "stateCode": "23",
      "latitude": "35.71006000",
      "longitude": "51.41744000"
   },
   {
      "name": "Shahrestān-e Varāmīn",
      "countryCode": "IR",
      "stateCode": "23",
      "latitude": "35.33081000",
      "longitude": "51.64124000"
   },
   {
      "name": "Shahrīār",
      "countryCode": "IR",
      "stateCode": "23",
      "latitude": "35.65884000",
      "longitude": "51.05775000"
   },
   {
      "name": "Sharīfābād",
      "countryCode": "IR",
      "stateCode": "23",
      "latitude": "35.42750000",
      "longitude": "51.78528000"
   },
   {
      "name": "Soleh Bon",
      "countryCode": "IR",
      "stateCode": "23",
      "latitude": "35.76841000",
      "longitude": "52.56091000"
   },
   {
      "name": "Tehran",
      "countryCode": "IR",
      "stateCode": "23",
      "latitude": "35.69439000",
      "longitude": "51.42151000"
   },
   {
      "name": "Varāmīn",
      "countryCode": "IR",
      "stateCode": "23",
      "latitude": "35.32420000",
      "longitude": "51.64570000"
   },
   {
      "name": "Ţāleb ābād",
      "countryCode": "IR",
      "stateCode": "23",
      "latitude": "35.50130000",
      "longitude": "51.53147000"
   }
]