[
   {
      "name": "Anton",
      "countryCode": "BG",
      "stateCode": "23",
      "latitude": "42.75000000",
      "longitude": "24.28333000"
   },
   {
      "name": "Botevgrad",
      "countryCode": "BG",
      "stateCode": "23",
      "latitude": "42.90000000",
      "longitude": "23.78333000"
   },
   {
      "name": "Bozhurishte",
      "countryCode": "BG",
      "stateCode": "23",
      "latitude": "42.75000000",
      "longitude": "23.20000000"
   },
   {
      "name": "Chavdar",
      "countryCode": "BG",
      "stateCode": "23",
      "latitude": "42.65000000",
      "longitude": "24.05000000"
   },
   {
      "name": "Chelopech",
      "countryCode": "BG",
      "stateCode": "23",
      "latitude": "42.70000000",
      "longitude": "24.08333000"
   },
   {
      "name": "Dolna Banya",
      "countryCode": "BG",
      "stateCode": "23",
      "latitude": "42.30000000",
      "longitude": "23.76667000"
   },
   {
      "name": "Dragoman",
      "countryCode": "BG",
      "stateCode": "23",
      "latitude": "42.92191000",
      "longitude": "22.93109000"
   },
   {
      "name": "Elin Pelin",
      "countryCode": "BG",
      "stateCode": "23",
      "latitude": "42.66667000",
      "longitude": "23.60000000"
   },
   {
      "name": "Etropole",
      "countryCode": "BG",
      "stateCode": "23",
      "latitude": "42.83333000",
      "longitude": "24.00000000"
   },
   {
      "name": "Godech",
      "countryCode": "BG",
      "stateCode": "23",
      "latitude": "43.01682000",
      "longitude": "23.04852000"
   },
   {
      "name": "Gorna Malina",
      "countryCode": "BG",
      "stateCode": "23",
      "latitude": "42.68333000",
      "longitude": "23.70000000"
   },
   {
      "name": "Ihtiman",
      "countryCode": "BG",
      "stateCode": "23",
      "latitude": "42.43333000",
      "longitude": "23.81667000"
   },
   {
      "name": "Koprivshtitsa",
      "countryCode": "BG",
      "stateCode": "23",
      "latitude": "42.63333000",
      "longitude": "24.35000000"
   },
   {
      "name": "Kostinbrod",
      "countryCode": "BG",
      "stateCode": "23",
      "latitude": "42.81667000",
      "longitude": "23.21667000"
   },
   {
      "name": "Lakatnik",
      "countryCode": "BG",
      "stateCode": "23",
      "latitude": "43.05000000",
      "longitude": "23.40000000"
   },
   {
      "name": "Mirkovo",
      "countryCode": "BG",
      "stateCode": "23",
      "latitude": "42.70000000",
      "longitude": "23.98333000"
   },
   {
      "name": "Obshtina Anton",
      "countryCode": "BG",
      "stateCode": "23",
      "latitude": "42.76667000",
      "longitude": "24.30000000"
   },
   {
      "name": "Obshtina Botevgrad",
      "countryCode": "BG",
      "stateCode": "23",
      "latitude": "42.95000000",
      "longitude": "23.75000000"
   },
   {
      "name": "Obshtina Bozhurishte",
      "countryCode": "BG",
      "stateCode": "23",
      "latitude": "42.78333000",
      "longitude": "23.11667000"
   },
   {
      "name": "Obshtina Chavdar",
      "countryCode": "BG",
      "stateCode": "23",
      "latitude": "42.61667000",
      "longitude": "24.08333000"
   },
   {
      "name": "Obshtina Chelopech",
      "countryCode": "BG",
      "stateCode": "23",
      "latitude": "42.71667000",
      "longitude": "24.06667000"
   },
   {
      "name": "Obshtina Dolna Banya",
      "countryCode": "BG",
      "stateCode": "23",
      "latitude": "42.30000000",
      "longitude": "23.76667000"
   },
   {
      "name": "Obshtina Dragoman",
      "countryCode": "BG",
      "stateCode": "23",
      "latitude": "42.93333000",
      "longitude": "22.93333000"
   },
   {
      "name": "Obshtina Elin Pelin",
      "countryCode": "BG",
      "stateCode": "23",
      "latitude": "42.66667000",
      "longitude": "23.60000000"
   },
   {
      "name": "Obshtina Etropole",
      "countryCode": "BG",
      "stateCode": "23",
      "latitude": "42.85000000",
      "longitude": "24.03333000"
   },
   {
      "name": "Obshtina Gorna Malina",
      "countryCode": "BG",
      "stateCode": "23",
      "latitude": "42.71667000",
      "longitude": "23.80000000"
   },
   {
      "name": "Obshtina Koprivshtitsa",
      "countryCode": "BG",
      "stateCode": "23",
      "latitude": "42.61667000",
      "longitude": "24.38333000"
   },
   {
      "name": "Obshtina Kostenets",
      "countryCode": "BG",
      "stateCode": "23",
      "latitude": "42.30000000",
      "longitude": "23.86667000"
   },
   {
      "name": "Obshtina Kostinbrod",
      "countryCode": "BG",
      "stateCode": "23",
      "latitude": "42.88333000",
      "longitude": "23.20000000"
   },
   {
      "name": "Obshtina Mirkovo",
      "countryCode": "BG",
      "stateCode": "23",
      "latitude": "42.66667000",
      "longitude": "23.96667000"
   },
   {
      "name": "Obshtina Pirdop",
      "countryCode": "BG",
      "stateCode": "23",
      "latitude": "42.70000000",
      "longitude": "24.23333000"
   },
   {
      "name": "Obshtina Pravets",
      "countryCode": "BG",
      "stateCode": "23",
      "latitude": "42.96667000",
      "longitude": "23.98333000"
   },
   {
      "name": "Obshtina Samokov",
      "countryCode": "BG",
      "stateCode": "23",
      "latitude": "42.33333000",
      "longitude": "23.55000000"
   },
   {
      "name": "Obshtina Slivnitsa",
      "countryCode": "BG",
      "stateCode": "23",
      "latitude": "42.85000000",
      "longitude": "22.98333000"
   },
   {
      "name": "Obshtina Svoge",
      "countryCode": "BG",
      "stateCode": "23",
      "latitude": "43.00000000",
      "longitude": "23.40000000"
   },
   {
      "name": "Obshtina Zlatitsa",
      "countryCode": "BG",
      "stateCode": "23",
      "latitude": "42.70000000",
      "longitude": "24.13333000"
   },
   {
      "name": "Pirdop",
      "countryCode": "BG",
      "stateCode": "23",
      "latitude": "42.70000000",
      "longitude": "24.18333000"
   },
   {
      "name": "Pravets",
      "countryCode": "BG",
      "stateCode": "23",
      "latitude": "42.88333000",
      "longitude": "23.91667000"
   },
   {
      "name": "Samokov",
      "countryCode": "BG",
      "stateCode": "23",
      "latitude": "42.33700000",
      "longitude": "23.55280000"
   },
   {
      "name": "Slivnitsa",
      "countryCode": "BG",
      "stateCode": "23",
      "latitude": "42.85182000",
      "longitude": "23.03792000"
   },
   {
      "name": "Svoge",
      "countryCode": "BG",
      "stateCode": "23",
      "latitude": "42.96667000",
      "longitude": "23.35000000"
   },
   {
      "name": "Zlatitsa",
      "countryCode": "BG",
      "stateCode": "23",
      "latitude": "42.71667000",
      "longitude": "24.13333000"
   }
]