[
   {
      "name": "Belaya",
      "countryCode": "RU",
      "stateCode": "KRS",
      "latitude": "51.05444000",
      "longitude": "35.71611000"
   },
   {
      "name": "Cheremisinovo",
      "countryCode": "RU",
      "stateCode": "KRS",
      "latitude": "51.88550000",
      "longitude": "37.26460000"
   },
   {
      "name": "Cheremisinovskiy Rayon",
      "countryCode": "RU",
      "stateCode": "KRS",
      "latitude": "51.91667000",
      "longitude": "37.16667000"
   },
   {
      "name": "Chernitsyno",
      "countryCode": "RU",
      "stateCode": "KRS",
      "latitude": "51.50739000",
      "longitude": "36.05101000"
   },
   {
      "name": "Fatezh",
      "countryCode": "RU",
      "stateCode": "KRS",
      "latitude": "52.08910000",
      "longitude": "35.86320000"
   },
   {
      "name": "Fatezhskiy Rayon",
      "countryCode": "RU",
      "stateCode": "KRS",
      "latitude": "52.00000000",
      "longitude": "35.75000000"
   },
   {
      "name": "Glushkovo",
      "countryCode": "RU",
      "stateCode": "KRS",
      "latitude": "51.33917000",
      "longitude": "34.63278000"
   },
   {
      "name": "Gorshechenskiy Rayon",
      "countryCode": "RU",
      "stateCode": "KRS",
      "latitude": "51.50000000",
      "longitude": "38.00000000"
   },
   {
      "name": "Gorshechnoye",
      "countryCode": "RU",
      "stateCode": "KRS",
      "latitude": "51.52440000",
      "longitude": "38.03650000"
   },
   {
      "name": "Ivanino",
      "countryCode": "RU",
      "stateCode": "KRS",
      "latitude": "51.64340000",
      "longitude": "35.57690000"
   },
   {
      "name": "Kastorenskiy Rayon",
      "countryCode": "RU",
      "stateCode": "KRS",
      "latitude": "51.75000000",
      "longitude": "38.16667000"
   },
   {
      "name": "Kastornoye",
      "countryCode": "RU",
      "stateCode": "KRS",
      "latitude": "51.83340000",
      "longitude": "38.13020000"
   },
   {
      "name": "Khomutovka",
      "countryCode": "RU",
      "stateCode": "KRS",
      "latitude": "51.92070000",
      "longitude": "34.56190000"
   },
   {
      "name": "Kirovskiy",
      "countryCode": "RU",
      "stateCode": "KRS",
      "latitude": "51.41667000",
      "longitude": "36.66667000"
   },
   {
      "name": "Konyshevka",
      "countryCode": "RU",
      "stateCode": "KRS",
      "latitude": "51.84180000",
      "longitude": "35.29410000"
   },
   {
      "name": "Korenëvo",
      "countryCode": "RU",
      "stateCode": "KRS",
      "latitude": "51.41190000",
      "longitude": "34.90800000"
   },
   {
      "name": "Kshenskiy",
      "countryCode": "RU",
      "stateCode": "KRS",
      "latitude": "51.84083000",
      "longitude": "37.71361000"
   },
   {
      "name": "Kurchatov",
      "countryCode": "RU",
      "stateCode": "KRS",
      "latitude": "51.66010000",
      "longitude": "35.65210000"
   },
   {
      "name": "Kursk",
      "countryCode": "RU",
      "stateCode": "KRS",
      "latitude": "51.73733000",
      "longitude": "36.18735000"
   },
   {
      "name": "Kurskiy Rayon",
      "countryCode": "RU",
      "stateCode": "KRS",
      "latitude": "51.75000000",
      "longitude": "36.16667000"
   },
   {
      "name": "L’govskiy",
      "countryCode": "RU",
      "stateCode": "KRS",
      "latitude": "51.63069000",
      "longitude": "35.27750000"
   },
   {
      "name": "L’govskiy Rayon",
      "countryCode": "RU",
      "stateCode": "KRS",
      "latitude": "51.58333000",
      "longitude": "35.25000000"
   },
   {
      "name": "Manturovo",
      "countryCode": "RU",
      "stateCode": "KRS",
      "latitude": "51.45470000",
      "longitude": "37.12820000"
   },
   {
      "name": "Medvenskiy Rayon",
      "countryCode": "RU",
      "stateCode": "KRS",
      "latitude": "51.41667000",
      "longitude": "36.11667000"
   },
   {
      "name": "Mikhaylovka",
      "countryCode": "RU",
      "stateCode": "KRS",
      "latitude": "52.23170000",
      "longitude": "35.37670000"
   },
   {
      "name": "Oboyanskiy Rayon",
      "countryCode": "RU",
      "stateCode": "KRS",
      "latitude": "51.25000000",
      "longitude": "36.16667000"
   },
   {
      "name": "Oboyan’",
      "countryCode": "RU",
      "stateCode": "KRS",
      "latitude": "51.20981000",
      "longitude": "36.27919000"
   },
   {
      "name": "Olym",
      "countryCode": "RU",
      "stateCode": "KRS",
      "latitude": "51.67980000",
      "longitude": "38.17580000"
   },
   {
      "name": "Pervoavgustovskiy",
      "countryCode": "RU",
      "stateCode": "KRS",
      "latitude": "52.22640000",
      "longitude": "35.05520000"
   },
   {
      "name": "Ponyri Vtoryye",
      "countryCode": "RU",
      "stateCode": "KRS",
      "latitude": "52.27994000",
      "longitude": "36.22461000"
   },
   {
      "name": "Pristenskiy Rayon",
      "countryCode": "RU",
      "stateCode": "KRS",
      "latitude": "51.25000000",
      "longitude": "36.75000000"
   },
   {
      "name": "Pristen’",
      "countryCode": "RU",
      "stateCode": "KRS",
      "latitude": "51.23551000",
      "longitude": "36.69594000"
   },
   {
      "name": "Pryamitsyno",
      "countryCode": "RU",
      "stateCode": "KRS",
      "latitude": "51.65610000",
      "longitude": "35.93140000"
   },
   {
      "name": "Ryl’sk",
      "countryCode": "RU",
      "stateCode": "KRS",
      "latitude": "51.56550000",
      "longitude": "34.68220000"
   },
   {
      "name": "Shchigry",
      "countryCode": "RU",
      "stateCode": "KRS",
      "latitude": "51.87555000",
      "longitude": "36.90432000"
   },
   {
      "name": "Solntsevo",
      "countryCode": "RU",
      "stateCode": "KRS",
      "latitude": "51.41853000",
      "longitude": "36.74990000"
   },
   {
      "name": "Solntsevskiy Rayon",
      "countryCode": "RU",
      "stateCode": "KRS",
      "latitude": "51.50000000",
      "longitude": "36.75000000"
   },
   {
      "name": "Sovetskiy Rayon",
      "countryCode": "RU",
      "stateCode": "KRS",
      "latitude": "51.83333000",
      "longitude": "37.58333000"
   },
   {
      "name": "Sudzha",
      "countryCode": "RU",
      "stateCode": "KRS",
      "latitude": "51.19760000",
      "longitude": "35.27260000"
   },
   {
      "name": "Tim",
      "countryCode": "RU",
      "stateCode": "KRS",
      "latitude": "51.62222000",
      "longitude": "37.12444000"
   },
   {
      "name": "Voroshnëvo",
      "countryCode": "RU",
      "stateCode": "KRS",
      "latitude": "51.65278000",
      "longitude": "36.01722000"
   },
   {
      "name": "Zheleznogorsk",
      "countryCode": "RU",
      "stateCode": "KRS",
      "latitude": "52.33100000",
      "longitude": "35.37110000"
   },
   {
      "name": "Zolotukhino",
      "countryCode": "RU",
      "stateCode": "KRS",
      "latitude": "52.08420000",
      "longitude": "36.37777000"
   },
   {
      "name": "Zolotukhinskiy Rayon",
      "countryCode": "RU",
      "stateCode": "KRS",
      "latitude": "52.08333000",
      "longitude": "36.50000000"
   }
]