[
   {
      "name": "Anuradhapura",
      "countryCode": "LK",
      "stateCode": "7",
      "latitude": "8.31223000",
      "longitude": "80.41306000"
   },
   {
      "name": "Anuradhapura District",
      "countryCode": "LK",
      "stateCode": "7",
      "latitude": "8.33333000",
      "longitude": "80.50000000"
   },
   {
      "name": "Mihintale",
      "countryCode": "LK",
      "stateCode": "7",
      "latitude": "8.35930000",
      "longitude": "80.51030000"
   },
   {
      "name": "Polonnaruwa",
      "countryCode": "LK",
      "stateCode": "7",
      "latitude": "7.93965000",
      "longitude": "81.00274000"
   },
   {
      "name": "Polonnaruwa District",
      "countryCode": "LK",
      "stateCode": "7",
      "latitude": "8.00000000",
      "longitude": "81.00000000"
   }
]