[
   {
      "name": "Chimbarongo",
      "countryCode": "CL",
      "stateCode": "LI",
      "latitude": "-34.71247000",
      "longitude": "-71.04340000"
   },
   {
      "name": "Chépica",
      "countryCode": "CL",
      "stateCode": "LI",
      "latitude": "-34.73333333",
      "longitude": "-71.28333333"
   },
   {
      "name": "Codegua",
      "countryCode": "CL",
      "stateCode": "LI",
      "latitude": "-34.03333333",
      "longitude": "-70.66666667"
   },
   {
      "name": "Coltauco",
      "countryCode": "CL",
      "stateCode": "LI",
      "latitude": "-34.30000000",
      "longitude": "-71.10000000"
   },
   {
      "name": "Coínco",
      "countryCode": "CL",
      "stateCode": "LI",
      "latitude": "-34.26666667",
      "longitude": "-70.96666667"
   },
   {
      "name": "Doñihue",
      "countryCode": "CL",
      "stateCode": "LI",
      "latitude": "-34.23333333",
      "longitude": "-70.96666667"
   },
   {
      "name": "Graneros",
      "countryCode": "CL",
      "stateCode": "LI",
      "latitude": "-34.06863000",
      "longitude": "-70.72747000"
   },
   {
      "name": "La Estrella",
      "countryCode": "CL",
      "stateCode": "LI",
      "latitude": "-34.20000000",
      "longitude": "-71.66666667"
   },
   {
      "name": "Las Cabras",
      "countryCode": "CL",
      "stateCode": "LI",
      "latitude": "-34.30000000",
      "longitude": "-71.31666667"
   },
   {
      "name": "Litueche",
      "countryCode": "CL",
      "stateCode": "LI",
      "latitude": "-34.11666667",
      "longitude": "-71.73333333"
   },
   {
      "name": "Lolol",
      "countryCode": "CL",
      "stateCode": "LI",
      "latitude": "-34.72861111",
      "longitude": "-71.64472222"
   },
   {
      "name": "Machalí",
      "countryCode": "CL",
      "stateCode": "LI",
      "latitude": "-34.18082000",
      "longitude": "-70.64933000"
   },
   {
      "name": "Malloa",
      "countryCode": "CL",
      "stateCode": "LI",
      "latitude": "-34.45000000",
      "longitude": "-70.95000000"
   },
   {
      "name": "Marchigüe",
      "countryCode": "CL",
      "stateCode": "LI",
      "latitude": "-34.40000000",
      "longitude": "-71.63333333"
   },
   {
      "name": "Mostazal",
      "countryCode": "CL",
      "stateCode": "LI",
      "latitude": "-33.98333333",
      "longitude": "-70.70000000"
   },
   {
      "name": "Nancagua",
      "countryCode": "CL",
      "stateCode": "LI",
      "latitude": "-34.66666667",
      "longitude": "-71.21666667"
   },
   {
      "name": "Navidad",
      "countryCode": "CL",
      "stateCode": "LI",
      "latitude": "-33.93333333",
      "longitude": "-71.83333333"
   },
   {
      "name": "Olivar",
      "countryCode": "CL",
      "stateCode": "LI",
      "latitude": "-34.21164000",
      "longitude": "-70.82012000"
   },
   {
      "name": "Palmilla",
      "countryCode": "CL",
      "stateCode": "LI",
      "latitude": "-34.60000000",
      "longitude": "-71.36666667"
   },
   {
      "name": "Paredones",
      "countryCode": "CL",
      "stateCode": "LI",
      "latitude": "-34.78333333",
      "longitude": "-71.16666667"
   },
   {
      "name": "Peralillo",
      "countryCode": "CL",
      "stateCode": "LI",
      "latitude": "-34.48333333",
      "longitude": "-71.48333333"
   },
   {
      "name": "Peumo",
      "countryCode": "CL",
      "stateCode": "LI",
      "latitude": "-34.40000000",
      "longitude": "-71.16666667"
   },
   {
      "name": "Pichidegua",
      "countryCode": "CL",
      "stateCode": "LI",
      "latitude": "-34.35000000",
      "longitude": "-71.30000000"
   },
   {
      "name": "Pichilemu",
      "countryCode": "CL",
      "stateCode": "LI",
      "latitude": "-34.38333000",
      "longitude": "-72.00000000"
   },
   {
      "name": "Placilla",
      "countryCode": "CL",
      "stateCode": "LI",
      "latitude": "-34.63333333",
      "longitude": "-71.11666667"
   },
   {
      "name": "Pumanque",
      "countryCode": "CL",
      "stateCode": "LI",
      "latitude": "-34.60000000",
      "longitude": "-71.66666667"
   },
   {
      "name": "Quinta de Tilcoco",
      "countryCode": "CL",
      "stateCode": "LI",
      "latitude": "-34.35550000",
      "longitude": "-70.96527000"
   },
   {
      "name": "Rancagua",
      "countryCode": "CL",
      "stateCode": "LI",
      "latitude": "-34.17083000",
      "longitude": "-70.74444000"
   },
   {
      "name": "Rengo",
      "countryCode": "CL",
      "stateCode": "LI",
      "latitude": "-34.40639000",
      "longitude": "-70.85834000"
   },
   {
      "name": "Requínoa",
      "countryCode": "CL",
      "stateCode": "LI",
      "latitude": "-34.28333333",
      "longitude": "-70.83333333"
   },
   {
      "name": "San Fernando",
      "countryCode": "CL",
      "stateCode": "LI",
      "latitude": "-34.74330000",
      "longitude": "-70.60328000"
   },
   {
      "name": "San Vicente",
      "countryCode": "CL",
      "stateCode": "LI",
      "latitude": "-34.43859000",
      "longitude": "-71.07751000"
   },
   {
      "name": "Santa Cruz",
      "countryCode": "CL",
      "stateCode": "LI",
      "latitude": "-34.63881000",
      "longitude": "-71.36576000"
   }
]