[
   {
      "name": "Along",
      "countryCode": "IN",
      "stateCode": "AR",
      "latitude": "28.16951000",
      "longitude": "94.80060000"
   },
   {
      "name": "Anjaw",
      "countryCode": "IN",
      "stateCode": "AR",
      "latitude": "28.06549000",
      "longitude": "96.82878000"
   },
   {
      "name": "Basar",
      "countryCode": "IN",
      "stateCode": "AR",
      "latitude": "27.99008000",
      "longitude": "94.69451000"
   },
   {
      "name": "Bomdila",
      "countryCode": "IN",
      "stateCode": "AR",
      "latitude": "27.26475000",
      "longitude": "92.42472000"
   },
   {
      "name": "Changlang",
      "countryCode": "IN",
      "stateCode": "AR",
      "latitude": "27.36265000",
      "longitude": "96.34518000"
   },
   {
      "name": "Dibang Valley",
      "countryCode": "IN",
      "stateCode": "AR",
      "latitude": "28.70000000",
      "longitude": "95.70000000"
   },
   {
      "name": "East Kameng",
      "countryCode": "IN",
      "stateCode": "AR",
      "latitude": "27.30000000",
      "longitude": "93.05000000"
   },
   {
      "name": "East Siang",
      "countryCode": "IN",
      "stateCode": "AR",
      "latitude": "28.12379000",
      "longitude": "95.16339000"
   },
   {
      "name": "Hayuliang",
      "countryCode": "IN",
      "stateCode": "AR",
      "latitude": "28.07301000",
      "longitude": "96.54305000"
   },
   {
      "name": "Itanagar",
      "countryCode": "IN",
      "stateCode": "AR",
      "latitude": "27.08694000",
      "longitude": "93.60987000"
   },
   {
      "name": "Khonsa",
      "countryCode": "IN",
      "stateCode": "AR",
      "latitude": "27.01667000",
      "longitude": "95.56667000"
   },
   {
      "name": "Kurung Kumey",
      "countryCode": "IN",
      "stateCode": "AR",
      "latitude": "27.99983000",
      "longitude": "93.39240000"
   },
   {
      "name": "Lohit District",
      "countryCode": "IN",
      "stateCode": "AR",
      "latitude": "27.84012000",
      "longitude": "96.19521000"
   },
   {
      "name": "Lower Dibang Valley",
      "countryCode": "IN",
      "stateCode": "AR",
      "latitude": "28.37258000",
      "longitude": "95.88040000"
   },
   {
      "name": "Lower Subansiri",
      "countryCode": "IN",
      "stateCode": "AR",
      "latitude": "27.62554000",
      "longitude": "93.93908000"
   },
   {
      "name": "Margherita",
      "countryCode": "IN",
      "stateCode": "AR",
      "latitude": "27.28482000",
      "longitude": "95.66796000"
   },
   {
      "name": "Naharlagun",
      "countryCode": "IN",
      "stateCode": "AR",
      "latitude": "27.10467000",
      "longitude": "93.69518000"
   },
   {
      "name": "Pasighat",
      "countryCode": "IN",
      "stateCode": "AR",
      "latitude": "28.06631000",
      "longitude": "95.32678000"
   },
   {
      "name": "Tawang",
      "countryCode": "IN",
      "stateCode": "AR",
      "latitude": "27.57417000",
      "longitude": "91.92437000"
   },
   {
      "name": "Tezu",
      "countryCode": "IN",
      "stateCode": "AR",
      "latitude": "27.91256000",
      "longitude": "96.12882000"
   },
   {
      "name": "Tirap",
      "countryCode": "IN",
      "stateCode": "AR",
      "latitude": "27.01917000",
      "longitude": "95.51788000"
   },
   {
      "name": "Upper Siang",
      "countryCode": "IN",
      "stateCode": "AR",
      "latitude": "28.83355000",
      "longitude": "94.91806000"
   },
   {
      "name": "Upper Subansiri",
      "countryCode": "IN",
      "stateCode": "AR",
      "latitude": "28.30000000",
      "longitude": "94.00000000"
   },
   {
      "name": "West Kameng",
      "countryCode": "IN",
      "stateCode": "AR",
      "latitude": "27.40000000",
      "longitude": "92.35000000"
   },
   {
      "name": "West Siang",
      "countryCode": "IN",
      "stateCode": "AR",
      "latitude": "28.40000000",
      "longitude": "94.55000000"
   },
   {
      "name": "Ziro",
      "countryCode": "IN",
      "stateCode": "AR",
      "latitude": "27.59497000",
      "longitude": "93.83854000"
   }
]