[
   {
      "name": "Aburi",
      "countryCode": "GH",
      "stateCode": "EP",
      "latitude": "5.84802000",
      "longitude": "-0.17449000"
   },
   {
      "name": "Akim Oda",
      "countryCode": "GH",
      "stateCode": "EP",
      "latitude": "5.92665000",
      "longitude": "-0.98577000"
   },
   {
      "name": "Akim Swedru",
      "countryCode": "GH",
      "stateCode": "EP",
      "latitude": "5.89380000",
      "longitude": "-1.01636000"
   },
   {
      "name": "Akropong",
      "countryCode": "GH",
      "stateCode": "EP",
      "latitude": "5.97462000",
      "longitude": "-0.08542000"
   },
   {
      "name": "Akwatia",
      "countryCode": "GH",
      "stateCode": "EP",
      "latitude": "6.04024000",
      "longitude": "-0.80876000"
   },
   {
      "name": "Asamankese",
      "countryCode": "GH",
      "stateCode": "EP",
      "latitude": "5.86006000",
      "longitude": "-0.66350000"
   },
   {
      "name": "Begoro",
      "countryCode": "GH",
      "stateCode": "EP",
      "latitude": "6.38706000",
      "longitude": "-0.37738000"
   },
   {
      "name": "Kibi",
      "countryCode": "GH",
      "stateCode": "EP",
      "latitude": "6.16494000",
      "longitude": "-0.55376000"
   },
   {
      "name": "Koforidua",
      "countryCode": "GH",
      "stateCode": "EP",
      "latitude": "6.09408000",
      "longitude": "-0.25913000"
   },
   {
      "name": "Mpraeso",
      "countryCode": "GH",
      "stateCode": "EP",
      "latitude": "6.59321000",
      "longitude": "-0.73462000"
   },
   {
      "name": "Nsawam",
      "countryCode": "GH",
      "stateCode": "EP",
      "latitude": "5.80893000",
      "longitude": "-0.35026000"
   },
   {
      "name": "Suhum",
      "countryCode": "GH",
      "stateCode": "EP",
      "latitude": "6.04089000",
      "longitude": "-0.45004000"
   }
]