[
   {
      "name": "Camenca",
      "countryCode": "MD",
      "stateCode": "SN",
      "latitude": "48.03233000",
      "longitude": "28.69899000"
   },
   {
      "name": "Crasnoe",
      "countryCode": "MD",
      "stateCode": "SN",
      "latitude": "46.64844000",
      "longitude": "29.80403000"
   },
   {
      "name": "Dnestrovsc",
      "countryCode": "MD",
      "stateCode": "SN",
      "latitude": "46.61640000",
      "longitude": "29.91926000"
   },
   {
      "name": "Dubăsari",
      "countryCode": "MD",
      "stateCode": "SN",
      "latitude": "47.26562000",
      "longitude": "29.16667000"
   },
   {
      "name": "Hryhoriopol",
      "countryCode": "MD",
      "stateCode": "SN",
      "latitude": "47.15413000",
      "longitude": "29.30008000"
   },
   {
      "name": "Maiac",
      "countryCode": "MD",
      "stateCode": "SN",
      "latitude": "47.23727000",
      "longitude": "29.38498000"
   },
   {
      "name": "Pervomaisc",
      "countryCode": "MD",
      "stateCode": "SN",
      "latitude": "46.73253000",
      "longitude": "29.96170000"
   },
   {
      "name": "Rîbniţa",
      "countryCode": "MD",
      "stateCode": "SN",
      "latitude": "47.76817000",
      "longitude": "29.01000000"
   },
   {
      "name": "Slobozia",
      "countryCode": "MD",
      "stateCode": "SN",
      "latitude": "46.72927000",
      "longitude": "29.70446000"
   },
   {
      "name": "Tiraspol",
      "countryCode": "MD",
      "stateCode": "SN",
      "latitude": "46.84274000",
      "longitude": "29.62909000"
   },
   {
      "name": "Tiraspolul Nou",
      "countryCode": "MD",
      "stateCode": "SN",
      "latitude": "46.82874000",
      "longitude": "29.52174000"
   }
]