[
   {
      "name": "Kiambu",
      "countryCode": "KE",
      "stateCode": "13",
      "latitude": "-1.17139000",
      "longitude": "36.83556000"
   },
   {
      "name": "Kikuyu",
      "countryCode": "KE",
      "stateCode": "13",
      "latitude": "-1.24627000",
      "longitude": "36.66291000"
   },
   {
      "name": "Limuru",
      "countryCode": "KE",
      "stateCode": "13",
      "latitude": "-1.11360000",
      "longitude": "36.64205000"
   },
   {
      "name": "Pumwani",
      "countryCode": "KE",
      "stateCode": "13",
      "latitude": "-1.28333000",
      "longitude": "36.85000000"
   },
   {
      "name": "Thika",
      "countryCode": "KE",
      "stateCode": "13",
      "latitude": "-1.03326000",
      "longitude": "37.06933000"
   }
]