[
   {
      "name": "Agua Fría",
      "countryCode": "HN",
      "stateCode": "VA",
      "latitude": "13.46889000",
      "longitude": "-87.55111000"
   },
   {
      "name": "Alianza",
      "countryCode": "HN",
      "stateCode": "VA",
      "latitude": "13.44815000",
      "longitude": "-87.68643000"
   },
   {
      "name": "Amapala",
      "countryCode": "HN",
      "stateCode": "VA",
      "latitude": "13.29222000",
      "longitude": "-87.65389000"
   },
   {
      "name": "Aramecina",
      "countryCode": "HN",
      "stateCode": "VA",
      "latitude": "13.74222000",
      "longitude": "-87.71028000"
   },
   {
      "name": "Caridad",
      "countryCode": "HN",
      "stateCode": "VA",
      "latitude": "13.81562000",
      "longitude": "-87.68121000"
   },
   {
      "name": "El Cubolero",
      "countryCode": "HN",
      "stateCode": "VA",
      "latitude": "13.46667000",
      "longitude": "-87.66667000"
   },
   {
      "name": "El Tular",
      "countryCode": "HN",
      "stateCode": "VA",
      "latitude": "13.46639000",
      "longitude": "-87.51528000"
   },
   {
      "name": "Goascorán",
      "countryCode": "HN",
      "stateCode": "VA",
      "latitude": "13.58333000",
      "longitude": "-87.61667000"
   },
   {
      "name": "Jícaro Galán",
      "countryCode": "HN",
      "stateCode": "VA",
      "latitude": "13.53167000",
      "longitude": "-87.43889000"
   },
   {
      "name": "La Alianza",
      "countryCode": "HN",
      "stateCode": "VA",
      "latitude": "13.51222000",
      "longitude": "-87.72444000"
   },
   {
      "name": "La Criba",
      "countryCode": "HN",
      "stateCode": "VA",
      "latitude": "13.45361000",
      "longitude": "-87.41333000"
   },
   {
      "name": "Langue",
      "countryCode": "HN",
      "stateCode": "VA",
      "latitude": "13.62083000",
      "longitude": "-87.65250000"
   },
   {
      "name": "Nacaome",
      "countryCode": "HN",
      "stateCode": "VA",
      "latitude": "13.52209000",
      "longitude": "-87.52477000"
   },
   {
      "name": "San Francisco de Coray",
      "countryCode": "HN",
      "stateCode": "VA",
      "latitude": "13.66139000",
      "longitude": "-87.53278000"
   },
   {
      "name": "San Lorenzo",
      "countryCode": "HN",
      "stateCode": "VA",
      "latitude": "13.45149000",
      "longitude": "-87.40743000"
   }
]