[
   {
      "name": "Abenberg",
      "countryCode": "DE",
      "stateCode": "BY",
      "latitude": "49.24282000",
      "longitude": "10.96401000"
   },
   {
      "name": "Abensberg",
      "countryCode": "DE",
      "stateCode": "BY",
      "latitude": "48.81684000",
      "longitude": "11.84980000"
   },
   {
      "name": "Absberg",
      "countryCode": "DE",
      "stateCode": "BY",
      "latitude": "49.14438000",
      "longitude": "10.88101000"
   },
   {
      "name": "Achslach",
      "countryCode": "DE",
      "stateCode": "BY",
      "latitude": "48.97171000",
      "longitude": "12.93511000"
   },
   {
      "name": "Adelsdorf",
      "countryCode": "DE",
      "stateCode": "BY",
      "latitude": "49.47022000",
      "longitude": "10.68522000"
   },
   {
      "name": "Adelshofen",
      "countryCode": "DE",
      "stateCode": "BY",
      "latitude": "48.18333000",
      "longitude": "11.11667000"
   },
   {
      "name": "Adelsried",
      "countryCode": "DE",
      "stateCode": "BY",
      "latitude": "48.42465000",
      "longitude": "10.71828000"
   },
   {
      "name": "Adelzhausen",
      "countryCode": "DE",
      "stateCode": "BY",
      "latitude": "48.35671000",
      "longitude": "11.13851000"
   },
   {
      "name": "Adlkofen",
      "countryCode": "DE",
      "stateCode": "BY",
      "latitude": "48.55000000",
      "longitude": "12.26667000"
   },
   {
      "name": "Affing",
      "countryCode": "DE",
      "stateCode": "BY",
      "latitude": "48.46667000",
      "longitude": "10.98333000"
   },
   {
      "name": "Aham",
      "countryCode": "DE",
      "stateCode": "BY",
      "latitude": "48.34821000",
      "longitude": "12.16156000"
   },
   {
      "name": "Aholfing",
      "countryCode": "DE",
      "stateCode": "BY",
      "latitude": "48.94283000",
      "longitude": "12.46857000"
   },
   {
      "name": "Aholming",
      "countryCode": "DE",
      "stateCode": "BY",
      "latitude": "48.73542000",
      "longitude": "12.90997000"
   },
   {
      "name": "Ahorn",
      "countryCode": "DE",
      "stateCode": "BY",
      "latitude": "50.23762000",
      "longitude": "10.95417000"
   },
   {
      "name": "Aichach",
      "countryCode": "DE",
      "stateCode": "BY",
      "latitude": "48.45755000",
      "longitude": "11.13413000"
   },
   {
      "name": "Aichen",
      "countryCode": "DE",
      "stateCode": "BY",
      "latitude": "48.22898000",
      "longitude": "10.53949000"
   },
   {
      "name": "Aidenbach",
      "countryCode": "DE",
      "stateCode": "BY",
      "latitude": "48.57028000",
      "longitude": "13.09000000"
   },
   {
      "name": "Aidhausen",
      "countryCode": "DE",
      "stateCode": "BY",
      "latitude": "50.15000000",
      "longitude": "10.43333000"
   },
   {
      "name": "Aiglsbach",
      "countryCode": "DE",
      "stateCode": "BY",
      "latitude": "48.69211000",
      "longitude": "11.70831000"
   },
   {
      "name": "Aindling",
      "countryCode": "DE",
      "stateCode": "BY",
      "latitude": "48.51360000",
      "longitude": "10.95315000"
   },
   {
      "name": "Ainring",
      "countryCode": "DE",
      "stateCode": "BY",
      "latitude": "47.81311000",
      "longitude": "12.94048000"
   },
   {
      "name": "Aislingen",
      "countryCode": "DE",
      "stateCode": "BY",
      "latitude": "48.50648000",
      "longitude": "10.45778000"
   },
   {
      "name": "Aitrang",
      "countryCode": "DE",
      "stateCode": "BY",
      "latitude": "47.81667000",
      "longitude": "10.53333000"
   },
   {
      "name": "Albaching",
      "countryCode": "DE",
      "stateCode": "BY",
      "latitude": "48.11011000",
      "longitude": "12.11074000"
   },
   {
      "name": "Albertshofen",
      "countryCode": "DE",
      "stateCode": "BY",
      "latitude": "49.76667000",
      "longitude": "10.16667000"
   },
   {
      "name": "Aldersbach",
      "countryCode": "DE",
      "stateCode": "BY",
      "latitude": "48.58972000",
      "longitude": "13.08971000"
   },
   {
      "name": "Alerheim",
      "countryCode": "DE",
      "stateCode": "BY",
      "latitude": "48.85000000",
      "longitude": "10.61667000"
   },
   {
      "name": "Alesheim",
      "countryCode": "DE",
      "stateCode": "BY",
      "latitude": "49.04648000",
      "longitude": "10.86496000"
   },
   {
      "name": "Aletshausen",
      "countryCode": "DE",
      "stateCode": "BY",
      "latitude": "48.19859000",
      "longitude": "10.38877000"
   },
   {
      "name": "Alfeld",
      "countryCode": "DE",
      "stateCode": "BY",
      "latitude": "49.43333000",
      "longitude": "11.55000000"
   },
   {
      "name": "Allersberg",
      "countryCode": "DE",
      "stateCode": "BY",
      "latitude": "49.25132000",
      "longitude": "11.23659000"
   },
   {
      "name": "Allershausen",
      "countryCode": "DE",
      "stateCode": "BY",
      "latitude": "48.43333000",
      "longitude": "11.60000000"
   },
   {
      "name": "Alling",
      "countryCode": "DE",
      "stateCode": "BY",
      "latitude": "48.14034000",
      "longitude": "11.30144000"
   },
   {
      "name": "Altdorf",
      "countryCode": "DE",
      "stateCode": "BY",
      "latitude": "49.38560000",
      "longitude": "11.35730000"
   },
   {
      "name": "Alteglofsheim",
      "countryCode": "DE",
      "stateCode": "BY",
      "latitude": "48.91667000",
      "longitude": "12.20000000"
   },
   {
      "name": "Altenbuch",
      "countryCode": "DE",
      "stateCode": "BY",
      "latitude": "49.82861000",
      "longitude": "9.40139000"
   },
   {
      "name": "Altendorf",
      "countryCode": "DE",
      "stateCode": "BY",
      "latitude": "50.08424000",
      "longitude": "11.16786000"
   },
   {
      "name": "Altenkunstadt",
      "countryCode": "DE",
      "stateCode": "BY",
      "latitude": "50.12504000",
      "longitude": "11.25030000"
   },
   {
      "name": "Altenmarkt",
      "countryCode": "DE",
      "stateCode": "BY",
      "latitude": "47.77960000",
      "longitude": "12.13560000"
   },
   {
      "name": "Altenmünster",
      "countryCode": "DE",
      "stateCode": "BY",
      "latitude": "48.46495000",
      "longitude": "10.59065000"
   },
   {
      "name": "Altenstadt",
      "countryCode": "DE",
      "stateCode": "BY",
      "latitude": "48.16030000",
      "longitude": "10.11437000"
   },
   {
      "name": "Altenthann",
      "countryCode": "DE",
      "stateCode": "BY",
      "latitude": "49.10000000",
      "longitude": "12.30000000"
   },
   {
      "name": "Alterhofen",
      "countryCode": "DE",
      "stateCode": "BY",
      "latitude": "48.84659000",
      "longitude": "12.62012000"
   },
   {
      "name": "Altfraunhofen",
      "countryCode": "DE",
      "stateCode": "BY",
      "latitude": "48.45000000",
      "longitude": "12.16667000"
   },
   {
      "name": "Althegnenberg",
      "countryCode": "DE",
      "stateCode": "BY",
      "latitude": "48.23333000",
      "longitude": "11.06667000"
   },
   {
      "name": "Altomünster",
      "countryCode": "DE",
      "stateCode": "BY",
      "latitude": "48.38767000",
      "longitude": "11.25691000"
   },
   {
      "name": "Altusried",
      "countryCode": "DE",
      "stateCode": "BY",
      "latitude": "47.80410000",
      "longitude": "10.21429000"
   },
   {
      "name": "Altötting",
      "countryCode": "DE",
      "stateCode": "BY",
      "latitude": "48.22533000",
      "longitude": "12.67665000"
   },
   {
      "name": "Alzenau in Unterfranken",
      "countryCode": "DE",
      "stateCode": "BY",
      "latitude": "50.08880000",
      "longitude": "9.06455000"
   },
   {
      "name": "Amberg",
      "countryCode": "DE",
      "stateCode": "BY",
      "latitude": "49.44287000",
      "longitude": "11.86267000"
   },
   {
      "name": "Amendingen",
      "countryCode": "DE",
      "stateCode": "BY",
      "latitude": "48.00302000",
      "longitude": "10.17918000"
   },
   {
      "name": "Amerang",
      "countryCode": "DE",
      "stateCode": "BY",
      "latitude": "47.99139000",
      "longitude": "12.30795000"
   },
   {
      "name": "Ammerndorf",
      "countryCode": "DE",
      "stateCode": "BY",
      "latitude": "49.42335000",
      "longitude": "10.85011000"
   },
   {
      "name": "Ammerthal",
      "countryCode": "DE",
      "stateCode": "BY",
      "latitude": "49.44123000",
      "longitude": "11.76181000"
   },
   {
      "name": "Ampfing",
      "countryCode": "DE",
      "stateCode": "BY",
      "latitude": "48.25400000",
      "longitude": "12.41515000"
   },
   {
      "name": "Andechs",
      "countryCode": "DE",
      "stateCode": "BY",
      "latitude": "47.97464000",
      "longitude": "11.18279000"
   },
   {
      "name": "Ansbach",
      "countryCode": "DE",
      "stateCode": "BY",
      "latitude": "49.30481000",
      "longitude": "10.59310000"
   },
   {
      "name": "Antdorf",
      "countryCode": "DE",
      "stateCode": "BY",
      "latitude": "47.75133000",
      "longitude": "11.30845000"
   },
   {
      "name": "Anzing",
      "countryCode": "DE",
      "stateCode": "BY",
      "latitude": "48.15171000",
      "longitude": "11.85330000"
   },
   {
      "name": "Apfeldorf",
      "countryCode": "DE",
      "stateCode": "BY",
      "latitude": "47.90000000",
      "longitude": "10.93333000"
   },
   {
      "name": "Arberg",
      "countryCode": "DE",
      "stateCode": "BY",
      "latitude": "49.14428000",
      "longitude": "10.61722000"
   },
   {
      "name": "Aresing",
      "countryCode": "DE",
      "stateCode": "BY",
      "latitude": "48.27704000",
      "longitude": "12.60538000"
   },
   {
      "name": "Arnbruck",
      "countryCode": "DE",
      "stateCode": "BY",
      "latitude": "49.13012000",
      "longitude": "12.99820000"
   },
   {
      "name": "Arnschwang",
      "countryCode": "DE",
      "stateCode": "BY",
      "latitude": "49.27663000",
      "longitude": "12.81595000"
   },
   {
      "name": "Arnstein",
      "countryCode": "DE",
      "stateCode": "BY",
      "latitude": "49.97767000",
      "longitude": "9.96983000"
   },
   {
      "name": "Arnstorf",
      "countryCode": "DE",
      "stateCode": "BY",
      "latitude": "48.55840000",
      "longitude": "12.81674000"
   },
   {
      "name": "Arrach",
      "countryCode": "DE",
      "stateCode": "BY",
      "latitude": "49.19149000",
      "longitude": "12.99387000"
   },
   {
      "name": "Arzberg",
      "countryCode": "DE",
      "stateCode": "BY",
      "latitude": "50.05774000",
      "longitude": "12.18676000"
   },
   {
      "name": "Asbach-Bäumenheim",
      "countryCode": "DE",
      "stateCode": "BY",
      "latitude": "48.68333000",
      "longitude": "10.81667000"
   },
   {
      "name": "Ascha",
      "countryCode": "DE",
      "stateCode": "BY",
      "latitude": "49.00000000",
      "longitude": "12.63333000"
   },
   {
      "name": "Aschaffenburg",
      "countryCode": "DE",
      "stateCode": "BY",
      "latitude": "49.97704000",
      "longitude": "9.15214000"
   },
   {
      "name": "Aschau am Inn",
      "countryCode": "DE",
      "stateCode": "BY",
      "latitude": "48.19845000",
      "longitude": "12.35003000"
   },
   {
      "name": "Aschau im Chiemgau",
      "countryCode": "DE",
      "stateCode": "BY",
      "latitude": "47.77689000",
      "longitude": "12.32297000"
   },
   {
      "name": "Aschheim",
      "countryCode": "DE",
      "stateCode": "BY",
      "latitude": "48.17112000",
      "longitude": "11.71675000"
   },
   {
      "name": "Attenhofen",
      "countryCode": "DE",
      "stateCode": "BY",
      "latitude": "48.65072000",
      "longitude": "11.84850000"
   },
   {
      "name": "Attenkirchen",
      "countryCode": "DE",
      "stateCode": "BY",
      "latitude": "48.50526000",
      "longitude": "11.76011000"
   },
   {
      "name": "Atting",
      "countryCode": "DE",
      "stateCode": "BY",
      "latitude": "48.89412000",
      "longitude": "12.48776000"
   },
   {
      "name": "Au in der Hallertau",
      "countryCode": "DE",
      "stateCode": "BY",
      "latitude": "48.55838000",
      "longitude": "11.74138000"
   },
   {
      "name": "Aub",
      "countryCode": "DE",
      "stateCode": "BY",
      "latitude": "49.55267000",
      "longitude": "10.06530000"
   },
   {
      "name": "Auerbach",
      "countryCode": "DE",
      "stateCode": "BY",
      "latitude": "48.80353000",
      "longitude": "13.09952000"
   },
   {
      "name": "Aufhausen",
      "countryCode": "DE",
      "stateCode": "BY",
      "latitude": "48.87205000",
      "longitude": "12.28210000"
   },
   {
      "name": "Aufseß",
      "countryCode": "DE",
      "stateCode": "BY",
      "latitude": "49.88370000",
      "longitude": "11.22692000"
   },
   {
      "name": "Augsburg",
      "countryCode": "DE",
      "stateCode": "BY",
      "latitude": "48.37154000",
      "longitude": "10.89851000"
   },
   {
      "name": "Auhausen",
      "countryCode": "DE",
      "stateCode": "BY",
      "latitude": "49.00790000",
      "longitude": "10.62240000"
   },
   {
      "name": "Aura im Sinngrund",
      "countryCode": "DE",
      "stateCode": "BY",
      "latitude": "50.17819000",
      "longitude": "9.57547000"
   },
   {
      "name": "Außernzell",
      "countryCode": "DE",
      "stateCode": "BY",
      "latitude": "48.72409000",
      "longitude": "13.20291000"
   },
   {
      "name": "Aying",
      "countryCode": "DE",
      "stateCode": "BY",
      "latitude": "47.97010000",
      "longitude": "11.77752000"
   },
   {
      "name": "Aystetten",
      "countryCode": "DE",
      "stateCode": "BY",
      "latitude": "48.40556000",
      "longitude": "10.77742000"
   },
   {
      "name": "Aßling",
      "countryCode": "DE",
      "stateCode": "BY",
      "latitude": "47.99297000",
      "longitude": "12.00643000"
   },
   {
      "name": "Baar-Ebenhausen",
      "countryCode": "DE",
      "stateCode": "BY",
      "latitude": "48.67065000",
      "longitude": "11.46983000"
   },
   {
      "name": "Babenhausen",
      "countryCode": "DE",
      "stateCode": "BY",
      "latitude": "48.14497000",
      "longitude": "10.25325000"
   },
   {
      "name": "Babensham",
      "countryCode": "DE",
      "stateCode": "BY",
      "latitude": "48.08333000",
      "longitude": "12.26667000"
   },
   {
      "name": "Bach",
      "countryCode": "DE",
      "stateCode": "BY",
      "latitude": "49.40000000",
      "longitude": "12.38333000"
   },
   {
      "name": "Bachhagel",
      "countryCode": "DE",
      "stateCode": "BY",
      "latitude": "48.63217000",
      "longitude": "10.32045000"
   },
   {
      "name": "Bad Abbach",
      "countryCode": "DE",
      "stateCode": "BY",
      "latitude": "48.93754000",
      "longitude": "12.04494000"
   },
   {
      "name": "Bad Aibling",
      "countryCode": "DE",
      "stateCode": "BY",
      "latitude": "47.86380000",
      "longitude": "12.01055000"
   },
   {
      "name": "Bad Alexandersbad",
      "countryCode": "DE",
      "stateCode": "BY",
      "latitude": "50.01667000",
      "longitude": "12.01667000"
   },
   {
      "name": "Bad Berneck im Fichtelgebirge",
      "countryCode": "DE",
      "stateCode": "BY",
      "latitude": "50.04564000",
      "longitude": "11.67238000"
   },
   {
      "name": "Bad Birnbach",
      "countryCode": "DE",
      "stateCode": "BY",
      "latitude": "48.44489000",
      "longitude": "13.09103000"
   },
   {
      "name": "Bad Bocklet",
      "countryCode": "DE",
      "stateCode": "BY",
      "latitude": "50.26648000",
      "longitude": "10.07902000"
   },
   {
      "name": "Bad Brückenau",
      "countryCode": "DE",
      "stateCode": "BY",
      "latitude": "50.30853000",
      "longitude": "9.78985000"
   },
   {
      "name": "Bad Endorf",
      "countryCode": "DE",
      "stateCode": "BY",
      "latitude": "47.90901000",
      "longitude": "12.29795000"
   },
   {
      "name": "Bad Feilnbach",
      "countryCode": "DE",
      "stateCode": "BY",
      "latitude": "47.77331000",
      "longitude": "12.00973000"
   },
   {
      "name": "Bad Füssing",
      "countryCode": "DE",
      "stateCode": "BY",
      "latitude": "48.35100000",
      "longitude": "13.31200000"
   },
   {
      "name": "Bad Griesbach",
      "countryCode": "DE",
      "stateCode": "BY",
      "latitude": "48.45181000",
      "longitude": "13.19329000"
   },
   {
      "name": "Bad Heilbrunn",
      "countryCode": "DE",
      "stateCode": "BY",
      "latitude": "47.74671000",
      "longitude": "11.45934000"
   },
   {
      "name": "Bad Kissingen",
      "countryCode": "DE",
      "stateCode": "BY",
      "latitude": "50.20228000",
      "longitude": "10.07784000"
   },
   {
      "name": "Bad Kohlgrub",
      "countryCode": "DE",
      "stateCode": "BY",
      "latitude": "47.66667000",
      "longitude": "11.05000000"
   },
   {
      "name": "Bad Königshofen im Grabfeld",
      "countryCode": "DE",
      "stateCode": "BY",
      "latitude": "50.30082000",
      "longitude": "10.46887000"
   },
   {
      "name": "Bad Neustadt an der Saale",
      "countryCode": "DE",
      "stateCode": "BY",
      "latitude": "50.32174000",
      "longitude": "10.20673000"
   },
   {
      "name": "Bad Reichenhall",
      "countryCode": "DE",
      "stateCode": "BY",
      "latitude": "47.72947000",
      "longitude": "12.87819000"
   },
   {
      "name": "Bad Staffelstein",
      "countryCode": "DE",
      "stateCode": "BY",
      "latitude": "50.10199000",
      "longitude": "11.00128000"
   },
   {
      "name": "Bad Steben",
      "countryCode": "DE",
      "stateCode": "BY",
      "latitude": "50.36648000",
      "longitude": "11.64438000"
   },
   {
      "name": "Bad Tölz",
      "countryCode": "DE",
      "stateCode": "BY",
      "latitude": "47.76111000",
      "longitude": "11.55890000"
   },
   {
      "name": "Bad Wiessee",
      "countryCode": "DE",
      "stateCode": "BY",
      "latitude": "47.71667000",
      "longitude": "11.71667000"
   },
   {
      "name": "Bad Windsheim",
      "countryCode": "DE",
      "stateCode": "BY",
      "latitude": "49.50274000",
      "longitude": "10.41539000"
   },
   {
      "name": "Bad Wörishofen",
      "countryCode": "DE",
      "stateCode": "BY",
      "latitude": "48.00674000",
      "longitude": "10.59666000"
   },
   {
      "name": "Baierbrunn",
      "countryCode": "DE",
      "stateCode": "BY",
      "latitude": "48.02030000",
      "longitude": "11.48689000"
   },
   {
      "name": "Baiersdorf",
      "countryCode": "DE",
      "stateCode": "BY",
      "latitude": "49.65807000",
      "longitude": "11.03594000"
   },
   {
      "name": "Baisweil",
      "countryCode": "DE",
      "stateCode": "BY",
      "latitude": "47.94439000",
      "longitude": "10.54007000"
   },
   {
      "name": "Balzhausen",
      "countryCode": "DE",
      "stateCode": "BY",
      "latitude": "48.24228000",
      "longitude": "10.49366000"
   },
   {
      "name": "Bamberg",
      "countryCode": "DE",
      "stateCode": "BY",
      "latitude": "49.89873000",
      "longitude": "10.90067000"
   },
   {
      "name": "Barbing",
      "countryCode": "DE",
      "stateCode": "BY",
      "latitude": "49.00000000",
      "longitude": "12.20000000"
   },
   {
      "name": "Bastheim",
      "countryCode": "DE",
      "stateCode": "BY",
      "latitude": "50.40080000",
      "longitude": "10.20372000"
   },
   {
      "name": "Baudenbach",
      "countryCode": "DE",
      "stateCode": "BY",
      "latitude": "49.62512000",
      "longitude": "10.53598000"
   },
   {
      "name": "Baunach",
      "countryCode": "DE",
      "stateCode": "BY",
      "latitude": "49.98592000",
      "longitude": "10.85179000"
   },
   {
      "name": "Bayerbach",
      "countryCode": "DE",
      "stateCode": "BY",
      "latitude": "48.70450000",
      "longitude": "12.29750000"
   },
   {
      "name": "Bayerisch Eisenstein",
      "countryCode": "DE",
      "stateCode": "BY",
      "latitude": "49.11667000",
      "longitude": "13.20000000"
   },
   {
      "name": "Bayerisch Gmain",
      "countryCode": "DE",
      "stateCode": "BY",
      "latitude": "47.71667000",
      "longitude": "12.90000000"
   },
   {
      "name": "Bayreuth",
      "countryCode": "DE",
      "stateCode": "BY",
      "latitude": "49.94782000",
      "longitude": "11.57893000"
   },
   {
      "name": "Bayrischzell",
      "countryCode": "DE",
      "stateCode": "BY",
      "latitude": "47.67440000",
      "longitude": "12.01449000"
   },
   {
      "name": "Bechtsrieth",
      "countryCode": "DE",
      "stateCode": "BY",
      "latitude": "49.64487000",
      "longitude": "12.20997000"
   },
   {
      "name": "Bellenberg",
      "countryCode": "DE",
      "stateCode": "BY",
      "latitude": "48.25726000",
      "longitude": "10.09094000"
   },
   {
      "name": "Benediktbeuern",
      "countryCode": "DE",
      "stateCode": "BY",
      "latitude": "47.70624000",
      "longitude": "11.41522000"
   },
   {
      "name": "Benningen",
      "countryCode": "DE",
      "stateCode": "BY",
      "latitude": "47.96667000",
      "longitude": "10.21667000"
   },
   {
      "name": "Beratzhausen",
      "countryCode": "DE",
      "stateCode": "BY",
      "latitude": "49.09517000",
      "longitude": "11.80970000"
   },
   {
      "name": "Berching",
      "countryCode": "DE",
      "stateCode": "BY",
      "latitude": "49.10695000",
      "longitude": "11.44138000"
   },
   {
      "name": "Berchtesgaden",
      "countryCode": "DE",
      "stateCode": "BY",
      "latitude": "47.63236000",
      "longitude": "13.00187000"
   },
   {
      "name": "Berg",
      "countryCode": "DE",
      "stateCode": "BY",
      "latitude": "49.81417000",
      "longitude": "12.14161000"
   },
   {
      "name": "Berg im Gau",
      "countryCode": "DE",
      "stateCode": "BY",
      "latitude": "48.63333000",
      "longitude": "11.25000000"
   },
   {
      "name": "Bergen",
      "countryCode": "DE",
      "stateCode": "BY",
      "latitude": "47.80837000",
      "longitude": "12.58982000"
   },
   {
      "name": "Bergkirchen",
      "countryCode": "DE",
      "stateCode": "BY",
      "latitude": "48.25671000",
      "longitude": "11.36488000"
   },
   {
      "name": "Berglern",
      "countryCode": "DE",
      "stateCode": "BY",
      "latitude": "48.38407000",
      "longitude": "11.93012000"
   },
   {
      "name": "Bergrheinfeld",
      "countryCode": "DE",
      "stateCode": "BY",
      "latitude": "50.01028000",
      "longitude": "10.18089000"
   },
   {
      "name": "Bergtheim",
      "countryCode": "DE",
      "stateCode": "BY",
      "latitude": "49.90000000",
      "longitude": "10.06667000"
   },
   {
      "name": "Bernau am Chiemsee",
      "countryCode": "DE",
      "stateCode": "BY",
      "latitude": "47.81167000",
      "longitude": "12.37566000"
   },
   {
      "name": "Bernbeuren",
      "countryCode": "DE",
      "stateCode": "BY",
      "latitude": "47.73696000",
      "longitude": "10.77707000"
   },
   {
      "name": "Berngau",
      "countryCode": "DE",
      "stateCode": "BY",
      "latitude": "49.25000000",
      "longitude": "11.40000000"
   },
   {
      "name": "Bernhardswald",
      "countryCode": "DE",
      "stateCode": "BY",
      "latitude": "49.09123000",
      "longitude": "12.24744000"
   },
   {
      "name": "Bernried",
      "countryCode": "DE",
      "stateCode": "BY",
      "latitude": "48.91667000",
      "longitude": "12.88333000"
   },
   {
      "name": "Betzigau",
      "countryCode": "DE",
      "stateCode": "BY",
      "latitude": "47.73333000",
      "longitude": "10.38333000"
   },
   {
      "name": "Beutelsbach",
      "countryCode": "DE",
      "stateCode": "BY",
      "latitude": "48.55000000",
      "longitude": "13.11667000"
   },
   {
      "name": "Biberbach",
      "countryCode": "DE",
      "stateCode": "BY",
      "latitude": "48.51778000",
      "longitude": "10.81139000"
   },
   {
      "name": "Biburg",
      "countryCode": "DE",
      "stateCode": "BY",
      "latitude": "48.79066000",
      "longitude": "11.85726000"
   },
   {
      "name": "Bichl",
      "countryCode": "DE",
      "stateCode": "BY",
      "latitude": "47.72010000",
      "longitude": "11.41231000"
   },
   {
      "name": "Bidingen",
      "countryCode": "DE",
      "stateCode": "BY",
      "latitude": "47.82974000",
      "longitude": "10.72623000"
   },
   {
      "name": "Biebelried",
      "countryCode": "DE",
      "stateCode": "BY",
      "latitude": "49.76667000",
      "longitude": "10.08333000"
   },
   {
      "name": "Biessenhofen",
      "countryCode": "DE",
      "stateCode": "BY",
      "latitude": "47.83057000",
      "longitude": "10.64022000"
   },
   {
      "name": "Bindlach",
      "countryCode": "DE",
      "stateCode": "BY",
      "latitude": "49.98167000",
      "longitude": "11.61389000"
   },
   {
      "name": "Binswangen",
      "countryCode": "DE",
      "stateCode": "BY",
      "latitude": "48.55798000",
      "longitude": "10.64249000"
   },
   {
      "name": "Birkenfeld",
      "countryCode": "DE",
      "stateCode": "BY",
      "latitude": "49.85861000",
      "longitude": "9.69556000"
   },
   {
      "name": "Bischberg",
      "countryCode": "DE",
      "stateCode": "BY",
      "latitude": "49.91087000",
      "longitude": "10.83212000"
   },
   {
      "name": "Bischbrunn",
      "countryCode": "DE",
      "stateCode": "BY",
      "latitude": "49.87028000",
      "longitude": "9.48917000"
   },
   {
      "name": "Bischofsgrün",
      "countryCode": "DE",
      "stateCode": "BY",
      "latitude": "50.05122000",
      "longitude": "11.79997000"
   },
   {
      "name": "Bischofsheim an der Rhön",
      "countryCode": "DE",
      "stateCode": "BY",
      "latitude": "50.40239000",
      "longitude": "10.00751000"
   },
   {
      "name": "Bischofsmais",
      "countryCode": "DE",
      "stateCode": "BY",
      "latitude": "48.91796000",
      "longitude": "13.08184000"
   },
   {
      "name": "Bischofswiesen",
      "countryCode": "DE",
      "stateCode": "BY",
      "latitude": "47.63115000",
      "longitude": "12.98305000"
   },
   {
      "name": "Bissingen",
      "countryCode": "DE",
      "stateCode": "BY",
      "latitude": "48.71694000",
      "longitude": "10.61766000"
   },
   {
      "name": "Blaibach",
      "countryCode": "DE",
      "stateCode": "BY",
      "latitude": "49.16667000",
      "longitude": "12.81667000"
   },
   {
      "name": "Blaichach",
      "countryCode": "DE",
      "stateCode": "BY",
      "latitude": "47.54208000",
      "longitude": "10.25846000"
   },
   {
      "name": "Blankenbach",
      "countryCode": "DE",
      "stateCode": "BY",
      "latitude": "50.06667000",
      "longitude": "9.23333000"
   },
   {
      "name": "Blindheim",
      "countryCode": "DE",
      "stateCode": "BY",
      "latitude": "48.63138000",
      "longitude": "10.61992000"
   },
   {
      "name": "Bobingen",
      "countryCode": "DE",
      "stateCode": "BY",
      "latitude": "48.27091000",
      "longitude": "10.83390000"
   },
   {
      "name": "Bockhorn",
      "countryCode": "DE",
      "stateCode": "BY",
      "latitude": "48.31471000",
      "longitude": "11.98694000"
   },
   {
      "name": "Bodenkirchen",
      "countryCode": "DE",
      "stateCode": "BY",
      "latitude": "48.38333000",
      "longitude": "12.38333000"
   },
   {
      "name": "Bodenmais",
      "countryCode": "DE",
      "stateCode": "BY",
      "latitude": "49.06667000",
      "longitude": "13.10000000"
   },
   {
      "name": "Bodenwöhr",
      "countryCode": "DE",
      "stateCode": "BY",
      "latitude": "49.27082000",
      "longitude": "12.30146000"
   },
   {
      "name": "Bodolz",
      "countryCode": "DE",
      "stateCode": "BY",
      "latitude": "47.56667000",
      "longitude": "9.66667000"
   },
   {
      "name": "Bogen",
      "countryCode": "DE",
      "stateCode": "BY",
      "latitude": "48.91122000",
      "longitude": "12.68955000"
   },
   {
      "name": "Bogenhausen",
      "countryCode": "DE",
      "stateCode": "BY",
      "latitude": "48.15221000",
      "longitude": "11.61585000"
   },
   {
      "name": "Bolsterlang",
      "countryCode": "DE",
      "stateCode": "BY",
      "latitude": "47.46667000",
      "longitude": "10.23333000"
   },
   {
      "name": "Bonstetten",
      "countryCode": "DE",
      "stateCode": "BY",
      "latitude": "48.44002000",
      "longitude": "10.70532000"
   },
   {
      "name": "Boos",
      "countryCode": "DE",
      "stateCode": "BY",
      "latitude": "48.07521000",
      "longitude": "10.19523000"
   },
   {
      "name": "Brand",
      "countryCode": "DE",
      "stateCode": "BY",
      "latitude": "49.95972000",
      "longitude": "11.91072000"
   },
   {
      "name": "Brannenburg",
      "countryCode": "DE",
      "stateCode": "BY",
      "latitude": "47.73996000",
      "longitude": "12.09166000"
   },
   {
      "name": "Breitbrunn",
      "countryCode": "DE",
      "stateCode": "BY",
      "latitude": "48.04320000",
      "longitude": "12.15431000"
   },
   {
      "name": "Breitenberg",
      "countryCode": "DE",
      "stateCode": "BY",
      "latitude": "48.70439000",
      "longitude": "13.79333000"
   },
   {
      "name": "Breitenbrunn",
      "countryCode": "DE",
      "stateCode": "BY",
      "latitude": "49.36388000",
      "longitude": "12.02013000"
   },
   {
      "name": "Breitengüßbach",
      "countryCode": "DE",
      "stateCode": "BY",
      "latitude": "49.97209000",
      "longitude": "10.88591000"
   },
   {
      "name": "Breitenthal",
      "countryCode": "DE",
      "stateCode": "BY",
      "latitude": "48.23782000",
      "longitude": "10.29951000"
   },
   {
      "name": "Brennberg",
      "countryCode": "DE",
      "stateCode": "BY",
      "latitude": "49.06667000",
      "longitude": "12.40000000"
   },
   {
      "name": "Bruck",
      "countryCode": "DE",
      "stateCode": "BY",
      "latitude": "48.02116000",
      "longitude": "11.90781000"
   },
   {
      "name": "Bruck in der Oberpfalz",
      "countryCode": "DE",
      "stateCode": "BY",
      "latitude": "49.24927000",
      "longitude": "12.30710000"
   },
   {
      "name": "Bruckberg",
      "countryCode": "DE",
      "stateCode": "BY",
      "latitude": "48.52244000",
      "longitude": "11.99448000"
   },
   {
      "name": "Bruckmühl",
      "countryCode": "DE",
      "stateCode": "BY",
      "latitude": "47.87859000",
      "longitude": "11.91098000"
   },
   {
      "name": "Brunn",
      "countryCode": "DE",
      "stateCode": "BY",
      "latitude": "49.23632000",
      "longitude": "12.19156000"
   },
   {
      "name": "Brunnen",
      "countryCode": "DE",
      "stateCode": "BY",
      "latitude": "48.22956000",
      "longitude": "10.97332000"
   },
   {
      "name": "Brunnthal",
      "countryCode": "DE",
      "stateCode": "BY",
      "latitude": "48.00652000",
      "longitude": "11.68405000"
   },
   {
      "name": "Bubenreuth",
      "countryCode": "DE",
      "stateCode": "BY",
      "latitude": "49.62745000",
      "longitude": "11.01723000"
   },
   {
      "name": "Bubesheim",
      "countryCode": "DE",
      "stateCode": "BY",
      "latitude": "48.43333000",
      "longitude": "10.25000000"
   },
   {
      "name": "Buch",
      "countryCode": "DE",
      "stateCode": "BY",
      "latitude": "48.22479000",
      "longitude": "10.18055000"
   },
   {
      "name": "Buch am Buchrain",
      "countryCode": "DE",
      "stateCode": "BY",
      "latitude": "48.21510000",
      "longitude": "11.99509000"
   },
   {
      "name": "Buchbach",
      "countryCode": "DE",
      "stateCode": "BY",
      "latitude": "48.31231000",
      "longitude": "12.27343000"
   },
   {
      "name": "Buchbrunn",
      "countryCode": "DE",
      "stateCode": "BY",
      "latitude": "49.75981000",
      "longitude": "10.13686000"
   },
   {
      "name": "Buchdorf",
      "countryCode": "DE",
      "stateCode": "BY",
      "latitude": "48.78333000",
      "longitude": "10.83333000"
   },
   {
      "name": "Buchenberg",
      "countryCode": "DE",
      "stateCode": "BY",
      "latitude": "47.69593000",
      "longitude": "10.23927000"
   },
   {
      "name": "Buchloe",
      "countryCode": "DE",
      "stateCode": "BY",
      "latitude": "48.03719000",
      "longitude": "10.72548000"
   },
   {
      "name": "Buckenhof",
      "countryCode": "DE",
      "stateCode": "BY",
      "latitude": "49.59324000",
      "longitude": "11.05044000"
   },
   {
      "name": "Burgau",
      "countryCode": "DE",
      "stateCode": "BY",
      "latitude": "48.43159000",
      "longitude": "10.40989000"
   },
   {
      "name": "Burgberg",
      "countryCode": "DE",
      "stateCode": "BY",
      "latitude": "47.53657000",
      "longitude": "10.28883000"
   },
   {
      "name": "Burgbernheim",
      "countryCode": "DE",
      "stateCode": "BY",
      "latitude": "49.45103000",
      "longitude": "10.32385000"
   },
   {
      "name": "Burgebrach",
      "countryCode": "DE",
      "stateCode": "BY",
      "latitude": "49.82832000",
      "longitude": "10.74338000"
   },
   {
      "name": "Burggen",
      "countryCode": "DE",
      "stateCode": "BY",
      "latitude": "47.77689000",
      "longitude": "10.81724000"
   },
   {
      "name": "Burghaslach",
      "countryCode": "DE",
      "stateCode": "BY",
      "latitude": "49.73313000",
      "longitude": "10.60070000"
   },
   {
      "name": "Burghausen",
      "countryCode": "DE",
      "stateCode": "BY",
      "latitude": "48.16925000",
      "longitude": "12.83139000"
   },
   {
      "name": "Burgheim",
      "countryCode": "DE",
      "stateCode": "BY",
      "latitude": "48.70035000",
      "longitude": "11.01599000"
   },
   {
      "name": "Burgkirchen an der Alz",
      "countryCode": "DE",
      "stateCode": "BY",
      "latitude": "48.16753000",
      "longitude": "12.73250000"
   },
   {
      "name": "Burgkunstadt",
      "countryCode": "DE",
      "stateCode": "BY",
      "latitude": "50.14093000",
      "longitude": "11.25205000"
   },
   {
      "name": "Burglauer",
      "countryCode": "DE",
      "stateCode": "BY",
      "latitude": "50.27645000",
      "longitude": "10.17939000"
   },
   {
      "name": "Burglengenfeld",
      "countryCode": "DE",
      "stateCode": "BY",
      "latitude": "49.20379000",
      "longitude": "12.04452000"
   },
   {
      "name": "Burgoberbach",
      "countryCode": "DE",
      "stateCode": "BY",
      "latitude": "49.23333000",
      "longitude": "10.58333000"
   },
   {
      "name": "Burgpreppach",
      "countryCode": "DE",
      "stateCode": "BY",
      "latitude": "50.14149000",
      "longitude": "10.64977000"
   },
   {
      "name": "Burgsalach",
      "countryCode": "DE",
      "stateCode": "BY",
      "latitude": "49.03316000",
      "longitude": "11.09766000"
   },
   {
      "name": "Burgsinn",
      "countryCode": "DE",
      "stateCode": "BY",
      "latitude": "50.14968000",
      "longitude": "9.65119000"
   },
   {
      "name": "Burgthann",
      "countryCode": "DE",
      "stateCode": "BY",
      "latitude": "49.35202000",
      "longitude": "11.31154000"
   },
   {
      "name": "Burgwindheim",
      "countryCode": "DE",
      "stateCode": "BY",
      "latitude": "49.82733000",
      "longitude": "10.59631000"
   },
   {
      "name": "Burk",
      "countryCode": "DE",
      "stateCode": "BY",
      "latitude": "49.13318000",
      "longitude": "10.47891000"
   },
   {
      "name": "Burkardroth",
      "countryCode": "DE",
      "stateCode": "BY",
      "latitude": "50.27125000",
      "longitude": "9.99162000"
   },
   {
      "name": "Burtenbach",
      "countryCode": "DE",
      "stateCode": "BY",
      "latitude": "48.34051000",
      "longitude": "10.45280000"
   },
   {
      "name": "Buttenheim",
      "countryCode": "DE",
      "stateCode": "BY",
      "latitude": "49.80365000",
      "longitude": "11.03002000"
   },
   {
      "name": "Buttenwiesen",
      "countryCode": "DE",
      "stateCode": "BY",
      "latitude": "48.60000000",
      "longitude": "10.71667000"
   },
   {
      "name": "Buxheim",
      "countryCode": "DE",
      "stateCode": "BY",
      "latitude": "48.00000000",
      "longitude": "10.13333000"
   },
   {
      "name": "Bächingen an der Brenz",
      "countryCode": "DE",
      "stateCode": "BY",
      "latitude": "48.54627000",
      "longitude": "10.31281000"
   },
   {
      "name": "Bärnau",
      "countryCode": "DE",
      "stateCode": "BY",
      "latitude": "49.81079000",
      "longitude": "12.43318000"
   },
   {
      "name": "Böbing",
      "countryCode": "DE",
      "stateCode": "BY",
      "latitude": "47.75562000",
      "longitude": "10.98877000"
   },
   {
      "name": "Böbrach",
      "countryCode": "DE",
      "stateCode": "BY",
      "latitude": "48.93322000",
      "longitude": "12.88304000"
   },
   {
      "name": "Büchenbach",
      "countryCode": "DE",
      "stateCode": "BY",
      "latitude": "49.26778000",
      "longitude": "11.05889000"
   },
   {
      "name": "Büchlberg",
      "countryCode": "DE",
      "stateCode": "BY",
      "latitude": "48.67112000",
      "longitude": "13.52100000"
   },
   {
      "name": "Bürgstadt",
      "countryCode": "DE",
      "stateCode": "BY",
      "latitude": "49.71476000",
      "longitude": "9.26916000"
   },
   {
      "name": "Bütthard",
      "countryCode": "DE",
      "stateCode": "BY",
      "latitude": "49.59913000",
      "longitude": "9.87987000"
   },
   {
      "name": "Cadolzburg",
      "countryCode": "DE",
      "stateCode": "BY",
      "latitude": "49.45730000",
      "longitude": "10.85329000"
   },
   {
      "name": "Cham",
      "countryCode": "DE",
      "stateCode": "BY",
      "latitude": "49.22565000",
      "longitude": "12.65501000"
   },
   {
      "name": "Chamerau",
      "countryCode": "DE",
      "stateCode": "BY",
      "latitude": "49.20000000",
      "longitude": "12.75000000"
   },
   {
      "name": "Chieming",
      "countryCode": "DE",
      "stateCode": "BY",
      "latitude": "47.89258000",
      "longitude": "12.54012000"
   },
   {
      "name": "Chostlarn",
      "countryCode": "DE",
      "stateCode": "BY",
      "latitude": "48.37144000",
      "longitude": "13.12064000"
   },
   {
      "name": "Coburg",
      "countryCode": "DE",
      "stateCode": "BY",
      "latitude": "50.25937000",
      "longitude": "10.96384000"
   },
   {
      "name": "Colmberg",
      "countryCode": "DE",
      "stateCode": "BY",
      "latitude": "49.35480000",
      "longitude": "10.41157000"
   },
   {
      "name": "Creußen",
      "countryCode": "DE",
      "stateCode": "BY",
      "latitude": "49.84495000",
      "longitude": "11.62683000"
   },
   {
      "name": "Dachau",
      "countryCode": "DE",
      "stateCode": "BY",
      "latitude": "48.26000000",
      "longitude": "11.43402000"
   },
   {
      "name": "Dasing",
      "countryCode": "DE",
      "stateCode": "BY",
      "latitude": "48.38482000",
      "longitude": "11.04667000"
   },
   {
      "name": "Deggendorf",
      "countryCode": "DE",
      "stateCode": "BY",
      "latitude": "48.84085000",
      "longitude": "12.96068000"
   },
   {
      "name": "Deining",
      "countryCode": "DE",
      "stateCode": "BY",
      "latitude": "49.22556000",
      "longitude": "11.53968000"
   },
   {
      "name": "Deiningen",
      "countryCode": "DE",
      "stateCode": "BY",
      "latitude": "48.86667000",
      "longitude": "10.56667000"
   },
   {
      "name": "Deisenhausen",
      "countryCode": "DE",
      "stateCode": "BY",
      "latitude": "48.25554000",
      "longitude": "10.32698000"
   },
   {
      "name": "Denklingen",
      "countryCode": "DE",
      "stateCode": "BY",
      "latitude": "47.91667000",
      "longitude": "10.85000000"
   },
   {
      "name": "Dentlein am Forst",
      "countryCode": "DE",
      "stateCode": "BY",
      "latitude": "49.14772000",
      "longitude": "10.42309000"
   },
   {
      "name": "Dettelbach",
      "countryCode": "DE",
      "stateCode": "BY",
      "latitude": "49.80295000",
      "longitude": "10.16519000"
   },
   {
      "name": "Deuerling",
      "countryCode": "DE",
      "stateCode": "BY",
      "latitude": "49.03720000",
      "longitude": "11.91045000"
   },
   {
      "name": "Diebach",
      "countryCode": "DE",
      "stateCode": "BY",
      "latitude": "49.30912000",
      "longitude": "10.19188000"
   },
   {
      "name": "Diedorf",
      "countryCode": "DE",
      "stateCode": "BY",
      "latitude": "48.35320000",
      "longitude": "10.78206000"
   },
   {
      "name": "Diespeck",
      "countryCode": "DE",
      "stateCode": "BY",
      "latitude": "49.60000000",
      "longitude": "10.63333000"
   },
   {
      "name": "Dietenhofen",
      "countryCode": "DE",
      "stateCode": "BY",
      "latitude": "49.39997000",
      "longitude": "10.68975000"
   },
   {
      "name": "Dietersburg",
      "countryCode": "DE",
      "stateCode": "BY",
      "latitude": "48.49249000",
      "longitude": "12.92499000"
   },
   {
      "name": "Dietersheim",
      "countryCode": "DE",
      "stateCode": "BY",
      "latitude": "49.55631000",
      "longitude": "10.54074000"
   },
   {
      "name": "Dieterskirchen",
      "countryCode": "DE",
      "stateCode": "BY",
      "latitude": "49.41667000",
      "longitude": "12.41667000"
   },
   {
      "name": "Dietfurt",
      "countryCode": "DE",
      "stateCode": "BY",
      "latitude": "49.03578000",
      "longitude": "11.58624000"
   },
   {
      "name": "Dietmannsried",
      "countryCode": "DE",
      "stateCode": "BY",
      "latitude": "47.80787000",
      "longitude": "10.28948000"
   },
   {
      "name": "Dietramszell",
      "countryCode": "DE",
      "stateCode": "BY",
      "latitude": "47.84871000",
      "longitude": "11.59530000"
   },
   {
      "name": "Dießen am Ammersee",
      "countryCode": "DE",
      "stateCode": "BY",
      "latitude": "47.95085000",
      "longitude": "11.10306000"
   },
   {
      "name": "Dillingen an der Donau",
      "countryCode": "DE",
      "stateCode": "BY",
      "latitude": "48.58153000",
      "longitude": "10.49527000"
   },
   {
      "name": "Dingolfing",
      "countryCode": "DE",
      "stateCode": "BY",
      "latitude": "48.64244000",
      "longitude": "12.49283000"
   },
   {
      "name": "Dingolshausen",
      "countryCode": "DE",
      "stateCode": "BY",
      "latitude": "49.90710000",
      "longitude": "10.39032000"
   },
   {
      "name": "Dinkelsbühl",
      "countryCode": "DE",
      "stateCode": "BY",
      "latitude": "49.06942000",
      "longitude": "10.31985000"
   },
   {
      "name": "Dinkelscherben",
      "countryCode": "DE",
      "stateCode": "BY",
      "latitude": "48.34826000",
      "longitude": "10.58893000"
   },
   {
      "name": "Dirlewang",
      "countryCode": "DE",
      "stateCode": "BY",
      "latitude": "48.00195000",
      "longitude": "10.50306000"
   },
   {
      "name": "Dittelbrunn",
      "countryCode": "DE",
      "stateCode": "BY",
      "latitude": "50.07212000",
      "longitude": "10.21974000"
   },
   {
      "name": "Dittenheim",
      "countryCode": "DE",
      "stateCode": "BY",
      "latitude": "49.05536000",
      "longitude": "10.79201000"
   },
   {
      "name": "Dombühl",
      "countryCode": "DE",
      "stateCode": "BY",
      "latitude": "49.25349000",
      "longitude": "10.28542000"
   },
   {
      "name": "Donaustauf",
      "countryCode": "DE",
      "stateCode": "BY",
      "latitude": "49.03258000",
      "longitude": "12.20459000"
   },
   {
      "name": "Donauwörth",
      "countryCode": "DE",
      "stateCode": "BY",
      "latitude": "48.71804000",
      "longitude": "10.77930000"
   },
   {
      "name": "Donnersdorf",
      "countryCode": "DE",
      "stateCode": "BY",
      "latitude": "49.96667000",
      "longitude": "10.41667000"
   },
   {
      "name": "Dorfen",
      "countryCode": "DE",
      "stateCode": "BY",
      "latitude": "48.27037000",
      "longitude": "12.16056000"
   },
   {
      "name": "Dorfprozelten",
      "countryCode": "DE",
      "stateCode": "BY",
      "latitude": "49.78056000",
      "longitude": "9.38028000"
   },
   {
      "name": "Dormitz",
      "countryCode": "DE",
      "stateCode": "BY",
      "latitude": "49.59786000",
      "longitude": "11.11765000"
   },
   {
      "name": "Drachselsried",
      "countryCode": "DE",
      "stateCode": "BY",
      "latitude": "49.10759000",
      "longitude": "13.01185000"
   },
   {
      "name": "Duggendorf",
      "countryCode": "DE",
      "stateCode": "BY",
      "latitude": "49.11667000",
      "longitude": "11.91667000"
   },
   {
      "name": "Durach",
      "countryCode": "DE",
      "stateCode": "BY",
      "latitude": "47.69440000",
      "longitude": "10.34449000"
   },
   {
      "name": "Döhlau",
      "countryCode": "DE",
      "stateCode": "BY",
      "latitude": "50.28333000",
      "longitude": "11.95000000"
   },
   {
      "name": "Dürrlauingen",
      "countryCode": "DE",
      "stateCode": "BY",
      "latitude": "48.46666000",
      "longitude": "10.42860000"
   },
   {
      "name": "Dürrwangen",
      "countryCode": "DE",
      "stateCode": "BY",
      "latitude": "49.10778000",
      "longitude": "10.38500000"
   },
   {
      "name": "Ebelsbach",
      "countryCode": "DE",
      "stateCode": "BY",
      "latitude": "49.98572000",
      "longitude": "10.67442000"
   },
   {
      "name": "Ebensfeld",
      "countryCode": "DE",
      "stateCode": "BY",
      "latitude": "50.06640000",
      "longitude": "10.95835000"
   },
   {
      "name": "Ebermannsdorf",
      "countryCode": "DE",
      "stateCode": "BY",
      "latitude": "49.39375000",
      "longitude": "11.93582000"
   },
   {
      "name": "Ebermannstadt",
      "countryCode": "DE",
      "stateCode": "BY",
      "latitude": "49.78154000",
      "longitude": "11.18168000"
   },
   {
      "name": "Ebersberg",
      "countryCode": "DE",
      "stateCode": "BY",
      "latitude": "48.07710000",
      "longitude": "11.97063000"
   },
   {
      "name": "Ebersdorf",
      "countryCode": "DE",
      "stateCode": "BY",
      "latitude": "50.32898000",
      "longitude": "11.15266000"
   },
   {
      "name": "Ebnath",
      "countryCode": "DE",
      "stateCode": "BY",
      "latitude": "49.95000000",
      "longitude": "11.93333000"
   },
   {
      "name": "Eching",
      "countryCode": "DE",
      "stateCode": "BY",
      "latitude": "48.30000000",
      "longitude": "11.61667000"
   },
   {
      "name": "Eckersdorf",
      "countryCode": "DE",
      "stateCode": "BY",
      "latitude": "50.02874000",
      "longitude": "11.39611000"
   },
   {
      "name": "Edelsfeld",
      "countryCode": "DE",
      "stateCode": "BY",
      "latitude": "49.57644000",
      "longitude": "11.69589000"
   },
   {
      "name": "Ederheim",
      "countryCode": "DE",
      "stateCode": "BY",
      "latitude": "48.80827000",
      "longitude": "10.46609000"
   },
   {
      "name": "Effeltrich",
      "countryCode": "DE",
      "stateCode": "BY",
      "latitude": "49.65929000",
      "longitude": "11.09319000"
   },
   {
      "name": "Egenhofen",
      "countryCode": "DE",
      "stateCode": "BY",
      "latitude": "48.28333000",
      "longitude": "11.16667000"
   },
   {
      "name": "Egg an der Günz",
      "countryCode": "DE",
      "stateCode": "BY",
      "latitude": "48.08714000",
      "longitude": "10.28495000"
   },
   {
      "name": "Eggenfelden",
      "countryCode": "DE",
      "stateCode": "BY",
      "latitude": "48.40509000",
      "longitude": "12.75752000"
   },
   {
      "name": "Eggenthal",
      "countryCode": "DE",
      "stateCode": "BY",
      "latitude": "47.91667000",
      "longitude": "10.51667000"
   },
   {
      "name": "Egglham",
      "countryCode": "DE",
      "stateCode": "BY",
      "latitude": "48.52902000",
      "longitude": "13.05402000"
   },
   {
      "name": "Egglkofen",
      "countryCode": "DE",
      "stateCode": "BY",
      "latitude": "48.40000000",
      "longitude": "12.45000000"
   },
   {
      "name": "Eggolsheim",
      "countryCode": "DE",
      "stateCode": "BY",
      "latitude": "49.76961000",
      "longitude": "11.05701000"
   },
   {
      "name": "Eggstätt",
      "countryCode": "DE",
      "stateCode": "BY",
      "latitude": "47.92698000",
      "longitude": "12.37919000"
   },
   {
      "name": "Eging",
      "countryCode": "DE",
      "stateCode": "BY",
      "latitude": "48.46328000",
      "longitude": "12.18957000"
   },
   {
      "name": "Egling",
      "countryCode": "DE",
      "stateCode": "BY",
      "latitude": "47.92316000",
      "longitude": "11.50517000"
   },
   {
      "name": "Egloffstein",
      "countryCode": "DE",
      "stateCode": "BY",
      "latitude": "49.70182000",
      "longitude": "11.25749000"
   },
   {
      "name": "Egmating",
      "countryCode": "DE",
      "stateCode": "BY",
      "latitude": "48.00405000",
      "longitude": "11.79528000"
   },
   {
      "name": "Ehekirchen",
      "countryCode": "DE",
      "stateCode": "BY",
      "latitude": "48.63333000",
      "longitude": "11.10000000"
   },
   {
      "name": "Ehingen",
      "countryCode": "DE",
      "stateCode": "BY",
      "latitude": "48.60000000",
      "longitude": "10.80000000"
   },
   {
      "name": "Eibelstadt",
      "countryCode": "DE",
      "stateCode": "BY",
      "latitude": "49.72392000",
      "longitude": "9.99962000"
   },
   {
      "name": "Eichenau",
      "countryCode": "DE",
      "stateCode": "BY",
      "latitude": "48.16667000",
      "longitude": "11.31667000"
   },
   {
      "name": "Eichenbühl",
      "countryCode": "DE",
      "stateCode": "BY",
      "latitude": "49.70556000",
      "longitude": "9.32917000"
   },
   {
      "name": "Eichendorf",
      "countryCode": "DE",
      "stateCode": "BY",
      "latitude": "48.63266000",
      "longitude": "12.85586000"
   },
   {
      "name": "Eichenried",
      "countryCode": "DE",
      "stateCode": "BY",
      "latitude": "48.27748000",
      "longitude": "11.78206000"
   },
   {
      "name": "Eichstätt",
      "countryCode": "DE",
      "stateCode": "BY",
      "latitude": "48.88854000",
      "longitude": "11.19675000"
   },
   {
      "name": "Eiselfing",
      "countryCode": "DE",
      "stateCode": "BY",
      "latitude": "48.04114000",
      "longitude": "12.24272000"
   },
   {
      "name": "Eisenburg",
      "countryCode": "DE",
      "stateCode": "BY",
      "latitude": "48.01404000",
      "longitude": "10.20870000"
   },
   {
      "name": "Eisingen",
      "countryCode": "DE",
      "stateCode": "BY",
      "latitude": "49.75972000",
      "longitude": "9.83111000"
   },
   {
      "name": "Eitting",
      "countryCode": "DE",
      "stateCode": "BY",
      "latitude": "48.35957000",
      "longitude": "11.89110000"
   },
   {
      "name": "Elfershausen",
      "countryCode": "DE",
      "stateCode": "BY",
      "latitude": "50.14743000",
      "longitude": "9.96151000"
   },
   {
      "name": "Ellgau",
      "countryCode": "DE",
      "stateCode": "BY",
      "latitude": "48.60000000",
      "longitude": "10.86667000"
   },
   {
      "name": "Ellingen",
      "countryCode": "DE",
      "stateCode": "BY",
      "latitude": "49.06076000",
      "longitude": "10.96783000"
   },
   {
      "name": "Ellzee",
      "countryCode": "DE",
      "stateCode": "BY",
      "latitude": "48.33971000",
      "longitude": "10.31891000"
   },
   {
      "name": "Elsendorf",
      "countryCode": "DE",
      "stateCode": "BY",
      "latitude": "48.70757000",
      "longitude": "11.80982000"
   },
   {
      "name": "Elsenfeld",
      "countryCode": "DE",
      "stateCode": "BY",
      "latitude": "49.84289000",
      "longitude": "9.16355000"
   },
   {
      "name": "Eltmann",
      "countryCode": "DE",
      "stateCode": "BY",
      "latitude": "49.97148000",
      "longitude": "10.66712000"
   },
   {
      "name": "Emersacker",
      "countryCode": "DE",
      "stateCode": "BY",
      "latitude": "48.48965000",
      "longitude": "10.67380000"
   },
   {
      "name": "Emmering",
      "countryCode": "DE",
      "stateCode": "BY",
      "latitude": "48.18333000",
      "longitude": "11.28333000"
   },
   {
      "name": "Emskirchen",
      "countryCode": "DE",
      "stateCode": "BY",
      "latitude": "49.55282000",
      "longitude": "10.71278000"
   },
   {
      "name": "Emtmannsberg",
      "countryCode": "DE",
      "stateCode": "BY",
      "latitude": "49.89231000",
      "longitude": "11.64466000"
   },
   {
      "name": "Engelsberg",
      "countryCode": "DE",
      "stateCode": "BY",
      "latitude": "48.11631000",
      "longitude": "12.54267000"
   },
   {
      "name": "Engelthal",
      "countryCode": "DE",
      "stateCode": "BY",
      "latitude": "49.47181000",
      "longitude": "11.39943000"
   },
   {
      "name": "Ensdorf",
      "countryCode": "DE",
      "stateCode": "BY",
      "latitude": "49.34062000",
      "longitude": "11.93587000"
   },
   {
      "name": "Eppishausen",
      "countryCode": "DE",
      "stateCode": "BY",
      "latitude": "48.16667000",
      "longitude": "10.51667000"
   },
   {
      "name": "Erbendorf",
      "countryCode": "DE",
      "stateCode": "BY",
      "latitude": "49.83983000",
      "longitude": "12.04593000"
   },
   {
      "name": "Erding",
      "countryCode": "DE",
      "stateCode": "BY",
      "latitude": "48.30603000",
      "longitude": "11.90686000"
   },
   {
      "name": "Erdweg",
      "countryCode": "DE",
      "stateCode": "BY",
      "latitude": "48.33180000",
      "longitude": "11.30339000"
   },
   {
      "name": "Eresing",
      "countryCode": "DE",
      "stateCode": "BY",
      "latitude": "48.08700000",
      "longitude": "11.02388000"
   },
   {
      "name": "Ergersheim",
      "countryCode": "DE",
      "stateCode": "BY",
      "latitude": "49.51667000",
      "longitude": "10.33333000"
   },
   {
      "name": "Ergolding",
      "countryCode": "DE",
      "stateCode": "BY",
      "latitude": "48.57654000",
      "longitude": "12.17102000"
   },
   {
      "name": "Ergoldsbach",
      "countryCode": "DE",
      "stateCode": "BY",
      "latitude": "48.69263000",
      "longitude": "12.20442000"
   },
   {
      "name": "Ering",
      "countryCode": "DE",
      "stateCode": "BY",
      "latitude": "48.29921000",
      "longitude": "13.15029000"
   },
   {
      "name": "Erkheim",
      "countryCode": "DE",
      "stateCode": "BY",
      "latitude": "48.03730000",
      "longitude": "10.33570000"
   },
   {
      "name": "Erlabrunn",
      "countryCode": "DE",
      "stateCode": "BY",
      "latitude": "49.85972000",
      "longitude": "9.84417000"
   },
   {
      "name": "Erlangen",
      "countryCode": "DE",
      "stateCode": "BY",
      "latitude": "49.59099000",
      "longitude": "11.00783000"
   },
   {
      "name": "Erlbach",
      "countryCode": "DE",
      "stateCode": "BY",
      "latitude": "48.30000000",
      "longitude": "12.78333000"
   },
   {
      "name": "Erlenbach",
      "countryCode": "DE",
      "stateCode": "BY",
      "latitude": "49.97857000",
      "longitude": "9.64459000"
   },
   {
      "name": "Erlenbach am Main",
      "countryCode": "DE",
      "stateCode": "BY",
      "latitude": "49.80341000",
      "longitude": "9.16311000"
   },
   {
      "name": "Ernsgaden",
      "countryCode": "DE",
      "stateCode": "BY",
      "latitude": "48.73333000",
      "longitude": "11.58333000"
   },
   {
      "name": "Eschau",
      "countryCode": "DE",
      "stateCode": "BY",
      "latitude": "49.81889000",
      "longitude": "9.25920000"
   },
   {
      "name": "Eschenlohe",
      "countryCode": "DE",
      "stateCode": "BY",
      "latitude": "48.01731000",
      "longitude": "12.03012000"
   },
   {
      "name": "Eschlkam",
      "countryCode": "DE",
      "stateCode": "BY",
      "latitude": "49.29883000",
      "longitude": "12.91573000"
   },
   {
      "name": "Eslarn",
      "countryCode": "DE",
      "stateCode": "BY",
      "latitude": "49.58345000",
      "longitude": "12.52156000"
   },
   {
      "name": "Esselbach",
      "countryCode": "DE",
      "stateCode": "BY",
      "latitude": "49.85528000",
      "longitude": "9.52583000"
   },
   {
      "name": "Essenbach",
      "countryCode": "DE",
      "stateCode": "BY",
      "latitude": "48.61332000",
      "longitude": "12.21833000"
   },
   {
      "name": "Essing",
      "countryCode": "DE",
      "stateCode": "BY",
      "latitude": "48.93467000",
      "longitude": "11.78972000"
   },
   {
      "name": "Estenfeld",
      "countryCode": "DE",
      "stateCode": "BY",
      "latitude": "49.82896000",
      "longitude": "10.00588000"
   },
   {
      "name": "Ettringen",
      "countryCode": "DE",
      "stateCode": "BY",
      "latitude": "48.10000000",
      "longitude": "10.65000000"
   },
   {
      "name": "Etzelwang",
      "countryCode": "DE",
      "stateCode": "BY",
      "latitude": "49.52760000",
      "longitude": "11.58603000"
   },
   {
      "name": "Etzenricht",
      "countryCode": "DE",
      "stateCode": "BY",
      "latitude": "49.63333000",
      "longitude": "12.10000000"
   },
   {
      "name": "Euerbach",
      "countryCode": "DE",
      "stateCode": "BY",
      "latitude": "50.06199000",
      "longitude": "10.13695000"
   },
   {
      "name": "Euerdorf",
      "countryCode": "DE",
      "stateCode": "BY",
      "latitude": "50.14853000",
      "longitude": "10.02331000"
   },
   {
      "name": "Eurasburg",
      "countryCode": "DE",
      "stateCode": "BY",
      "latitude": "47.85389000",
      "longitude": "11.40587000"
   },
   {
      "name": "Eußenheim",
      "countryCode": "DE",
      "stateCode": "BY",
      "latitude": "49.98589000",
      "longitude": "9.80899000"
   },
   {
      "name": "Fahrenzhausen",
      "countryCode": "DE",
      "stateCode": "BY",
      "latitude": "48.35317000",
      "longitude": "11.55521000"
   },
   {
      "name": "Falkenberg",
      "countryCode": "DE",
      "stateCode": "BY",
      "latitude": "48.46154000",
      "longitude": "12.73049000"
   },
   {
      "name": "Falkenfels",
      "countryCode": "DE",
      "stateCode": "BY",
      "latitude": "49.00415000",
      "longitude": "12.59480000"
   },
   {
      "name": "Falkenstein",
      "countryCode": "DE",
      "stateCode": "BY",
      "latitude": "49.09750000",
      "longitude": "12.48802000"
   },
   {
      "name": "Farchant",
      "countryCode": "DE",
      "stateCode": "BY",
      "latitude": "47.53036000",
      "longitude": "11.11151000"
   },
   {
      "name": "Faulbach",
      "countryCode": "DE",
      "stateCode": "BY",
      "latitude": "49.78528000",
      "longitude": "9.44417000"
   },
   {
      "name": "Feilitzsch",
      "countryCode": "DE",
      "stateCode": "BY",
      "latitude": "50.36667000",
      "longitude": "11.93333000"
   },
   {
      "name": "Feldafing",
      "countryCode": "DE",
      "stateCode": "BY",
      "latitude": "47.94602000",
      "longitude": "11.29326000"
   },
   {
      "name": "Feldkirchen",
      "countryCode": "DE",
      "stateCode": "BY",
      "latitude": "48.14811000",
      "longitude": "11.73100000"
   },
   {
      "name": "Feldkirchen-Westerham",
      "countryCode": "DE",
      "stateCode": "BY",
      "latitude": "47.90748000",
      "longitude": "11.84266000"
   },
   {
      "name": "Fellheim",
      "countryCode": "DE",
      "stateCode": "BY",
      "latitude": "48.07280000",
      "longitude": "10.15224000"
   },
   {
      "name": "Feucht",
      "countryCode": "DE",
      "stateCode": "BY",
      "latitude": "49.37597000",
      "longitude": "11.21433000"
   },
   {
      "name": "Feuchtwangen",
      "countryCode": "DE",
      "stateCode": "BY",
      "latitude": "49.16287000",
      "longitude": "10.33850000"
   },
   {
      "name": "Fichtelberg",
      "countryCode": "DE",
      "stateCode": "BY",
      "latitude": "50.00288000",
      "longitude": "11.85425000"
   },
   {
      "name": "Finningen",
      "countryCode": "DE",
      "stateCode": "BY",
      "latitude": "48.65452000",
      "longitude": "10.49864000"
   },
   {
      "name": "Finsing",
      "countryCode": "DE",
      "stateCode": "BY",
      "latitude": "48.21615000",
      "longitude": "11.82412000"
   },
   {
      "name": "Fischach",
      "countryCode": "DE",
      "stateCode": "BY",
      "latitude": "48.29047000",
      "longitude": "10.65592000"
   },
   {
      "name": "Fischbachau",
      "countryCode": "DE",
      "stateCode": "BY",
      "latitude": "47.71952000",
      "longitude": "11.95081000"
   },
   {
      "name": "Flachslanden",
      "countryCode": "DE",
      "stateCode": "BY",
      "latitude": "49.39845000",
      "longitude": "10.51323000"
   },
   {
      "name": "Fladungen",
      "countryCode": "DE",
      "stateCode": "BY",
      "latitude": "50.52054000",
      "longitude": "10.14581000"
   },
   {
      "name": "Flintsbach",
      "countryCode": "DE",
      "stateCode": "BY",
      "latitude": "47.72576000",
      "longitude": "12.12419000"
   },
   {
      "name": "Flossenbürg",
      "countryCode": "DE",
      "stateCode": "BY",
      "latitude": "49.73333000",
      "longitude": "12.35000000"
   },
   {
      "name": "Floß",
      "countryCode": "DE",
      "stateCode": "BY",
      "latitude": "49.72395000",
      "longitude": "12.27593000"
   },
   {
      "name": "Forchheim",
      "countryCode": "DE",
      "stateCode": "BY",
      "latitude": "49.71754000",
      "longitude": "11.05877000"
   },
   {
      "name": "Forstinning",
      "countryCode": "DE",
      "stateCode": "BY",
      "latitude": "48.16866000",
      "longitude": "11.91244000"
   },
   {
      "name": "Frammersbach",
      "countryCode": "DE",
      "stateCode": "BY",
      "latitude": "50.06468000",
      "longitude": "9.46888000"
   },
   {
      "name": "Frankenwinheim",
      "countryCode": "DE",
      "stateCode": "BY",
      "latitude": "49.88733000",
      "longitude": "10.31432000"
   },
   {
      "name": "Frasdorf",
      "countryCode": "DE",
      "stateCode": "BY",
      "latitude": "47.80376000",
      "longitude": "12.28512000"
   },
   {
      "name": "Frauenau",
      "countryCode": "DE",
      "stateCode": "BY",
      "latitude": "48.98895000",
      "longitude": "13.30067000"
   },
   {
      "name": "Fraueneuharting",
      "countryCode": "DE",
      "stateCode": "BY",
      "latitude": "48.03873000",
      "longitude": "12.04780000"
   },
   {
      "name": "Fraunberg",
      "countryCode": "DE",
      "stateCode": "BY",
      "latitude": "48.36667000",
      "longitude": "12.00000000"
   },
   {
      "name": "Freihung",
      "countryCode": "DE",
      "stateCode": "BY",
      "latitude": "49.62134000",
      "longitude": "11.90817000"
   },
   {
      "name": "Freilassing",
      "countryCode": "DE",
      "stateCode": "BY",
      "latitude": "47.84085000",
      "longitude": "12.98114000"
   },
   {
      "name": "Freising",
      "countryCode": "DE",
      "stateCode": "BY",
      "latitude": "48.40351000",
      "longitude": "11.74876000"
   },
   {
      "name": "Fremdingen",
      "countryCode": "DE",
      "stateCode": "BY",
      "latitude": "48.97241000",
      "longitude": "10.45754000"
   },
   {
      "name": "Frensdorf",
      "countryCode": "DE",
      "stateCode": "BY",
      "latitude": "49.81667000",
      "longitude": "10.86667000"
   },
   {
      "name": "Freudenberg",
      "countryCode": "DE",
      "stateCode": "BY",
      "latitude": "49.48333000",
      "longitude": "11.98333000"
   },
   {
      "name": "Freystadt",
      "countryCode": "DE",
      "stateCode": "BY",
      "latitude": "49.20007000",
      "longitude": "11.33032000"
   },
   {
      "name": "Freyung",
      "countryCode": "DE",
      "stateCode": "BY",
      "latitude": "48.80952000",
      "longitude": "13.54768000"
   },
   {
      "name": "Frickenhausen",
      "countryCode": "DE",
      "stateCode": "BY",
      "latitude": "49.67089000",
      "longitude": "10.09268000"
   },
   {
      "name": "Fridolfing",
      "countryCode": "DE",
      "stateCode": "BY",
      "latitude": "47.99773000",
      "longitude": "12.82628000"
   },
   {
      "name": "Friedberg",
      "countryCode": "DE",
      "stateCode": "BY",
      "latitude": "48.35693000",
      "longitude": "10.98461000"
   },
   {
      "name": "Friedenfels",
      "countryCode": "DE",
      "stateCode": "BY",
      "latitude": "49.88260000",
      "longitude": "12.10124000"
   },
   {
      "name": "Friesenried",
      "countryCode": "DE",
      "stateCode": "BY",
      "latitude": "47.87477000",
      "longitude": "10.53464000"
   },
   {
      "name": "Frontenhausen",
      "countryCode": "DE",
      "stateCode": "BY",
      "latitude": "48.54628000",
      "longitude": "12.53118000"
   },
   {
      "name": "Fuchsmühl",
      "countryCode": "DE",
      "stateCode": "BY",
      "latitude": "49.92265000",
      "longitude": "12.14582000"
   },
   {
      "name": "Fuchsstadt",
      "countryCode": "DE",
      "stateCode": "BY",
      "latitude": "50.10825000",
      "longitude": "9.93370000"
   },
   {
      "name": "Furth",
      "countryCode": "DE",
      "stateCode": "BY",
      "latitude": "48.40616000",
      "longitude": "12.38121000"
   },
   {
      "name": "Furth im Wald",
      "countryCode": "DE",
      "stateCode": "BY",
      "latitude": "49.30955000",
      "longitude": "12.84156000"
   },
   {
      "name": "Fünfstetten",
      "countryCode": "DE",
      "stateCode": "BY",
      "latitude": "48.83215000",
      "longitude": "10.76540000"
   },
   {
      "name": "Fürsteneck",
      "countryCode": "DE",
      "stateCode": "BY",
      "latitude": "48.71667000",
      "longitude": "13.46667000"
   },
   {
      "name": "Fürstenfeldbruck",
      "countryCode": "DE",
      "stateCode": "BY",
      "latitude": "48.17904000",
      "longitude": "11.25470000"
   },
   {
      "name": "Fürstenstein",
      "countryCode": "DE",
      "stateCode": "BY",
      "latitude": "48.71667000",
      "longitude": "13.33333000"
   },
   {
      "name": "Fürstenzell",
      "countryCode": "DE",
      "stateCode": "BY",
      "latitude": "48.52163000",
      "longitude": "13.31749000"
   },
   {
      "name": "Füssen",
      "countryCode": "DE",
      "stateCode": "BY",
      "latitude": "47.57143000",
      "longitude": "10.70171000"
   },
   {
      "name": "Gablingen",
      "countryCode": "DE",
      "stateCode": "BY",
      "latitude": "48.45000000",
      "longitude": "10.81667000"
   },
   {
      "name": "Gachenbach",
      "countryCode": "DE",
      "stateCode": "BY",
      "latitude": "48.50000000",
      "longitude": "11.23333000"
   },
   {
      "name": "Gadheim",
      "countryCode": "DE",
      "stateCode": "BY",
      "latitude": "49.84584000",
      "longitude": "9.90566000"
   },
   {
      "name": "Gaimersheim",
      "countryCode": "DE",
      "stateCode": "BY",
      "latitude": "48.80705000",
      "longitude": "11.36801000"
   },
   {
      "name": "Gaißach",
      "countryCode": "DE",
      "stateCode": "BY",
      "latitude": "47.75000000",
      "longitude": "11.58333000"
   },
   {
      "name": "Gammelsdorf",
      "countryCode": "DE",
      "stateCode": "BY",
      "latitude": "48.55000000",
      "longitude": "11.95000000"
   },
   {
      "name": "Gangkofen",
      "countryCode": "DE",
      "stateCode": "BY",
      "latitude": "48.43701000",
      "longitude": "12.56419000"
   },
   {
      "name": "Garching an der Alz",
      "countryCode": "DE",
      "stateCode": "BY",
      "latitude": "48.13451000",
      "longitude": "12.58152000"
   },
   {
      "name": "Garching bei München",
      "countryCode": "DE",
      "stateCode": "BY",
      "latitude": "48.24896000",
      "longitude": "11.65101000"
   },
   {
      "name": "Garmisch-Partenkirchen",
      "countryCode": "DE",
      "stateCode": "BY",
      "latitude": "47.49209000",
      "longitude": "11.09576000"
   },
   {
      "name": "Gars",
      "countryCode": "DE",
      "stateCode": "BY",
      "latitude": "48.15386000",
      "longitude": "12.27767000"
   },
   {
      "name": "Gattendorf",
      "countryCode": "DE",
      "stateCode": "BY",
      "latitude": "50.32207000",
      "longitude": "11.99776000"
   },
   {
      "name": "Gaukönigshofen",
      "countryCode": "DE",
      "stateCode": "BY",
      "latitude": "49.63333000",
      "longitude": "10.00000000"
   },
   {
      "name": "Gauting",
      "countryCode": "DE",
      "stateCode": "BY",
      "latitude": "48.06919000",
      "longitude": "11.37703000"
   },
   {
      "name": "Gebsattel",
      "countryCode": "DE",
      "stateCode": "BY",
      "latitude": "49.35000000",
      "longitude": "10.20000000"
   },
   {
      "name": "Gefrees",
      "countryCode": "DE",
      "stateCode": "BY",
      "latitude": "50.09538000",
      "longitude": "11.73772000"
   },
   {
      "name": "Geiersthal",
      "countryCode": "DE",
      "stateCode": "BY",
      "latitude": "49.04569000",
      "longitude": "12.98171000"
   },
   {
      "name": "Geiselbach",
      "countryCode": "DE",
      "stateCode": "BY",
      "latitude": "50.12329000",
      "longitude": "9.19664000"
   },
   {
      "name": "Geiselhöring",
      "countryCode": "DE",
      "stateCode": "BY",
      "latitude": "48.82505000",
      "longitude": "12.39649000"
   },
   {
      "name": "Geiselwind",
      "countryCode": "DE",
      "stateCode": "BY",
      "latitude": "49.77356000",
      "longitude": "10.47063000"
   },
   {
      "name": "Geisenfeld",
      "countryCode": "DE",
      "stateCode": "BY",
      "latitude": "48.68426000",
      "longitude": "11.61233000"
   },
   {
      "name": "Geisenhausen",
      "countryCode": "DE",
      "stateCode": "BY",
      "latitude": "48.47609000",
      "longitude": "12.25817000"
   },
   {
      "name": "Geldersheim",
      "countryCode": "DE",
      "stateCode": "BY",
      "latitude": "50.04286000",
      "longitude": "10.15609000"
   },
   {
      "name": "Geltendorf",
      "countryCode": "DE",
      "stateCode": "BY",
      "latitude": "48.11737000",
      "longitude": "11.03216000"
   },
   {
      "name": "Gemünden am Main",
      "countryCode": "DE",
      "stateCode": "BY",
      "latitude": "50.04946000",
      "longitude": "9.70593000"
   },
   {
      "name": "Genderkingen",
      "countryCode": "DE",
      "stateCode": "BY",
      "latitude": "48.70000000",
      "longitude": "10.88333000"
   },
   {
      "name": "Georgenberg",
      "countryCode": "DE",
      "stateCode": "BY",
      "latitude": "49.70297000",
      "longitude": "12.42082000"
   },
   {
      "name": "Georgensgmünd",
      "countryCode": "DE",
      "stateCode": "BY",
      "latitude": "49.18972000",
      "longitude": "11.01667000"
   },
   {
      "name": "Gerach",
      "countryCode": "DE",
      "stateCode": "BY",
      "latitude": "50.03333000",
      "longitude": "10.80000000"
   },
   {
      "name": "Gerbrunn",
      "countryCode": "DE",
      "stateCode": "BY",
      "latitude": "49.77528000",
      "longitude": "9.99361000"
   },
   {
      "name": "Geretsried",
      "countryCode": "DE",
      "stateCode": "BY",
      "latitude": "47.85775000",
      "longitude": "11.48054000"
   },
   {
      "name": "Gerhardshofen",
      "countryCode": "DE",
      "stateCode": "BY",
      "latitude": "49.63123000",
      "longitude": "10.69133000"
   },
   {
      "name": "Germering",
      "countryCode": "DE",
      "stateCode": "BY",
      "latitude": "48.13392000",
      "longitude": "11.37650000"
   },
   {
      "name": "Geroldsgrün",
      "countryCode": "DE",
      "stateCode": "BY",
      "latitude": "50.33333000",
      "longitude": "11.60000000"
   },
   {
      "name": "Geroldshausen",
      "countryCode": "DE",
      "stateCode": "BY",
      "latitude": "49.68361000",
      "longitude": "9.90222000"
   },
   {
      "name": "Gerolfingen",
      "countryCode": "DE",
      "stateCode": "BY",
      "latitude": "49.05340000",
      "longitude": "10.51151000"
   },
   {
      "name": "Gerolsbach",
      "countryCode": "DE",
      "stateCode": "BY",
      "latitude": "48.49283000",
      "longitude": "11.36149000"
   },
   {
      "name": "Gerolzhofen",
      "countryCode": "DE",
      "stateCode": "BY",
      "latitude": "49.90025000",
      "longitude": "10.34832000"
   },
   {
      "name": "Gersthofen",
      "countryCode": "DE",
      "stateCode": "BY",
      "latitude": "48.42432000",
      "longitude": "10.87273000"
   },
   {
      "name": "Gerzen",
      "countryCode": "DE",
      "stateCode": "BY",
      "latitude": "48.50706000",
      "longitude": "12.42686000"
   },
   {
      "name": "Gesees",
      "countryCode": "DE",
      "stateCode": "BY",
      "latitude": "50.03207000",
      "longitude": "11.66623000"
   },
   {
      "name": "Geslau",
      "countryCode": "DE",
      "stateCode": "BY",
      "latitude": "49.36643000",
      "longitude": "10.31528000"
   },
   {
      "name": "Gessertshausen",
      "countryCode": "DE",
      "stateCode": "BY",
      "latitude": "48.32904000",
      "longitude": "10.73278000"
   },
   {
      "name": "Gestratz",
      "countryCode": "DE",
      "stateCode": "BY",
      "latitude": "47.65000000",
      "longitude": "9.98333000"
   },
   {
      "name": "Giebelstadt",
      "countryCode": "DE",
      "stateCode": "BY",
      "latitude": "49.65308000",
      "longitude": "9.94441000"
   },
   {
      "name": "Gilching",
      "countryCode": "DE",
      "stateCode": "BY",
      "latitude": "48.10755000",
      "longitude": "11.29360000"
   },
   {
      "name": "Glashütten",
      "countryCode": "DE",
      "stateCode": "BY",
      "latitude": "49.88739000",
      "longitude": "11.44870000"
   },
   {
      "name": "Glattbach",
      "countryCode": "DE",
      "stateCode": "BY",
      "latitude": "50.00000000",
      "longitude": "9.15000000"
   },
   {
      "name": "Glonn",
      "countryCode": "DE",
      "stateCode": "BY",
      "latitude": "47.98751000",
      "longitude": "11.86721000"
   },
   {
      "name": "Glött",
      "countryCode": "DE",
      "stateCode": "BY",
      "latitude": "48.50000000",
      "longitude": "10.48333000"
   },
   {
      "name": "Gmund am Tegernsee",
      "countryCode": "DE",
      "stateCode": "BY",
      "latitude": "47.75119000",
      "longitude": "11.73810000"
   },
   {
      "name": "Gochsheim",
      "countryCode": "DE",
      "stateCode": "BY",
      "latitude": "50.01667000",
      "longitude": "10.28333000"
   },
   {
      "name": "Goldbach",
      "countryCode": "DE",
      "stateCode": "BY",
      "latitude": "49.99951000",
      "longitude": "9.18440000"
   },
   {
      "name": "Goldkronach",
      "countryCode": "DE",
      "stateCode": "BY",
      "latitude": "50.01086000",
      "longitude": "11.68750000"
   },
   {
      "name": "Gotteszell",
      "countryCode": "DE",
      "stateCode": "BY",
      "latitude": "48.96667000",
      "longitude": "12.96667000"
   },
   {
      "name": "Gottfrieding",
      "countryCode": "DE",
      "stateCode": "BY",
      "latitude": "48.63737000",
      "longitude": "12.53561000"
   },
   {
      "name": "Graben",
      "countryCode": "DE",
      "stateCode": "BY",
      "latitude": "48.18732000",
      "longitude": "10.82222000"
   },
   {
      "name": "Grabenstätt",
      "countryCode": "DE",
      "stateCode": "BY",
      "latitude": "47.84531000",
      "longitude": "12.54330000"
   },
   {
      "name": "Grafenau",
      "countryCode": "DE",
      "stateCode": "BY",
      "latitude": "48.85768000",
      "longitude": "13.39740000"
   },
   {
      "name": "Grafengehaig",
      "countryCode": "DE",
      "stateCode": "BY",
      "latitude": "50.20310000",
      "longitude": "11.59358000"
   },
   {
      "name": "Grafenrheinfeld",
      "countryCode": "DE",
      "stateCode": "BY",
      "latitude": "50.00000000",
      "longitude": "10.20000000"
   },
   {
      "name": "Grafenwiesen",
      "countryCode": "DE",
      "stateCode": "BY",
      "latitude": "49.20000000",
      "longitude": "12.88333000"
   },
   {
      "name": "Grafenwöhr",
      "countryCode": "DE",
      "stateCode": "BY",
      "latitude": "49.71728000",
      "longitude": "11.90645000"
   },
   {
      "name": "Grafing bei München",
      "countryCode": "DE",
      "stateCode": "BY",
      "latitude": "48.04596000",
      "longitude": "11.96797000"
   },
   {
      "name": "Grafrath",
      "countryCode": "DE",
      "stateCode": "BY",
      "latitude": "48.11667000",
      "longitude": "11.16667000"
   },
   {
      "name": "Grainau",
      "countryCode": "DE",
      "stateCode": "BY",
      "latitude": "47.47614000",
      "longitude": "11.02405000"
   },
   {
      "name": "Grainet",
      "countryCode": "DE",
      "stateCode": "BY",
      "latitude": "48.80000000",
      "longitude": "13.65000000"
   },
   {
      "name": "Grasbrunn",
      "countryCode": "DE",
      "stateCode": "BY",
      "latitude": "48.07905000",
      "longitude": "11.74361000"
   },
   {
      "name": "Grassau",
      "countryCode": "DE",
      "stateCode": "BY",
      "latitude": "47.78099000",
      "longitude": "12.45359000"
   },
   {
      "name": "Grattersdorf",
      "countryCode": "DE",
      "stateCode": "BY",
      "latitude": "48.80364000",
      "longitude": "13.15372000"
   },
   {
      "name": "Greding",
      "countryCode": "DE",
      "stateCode": "BY",
      "latitude": "49.04699000",
      "longitude": "11.35703000"
   },
   {
      "name": "Greifenberg",
      "countryCode": "DE",
      "stateCode": "BY",
      "latitude": "48.07062000",
      "longitude": "11.08349000"
   },
   {
      "name": "Greiling",
      "countryCode": "DE",
      "stateCode": "BY",
      "latitude": "47.76667000",
      "longitude": "11.61667000"
   },
   {
      "name": "Gremsdorf",
      "countryCode": "DE",
      "stateCode": "BY",
      "latitude": "49.69506000",
      "longitude": "10.83218000"
   },
   {
      "name": "Grettstadt",
      "countryCode": "DE",
      "stateCode": "BY",
      "latitude": "49.98333000",
      "longitude": "10.31667000"
   },
   {
      "name": "Greußenheim",
      "countryCode": "DE",
      "stateCode": "BY",
      "latitude": "49.81667000",
      "longitude": "9.76667000"
   },
   {
      "name": "Griesstätt",
      "countryCode": "DE",
      "stateCode": "BY",
      "latitude": "47.99403000",
      "longitude": "12.17727000"
   },
   {
      "name": "Großaitingen",
      "countryCode": "DE",
      "stateCode": "BY",
      "latitude": "48.22753000",
      "longitude": "10.77948000"
   },
   {
      "name": "Großbardorf",
      "countryCode": "DE",
      "stateCode": "BY",
      "latitude": "50.26667000",
      "longitude": "10.36667000"
   },
   {
      "name": "Großeibstadt",
      "countryCode": "DE",
      "stateCode": "BY",
      "latitude": "50.30102000",
      "longitude": "10.40980000"
   },
   {
      "name": "Großenseebach",
      "countryCode": "DE",
      "stateCode": "BY",
      "latitude": "49.63251000",
      "longitude": "10.87483000"
   },
   {
      "name": "Großhabersdorf",
      "countryCode": "DE",
      "stateCode": "BY",
      "latitude": "49.40000000",
      "longitude": "10.78333000"
   },
   {
      "name": "Großheirath",
      "countryCode": "DE",
      "stateCode": "BY",
      "latitude": "50.17603000",
      "longitude": "10.95050000"
   },
   {
      "name": "Großheubach",
      "countryCode": "DE",
      "stateCode": "BY",
      "latitude": "49.72834000",
      "longitude": "9.22280000"
   },
   {
      "name": "Großkarolinenfeld",
      "countryCode": "DE",
      "stateCode": "BY",
      "latitude": "47.89102000",
      "longitude": "12.08101000"
   },
   {
      "name": "Großlangheim",
      "countryCode": "DE",
      "stateCode": "BY",
      "latitude": "49.75620000",
      "longitude": "10.24065000"
   },
   {
      "name": "Großostheim",
      "countryCode": "DE",
      "stateCode": "BY",
      "latitude": "49.91985000",
      "longitude": "9.07596000"
   },
   {
      "name": "Großreuth bei Schweinau",
      "countryCode": "DE",
      "stateCode": "BY",
      "latitude": "49.43449000",
      "longitude": "11.02273000"
   },
   {
      "name": "Großwallstadt",
      "countryCode": "DE",
      "stateCode": "BY",
      "latitude": "49.87936000",
      "longitude": "9.15338000"
   },
   {
      "name": "Großweil",
      "countryCode": "DE",
      "stateCode": "BY",
      "latitude": "47.67598000",
      "longitude": "11.30108000"
   },
   {
      "name": "Grub",
      "countryCode": "DE",
      "stateCode": "BY",
      "latitude": "50.10285000",
      "longitude": "11.92904000"
   },
   {
      "name": "Gräfelfing",
      "countryCode": "DE",
      "stateCode": "BY",
      "latitude": "48.11878000",
      "longitude": "11.42939000"
   },
   {
      "name": "Gräfenberg",
      "countryCode": "DE",
      "stateCode": "BY",
      "latitude": "49.64426000",
      "longitude": "11.24971000"
   },
   {
      "name": "Gräfendorf",
      "countryCode": "DE",
      "stateCode": "BY",
      "latitude": "50.12267000",
      "longitude": "9.74050000"
   },
   {
      "name": "Gröbenzell",
      "countryCode": "DE",
      "stateCode": "BY",
      "latitude": "48.20000000",
      "longitude": "11.36667000"
   },
   {
      "name": "Grünenbach",
      "countryCode": "DE",
      "stateCode": "BY",
      "latitude": "47.62864000",
      "longitude": "10.00843000"
   },
   {
      "name": "Grünwald",
      "countryCode": "DE",
      "stateCode": "BY",
      "latitude": "48.03947000",
      "longitude": "11.52320000"
   },
   {
      "name": "Gstadt am Chiemsee",
      "countryCode": "DE",
      "stateCode": "BY",
      "latitude": "47.88453000",
      "longitude": "12.41813000"
   },
   {
      "name": "Gundelfingen",
      "countryCode": "DE",
      "stateCode": "BY",
      "latitude": "48.55347000",
      "longitude": "10.37223000"
   },
   {
      "name": "Gundelsheim",
      "countryCode": "DE",
      "stateCode": "BY",
      "latitude": "49.93708000",
      "longitude": "10.91990000"
   },
   {
      "name": "Gundremmingen",
      "countryCode": "DE",
      "stateCode": "BY",
      "latitude": "48.50000000",
      "longitude": "10.40000000"
   },
   {
      "name": "Gunzenhausen",
      "countryCode": "DE",
      "stateCode": "BY",
      "latitude": "49.11663000",
      "longitude": "10.75971000"
   },
   {
      "name": "Gutenstetten",
      "countryCode": "DE",
      "stateCode": "BY",
      "latitude": "49.61667000",
      "longitude": "10.63333000"
   },
   {
      "name": "Görisried",
      "countryCode": "DE",
      "stateCode": "BY",
      "latitude": "47.70668000",
      "longitude": "10.51015000"
   },
   {
      "name": "Gössenheim",
      "countryCode": "DE",
      "stateCode": "BY",
      "latitude": "50.01667000",
      "longitude": "9.78333000"
   },
   {
      "name": "Gößweinstein",
      "countryCode": "DE",
      "stateCode": "BY",
      "latitude": "49.76898000",
      "longitude": "11.33841000"
   },
   {
      "name": "Güntersleben",
      "countryCode": "DE",
      "stateCode": "BY",
      "latitude": "49.86972000",
      "longitude": "9.90500000"
   },
   {
      "name": "Günzach",
      "countryCode": "DE",
      "stateCode": "BY",
      "latitude": "47.82491000",
      "longitude": "10.43547000"
   },
   {
      "name": "Günzburg",
      "countryCode": "DE",
      "stateCode": "BY",
      "latitude": "48.45599000",
      "longitude": "10.27695000"
   },
   {
      "name": "Haag an der Amper",
      "countryCode": "DE",
      "stateCode": "BY",
      "latitude": "48.45840000",
      "longitude": "11.82796000"
   },
   {
      "name": "Haag in Oberbayern",
      "countryCode": "DE",
      "stateCode": "BY",
      "latitude": "48.16196000",
      "longitude": "12.17942000"
   },
   {
      "name": "Haar",
      "countryCode": "DE",
      "stateCode": "BY",
      "latitude": "48.10881000",
      "longitude": "11.72653000"
   },
   {
      "name": "Haarbach",
      "countryCode": "DE",
      "stateCode": "BY",
      "latitude": "48.50000000",
      "longitude": "13.15000000"
   },
   {
      "name": "Habach",
      "countryCode": "DE",
      "stateCode": "BY",
      "latitude": "47.73333000",
      "longitude": "11.28333000"
   },
   {
      "name": "Hafenlohr",
      "countryCode": "DE",
      "stateCode": "BY",
      "latitude": "49.86944000",
      "longitude": "9.60222000"
   },
   {
      "name": "Hagelstadt",
      "countryCode": "DE",
      "stateCode": "BY",
      "latitude": "48.90000000",
      "longitude": "12.21667000"
   },
   {
      "name": "Hagenbüchach",
      "countryCode": "DE",
      "stateCode": "BY",
      "latitude": "49.53333000",
      "longitude": "10.76667000"
   },
   {
      "name": "Hahnbach",
      "countryCode": "DE",
      "stateCode": "BY",
      "latitude": "49.53389000",
      "longitude": "11.80302000"
   },
   {
      "name": "Haibach",
      "countryCode": "DE",
      "stateCode": "BY",
      "latitude": "49.96444000",
      "longitude": "9.20722000"
   },
   {
      "name": "Haidmühle",
      "countryCode": "DE",
      "stateCode": "BY",
      "latitude": "48.82565000",
      "longitude": "13.77649000"
   },
   {
      "name": "Haimhausen",
      "countryCode": "DE",
      "stateCode": "BY",
      "latitude": "48.31545000",
      "longitude": "11.55453000"
   },
   {
      "name": "Haiming",
      "countryCode": "DE",
      "stateCode": "BY",
      "latitude": "48.21667000",
      "longitude": "12.90000000"
   },
   {
      "name": "Hainsfarth",
      "countryCode": "DE",
      "stateCode": "BY",
      "latitude": "48.95839000",
      "longitude": "10.62491000"
   },
   {
      "name": "Halblech",
      "countryCode": "DE",
      "stateCode": "BY",
      "latitude": "47.63155000",
      "longitude": "10.82024000"
   },
   {
      "name": "Haldenwang",
      "countryCode": "DE",
      "stateCode": "BY",
      "latitude": "47.80000000",
      "longitude": "10.35000000"
   },
   {
      "name": "Halfing",
      "countryCode": "DE",
      "stateCode": "BY",
      "latitude": "47.95197000",
      "longitude": "12.27525000"
   },
   {
      "name": "Hallbergmoos",
      "countryCode": "DE",
      "stateCode": "BY",
      "latitude": "48.32747000",
      "longitude": "11.75142000"
   },
   {
      "name": "Hallerndorf",
      "countryCode": "DE",
      "stateCode": "BY",
      "latitude": "49.75909000",
      "longitude": "10.97946000"
   },
   {
      "name": "Hallstadt",
      "countryCode": "DE",
      "stateCode": "BY",
      "latitude": "49.92901000",
      "longitude": "10.87539000"
   },
   {
      "name": "Hammelburg",
      "countryCode": "DE",
      "stateCode": "BY",
      "latitude": "50.11633000",
      "longitude": "9.89143000"
   },
   {
      "name": "Happurg",
      "countryCode": "DE",
      "stateCode": "BY",
      "latitude": "49.49372000",
      "longitude": "11.47119000"
   },
   {
      "name": "Harburg",
      "countryCode": "DE",
      "stateCode": "BY",
      "latitude": "48.78674000",
      "longitude": "10.68927000"
   },
   {
      "name": "Harsdorf",
      "countryCode": "DE",
      "stateCode": "BY",
      "latitude": "50.03333000",
      "longitude": "11.56667000"
   },
   {
      "name": "Hartenstein",
      "countryCode": "DE",
      "stateCode": "BY",
      "latitude": "49.60000000",
      "longitude": "11.51667000"
   },
   {
      "name": "Haselbach",
      "countryCode": "DE",
      "stateCode": "BY",
      "latitude": "48.64564000",
      "longitude": "13.38956000"
   },
   {
      "name": "Hasloch",
      "countryCode": "DE",
      "stateCode": "BY",
      "latitude": "49.79194000",
      "longitude": "9.49361000"
   },
   {
      "name": "Hattenhofen",
      "countryCode": "DE",
      "stateCode": "BY",
      "latitude": "48.22231000",
      "longitude": "11.11551000"
   },
   {
      "name": "Haundorf",
      "countryCode": "DE",
      "stateCode": "BY",
      "latitude": "49.17598000",
      "longitude": "10.77124000"
   },
   {
      "name": "Haunsheim",
      "countryCode": "DE",
      "stateCode": "BY",
      "latitude": "48.59977000",
      "longitude": "10.37401000"
   },
   {
      "name": "Hausen",
      "countryCode": "DE",
      "stateCode": "BY",
      "latitude": "48.85953000",
      "longitude": "12.00630000"
   },
   {
      "name": "Hausham",
      "countryCode": "DE",
      "stateCode": "BY",
      "latitude": "47.74660000",
      "longitude": "11.84069000"
   },
   {
      "name": "Hauzenberg",
      "countryCode": "DE",
      "stateCode": "BY",
      "latitude": "48.64957000",
      "longitude": "13.62645000"
   },
   {
      "name": "Hawangen",
      "countryCode": "DE",
      "stateCode": "BY",
      "latitude": "47.96667000",
      "longitude": "10.26667000"
   },
   {
      "name": "Haßfurt",
      "countryCode": "DE",
      "stateCode": "BY",
      "latitude": "50.03521000",
      "longitude": "10.51560000"
   },
   {
      "name": "Hebertsfelden",
      "countryCode": "DE",
      "stateCode": "BY",
      "latitude": "48.40596000",
      "longitude": "12.82259000"
   },
   {
      "name": "Hebertshausen",
      "countryCode": "DE",
      "stateCode": "BY",
      "latitude": "48.28959000",
      "longitude": "11.46526000"
   },
   {
      "name": "Heideck",
      "countryCode": "DE",
      "stateCode": "BY",
      "latitude": "49.13365000",
      "longitude": "11.12726000"
   },
   {
      "name": "Heidenheim",
      "countryCode": "DE",
      "stateCode": "BY",
      "latitude": "49.01719000",
      "longitude": "10.74347000"
   },
   {
      "name": "Heigenbrücken",
      "countryCode": "DE",
      "stateCode": "BY",
      "latitude": "50.02820000",
      "longitude": "9.37116000"
   },
   {
      "name": "Heiligenstadt",
      "countryCode": "DE",
      "stateCode": "BY",
      "latitude": "49.86303000",
      "longitude": "11.17185000"
   },
   {
      "name": "Heilsbronn",
      "countryCode": "DE",
      "stateCode": "BY",
      "latitude": "49.33572000",
      "longitude": "10.78741000"
   },
   {
      "name": "Heimbuchenthal",
      "countryCode": "DE",
      "stateCode": "BY",
      "latitude": "49.88917000",
      "longitude": "9.29556000"
   },
   {
      "name": "Heimenkirch",
      "countryCode": "DE",
      "stateCode": "BY",
      "latitude": "47.62959000",
      "longitude": "9.90304000"
   },
   {
      "name": "Heimertingen",
      "countryCode": "DE",
      "stateCode": "BY",
      "latitude": "48.03333000",
      "longitude": "10.15000000"
   },
   {
      "name": "Helmbrechts",
      "countryCode": "DE",
      "stateCode": "BY",
      "latitude": "50.23557000",
      "longitude": "11.71589000"
   },
   {
      "name": "Helmstadt",
      "countryCode": "DE",
      "stateCode": "BY",
      "latitude": "49.76180000",
      "longitude": "9.70803000"
   },
   {
      "name": "Hemau",
      "countryCode": "DE",
      "stateCode": "BY",
      "latitude": "49.05399000",
      "longitude": "11.78195000"
   },
   {
      "name": "Hemhofen",
      "countryCode": "DE",
      "stateCode": "BY",
      "latitude": "49.68333000",
      "longitude": "10.93333000"
   },
   {
      "name": "Hendungen",
      "countryCode": "DE",
      "stateCode": "BY",
      "latitude": "50.39462000",
      "longitude": "10.35204000"
   },
   {
      "name": "Henfenfeld",
      "countryCode": "DE",
      "stateCode": "BY",
      "latitude": "49.49846000",
      "longitude": "11.39059000"
   },
   {
      "name": "Hengersberg",
      "countryCode": "DE",
      "stateCode": "BY",
      "latitude": "48.77255000",
      "longitude": "13.05485000"
   },
   {
      "name": "Heretsried",
      "countryCode": "DE",
      "stateCode": "BY",
      "latitude": "48.45972000",
      "longitude": "10.73601000"
   },
   {
      "name": "Hergensweiler",
      "countryCode": "DE",
      "stateCode": "BY",
      "latitude": "47.61667000",
      "longitude": "9.78333000"
   },
   {
      "name": "Heroldsbach",
      "countryCode": "DE",
      "stateCode": "BY",
      "latitude": "49.69342000",
      "longitude": "10.99882000"
   },
   {
      "name": "Heroldsberg",
      "countryCode": "DE",
      "stateCode": "BY",
      "latitude": "49.53247000",
      "longitude": "11.15551000"
   },
   {
      "name": "Herrieden",
      "countryCode": "DE",
      "stateCode": "BY",
      "latitude": "49.23779000",
      "longitude": "10.50350000"
   },
   {
      "name": "Herrngiersdorf",
      "countryCode": "DE",
      "stateCode": "BY",
      "latitude": "48.78863000",
      "longitude": "12.07200000"
   },
   {
      "name": "Herrsching am Ammersee",
      "countryCode": "DE",
      "stateCode": "BY",
      "latitude": "47.99888000",
      "longitude": "11.17679000"
   },
   {
      "name": "Hersbruck",
      "countryCode": "DE",
      "stateCode": "BY",
      "latitude": "49.51083000",
      "longitude": "11.43151000"
   },
   {
      "name": "Herzogenaurach",
      "countryCode": "DE",
      "stateCode": "BY",
      "latitude": "49.56798000",
      "longitude": "10.88565000"
   },
   {
      "name": "Hettenshausen",
      "countryCode": "DE",
      "stateCode": "BY",
      "latitude": "48.50000000",
      "longitude": "11.50000000"
   },
   {
      "name": "Hettstadt",
      "countryCode": "DE",
      "stateCode": "BY",
      "latitude": "49.79944000",
      "longitude": "9.81500000"
   },
   {
      "name": "Hetzles",
      "countryCode": "DE",
      "stateCode": "BY",
      "latitude": "49.63333000",
      "longitude": "11.13333000"
   },
   {
      "name": "Heustreu",
      "countryCode": "DE",
      "stateCode": "BY",
      "latitude": "50.35485000",
      "longitude": "10.26069000"
   },
   {
      "name": "Heßdorf",
      "countryCode": "DE",
      "stateCode": "BY",
      "latitude": "49.62728000",
      "longitude": "10.91002000"
   },
   {
      "name": "Hilgertshausen-Tandern",
      "countryCode": "DE",
      "stateCode": "BY",
      "latitude": "48.42960000",
      "longitude": "11.35428000"
   },
   {
      "name": "Hilpoltstein",
      "countryCode": "DE",
      "stateCode": "BY",
      "latitude": "49.19047000",
      "longitude": "11.19060000"
   },
   {
      "name": "Hiltenfingen",
      "countryCode": "DE",
      "stateCode": "BY",
      "latitude": "48.16085000",
      "longitude": "10.71750000"
   },
   {
      "name": "Hiltpoltstein",
      "countryCode": "DE",
      "stateCode": "BY",
      "latitude": "49.66075000",
      "longitude": "11.32272000"
   },
   {
      "name": "Himmelkron",
      "countryCode": "DE",
      "stateCode": "BY",
      "latitude": "50.06667000",
      "longitude": "11.60000000"
   },
   {
      "name": "Himmelstadt",
      "countryCode": "DE",
      "stateCode": "BY",
      "latitude": "49.92389000",
      "longitude": "9.80167000"
   },
   {
      "name": "Hinterschmiding",
      "countryCode": "DE",
      "stateCode": "BY",
      "latitude": "48.82337000",
      "longitude": "13.60369000"
   },
   {
      "name": "Hirschaid",
      "countryCode": "DE",
      "stateCode": "BY",
      "latitude": "49.81789000",
      "longitude": "10.98918000"
   },
   {
      "name": "Hirschau",
      "countryCode": "DE",
      "stateCode": "BY",
      "latitude": "49.54396000",
      "longitude": "11.94617000"
   },
   {
      "name": "Hirschbach",
      "countryCode": "DE",
      "stateCode": "BY",
      "latitude": "49.55000000",
      "longitude": "11.53333000"
   },
   {
      "name": "Hochstadt am Main",
      "countryCode": "DE",
      "stateCode": "BY",
      "latitude": "50.15009000",
      "longitude": "11.17116000"
   },
   {
      "name": "Hof",
      "countryCode": "DE",
      "stateCode": "BY",
      "latitude": "50.31297000",
      "longitude": "11.91261000"
   },
   {
      "name": "Hofheim in Unterfranken",
      "countryCode": "DE",
      "stateCode": "BY",
      "latitude": "50.13675000",
      "longitude": "10.52321000"
   },
   {
      "name": "Hofkirchen",
      "countryCode": "DE",
      "stateCode": "BY",
      "latitude": "48.67805000",
      "longitude": "13.11917000"
   },
   {
      "name": "Hofstetten",
      "countryCode": "DE",
      "stateCode": "BY",
      "latitude": "48.00847000",
      "longitude": "10.97114000"
   },
   {
      "name": "Hohenau",
      "countryCode": "DE",
      "stateCode": "BY",
      "latitude": "48.84983000",
      "longitude": "13.48825000"
   },
   {
      "name": "Hohenberg an der Eger",
      "countryCode": "DE",
      "stateCode": "BY",
      "latitude": "50.09501000",
      "longitude": "12.22008000"
   },
   {
      "name": "Hohenbrunn",
      "countryCode": "DE",
      "stateCode": "BY",
      "latitude": "48.04785000",
      "longitude": "11.70224000"
   },
   {
      "name": "Hohenburg",
      "countryCode": "DE",
      "stateCode": "BY",
      "latitude": "49.29507000",
      "longitude": "11.79906000"
   },
   {
      "name": "Hohenfels",
      "countryCode": "DE",
      "stateCode": "BY",
      "latitude": "49.20397000",
      "longitude": "11.84841000"
   },
   {
      "name": "Hohenfurch",
      "countryCode": "DE",
      "stateCode": "BY",
      "latitude": "47.85000000",
      "longitude": "10.90000000"
   },
   {
      "name": "Hohenkammer",
      "countryCode": "DE",
      "stateCode": "BY",
      "latitude": "48.42406000",
      "longitude": "11.52522000"
   },
   {
      "name": "Hohenlinden",
      "countryCode": "DE",
      "stateCode": "BY",
      "latitude": "48.15612000",
      "longitude": "11.99458000"
   },
   {
      "name": "Hohenpeißenberg",
      "countryCode": "DE",
      "stateCode": "BY",
      "latitude": "47.80000000",
      "longitude": "11.00000000"
   },
   {
      "name": "Hohenpolding",
      "countryCode": "DE",
      "stateCode": "BY",
      "latitude": "48.38333000",
      "longitude": "12.13333000"
   },
   {
      "name": "Hohenthann",
      "countryCode": "DE",
      "stateCode": "BY",
      "latitude": "48.66115000",
      "longitude": "12.09251000"
   },
   {
      "name": "Hohenwarth",
      "countryCode": "DE",
      "stateCode": "BY",
      "latitude": "49.20000000",
      "longitude": "12.93333000"
   },
   {
      "name": "Hollenbach",
      "countryCode": "DE",
      "stateCode": "BY",
      "latitude": "48.48333000",
      "longitude": "11.06667000"
   },
   {
      "name": "Hollfeld",
      "countryCode": "DE",
      "stateCode": "BY",
      "latitude": "49.93793000",
      "longitude": "11.29153000"
   },
   {
      "name": "Hollstadt",
      "countryCode": "DE",
      "stateCode": "BY",
      "latitude": "50.35000000",
      "longitude": "10.30000000"
   },
   {
      "name": "Holzgünz",
      "countryCode": "DE",
      "stateCode": "BY",
      "latitude": "48.02503000",
      "longitude": "10.25901000"
   },
   {
      "name": "Holzheim",
      "countryCode": "DE",
      "stateCode": "BY",
      "latitude": "48.51422000",
      "longitude": "10.53057000"
   },
   {
      "name": "Holzkirchen",
      "countryCode": "DE",
      "stateCode": "BY",
      "latitude": "47.87663000",
      "longitude": "11.70181000"
   },
   {
      "name": "Hopferau",
      "countryCode": "DE",
      "stateCode": "BY",
      "latitude": "47.61667000",
      "longitude": "10.63333000"
   },
   {
      "name": "Horgau",
      "countryCode": "DE",
      "stateCode": "BY",
      "latitude": "48.39507000",
      "longitude": "10.68283000"
   },
   {
      "name": "Huglfing",
      "countryCode": "DE",
      "stateCode": "BY",
      "latitude": "47.76667000",
      "longitude": "11.16667000"
   },