[
   {
      "name": "Niassa Province",
      "isoCode": "A",
      "countryCode": "MZ",
      "latitude": "-12.78262020",
      "longitude": "36.60939260"
   },
   {
      "name": "Manica Province",
      "isoCode": "B",
      "countryCode": "MZ",
      "latitude": "-19.50597870",
      "longitude": "33.43835300"
   },
   {
      "name": "Gaza Province",
      "isoCode": "G",
      "countryCode": "MZ",
      "latitude": "-23.02219280",
      "longitude": "32.71813750"
   },
   {
      "name": "Inhambane Province",
      "isoCode": "I",
      "countryCode": "MZ",
      "latitude": "-22.85279970",
      "longitude": "34.55087580"
   },
   {
      "name": "Maputo Province",
      "isoCode": "L",
      "countryCode": "MZ",
      "latitude": "-25.25698760",
      "longitude": "32.53727410"
   },
   {
      "name": "Maputo",
      "isoCode": "MPM",
      "countryCode": "MZ",
      "latitude": "-25.96924800",
      "longitude": "32.57317460"
   },
   {
      "name": "Nampula Province",
      "isoCode": "N",
      "countryCode": "MZ",
      "latitude": "-14.76049310",
      "longitude": "39.32062410"
   },
   {
      "name": "Cabo Delgado Province",
      "isoCode": "P",
      "countryCode": "MZ",
      "latitude": "-12.33354740",
      "longitude": "39.32062410"
   },
   {
      "name": "Zambezia Province",
      "isoCode": "Q",
      "countryCode": "MZ",
      "latitude": "-16.56389870",
      "longitude": "36.60939260"
   },
   {
      "name": "Sofala Province",
      "isoCode": "S",
      "countryCode": "MZ",
      "latitude": "-19.20390730",
      "longitude": "34.86241660"
   },
   {
      "name": "Tete Province",
      "isoCode": "T",
      "countryCode": "MZ",
      "latitude": "-15.65960560",
      "longitude": "32.71813750"
   }
]