[
   {
      "name": "Huyen Nga Nam",
      "countryCode": "VN",
      "stateCode": "52",
      "latitude": "9.56127000",
      "longitude": "105.59476000"
   },
   {
      "name": "Huyện Kế Sách",
      "countryCode": "VN",
      "stateCode": "52",
      "latitude": "9.81771000",
      "longitude": "105.94190000"
   },
   {
      "name": "Huyện Long Phú",
      "countryCode": "VN",
      "stateCode": "52",
      "latitude": "9.63715000",
      "longitude": "106.08226000"
   },
   {
      "name": "Huyện Mỹ Tú",
      "countryCode": "VN",
      "stateCode": "52",
      "latitude": "9.60849000",
      "longitude": "105.80681000"
   },
   {
      "name": "Huyện Mỹ Xuyên",
      "countryCode": "VN",
      "stateCode": "52",
      "latitude": "9.44200000",
      "longitude": "105.88546000"
   },
   {
      "name": "Huyện Thạnh Trị",
      "countryCode": "VN",
      "stateCode": "52",
      "latitude": "9.46939000",
      "longitude": "105.71196000"
   },
   {
      "name": "Sóc Trăng",
      "countryCode": "VN",
      "stateCode": "52",
      "latitude": "9.59995000",
      "longitude": "105.97193000"
   }
]