[
   {
      "name": "Andreapol’",
      "countryCode": "RU",
      "stateCode": "TVE",
      "latitude": "56.65134000",
      "longitude": "32.26640000"
   },
   {
      "name": "Andreapol’skiy Rayon",
      "countryCode": "RU",
      "stateCode": "TVE",
      "latitude": "56.66667000",
      "longitude": "32.25000000"
   },
   {
      "name": "Belyy",
      "countryCode": "RU",
      "stateCode": "TVE",
      "latitude": "55.84020000",
      "longitude": "32.94190000"
   },
   {
      "name": "Belyy Gorodok",
      "countryCode": "RU",
      "stateCode": "TVE",
      "latitude": "56.96500000",
      "longitude": "37.51250000"
   },
   {
      "name": "Bel’skiy Rayon",
      "countryCode": "RU",
      "stateCode": "TVE",
      "latitude": "55.83333000",
      "longitude": "33.08333000"
   },
   {
      "name": "Berezayka",
      "countryCode": "RU",
      "stateCode": "TVE",
      "latitude": "57.98833000",
      "longitude": "33.90361000"
   },
   {
      "name": "Bernovo",
      "countryCode": "RU",
      "stateCode": "TVE",
      "latitude": "56.68633000",
      "longitude": "34.70357000"
   },
   {
      "name": "Bezhetsk",
      "countryCode": "RU",
      "stateCode": "TVE",
      "latitude": "57.78506000",
      "longitude": "36.69651000"
   },
   {
      "name": "Bezhetskiy Rayon",
      "countryCode": "RU",
      "stateCode": "TVE",
      "latitude": "57.76667000",
      "longitude": "36.58333000"
   },
   {
      "name": "Bologovskiy Rayon",
      "countryCode": "RU",
      "stateCode": "TVE",
      "latitude": "57.91667000",
      "longitude": "34.00000000"
   },
   {
      "name": "Bologoye",
      "countryCode": "RU",
      "stateCode": "TVE",
      "latitude": "57.88585000",
      "longitude": "34.04876000"
   },
   {
      "name": "Bologoye-4",
      "countryCode": "RU",
      "stateCode": "TVE",
      "latitude": "57.90000000",
      "longitude": "33.65000000"
   },
   {
      "name": "Emmaus",
      "countryCode": "RU",
      "stateCode": "TVE",
      "latitude": "56.78055000",
      "longitude": "36.11500000"
   },
   {
      "name": "Firovo",
      "countryCode": "RU",
      "stateCode": "TVE",
      "latitude": "57.48135000",
      "longitude": "33.70211000"
   },
   {
      "name": "Firovskiy Rayon",
      "countryCode": "RU",
      "stateCode": "TVE",
      "latitude": "57.48333000",
      "longitude": "33.70000000"
   },
   {
      "name": "Gorodnya",
      "countryCode": "RU",
      "stateCode": "TVE",
      "latitude": "56.70550000",
      "longitude": "36.31793000"
   },
   {
      "name": "Il’inskoye",
      "countryCode": "RU",
      "stateCode": "TVE",
      "latitude": "56.96667000",
      "longitude": "37.18333000"
   },
   {
      "name": "Izoplit",
      "countryCode": "RU",
      "stateCode": "TVE",
      "latitude": "56.62558000",
      "longitude": "36.22198000"
   },
   {
      "name": "Kalashnikovo",
      "countryCode": "RU",
      "stateCode": "TVE",
      "latitude": "57.28237000",
      "longitude": "35.22617000"
   },
   {
      "name": "Kalininskiy Rayon",
      "countryCode": "RU",
      "stateCode": "TVE",
      "latitude": "56.75958000",
      "longitude": "35.98945000"
   },
   {
      "name": "Kalyazin",
      "countryCode": "RU",
      "stateCode": "TVE",
      "latitude": "57.24028000",
      "longitude": "37.84333000"
   },
   {
      "name": "Kalyazinskiy Rayon",
      "countryCode": "RU",
      "stateCode": "TVE",
      "latitude": "57.25000000",
      "longitude": "37.83333000"
   },
   {
      "name": "Kashin",
      "countryCode": "RU",
      "stateCode": "TVE",
      "latitude": "57.35917000",
      "longitude": "37.60806000"
   },
   {
      "name": "Kashinskiy Rayon",
      "countryCode": "RU",
      "stateCode": "TVE",
      "latitude": "57.41667000",
      "longitude": "37.58333000"
   },
   {
      "name": "Kesova Gora",
      "countryCode": "RU",
      "stateCode": "TVE",
      "latitude": "57.58361000",
      "longitude": "37.29222000"
   },
   {
      "name": "Kesovogorskiy Rayon",
      "countryCode": "RU",
      "stateCode": "TVE",
      "latitude": "57.58333000",
      "longitude": "37.33333000"
   },
   {
      "name": "Kimrskiy Rayon",
      "countryCode": "RU",
      "stateCode": "TVE",
      "latitude": "56.91667000",
      "longitude": "37.33333000"
   },
   {
      "name": "Kimry",
      "countryCode": "RU",
      "stateCode": "TVE",
      "latitude": "56.86667000",
      "longitude": "37.35000000"
   },
   {
      "name": "Konakovo",
      "countryCode": "RU",
      "stateCode": "TVE",
      "latitude": "56.70000000",
      "longitude": "36.76667000"
   },
   {
      "name": "Konakovskiy Rayon",
      "countryCode": "RU",
      "stateCode": "TVE",
      "latitude": "56.66667000",
      "longitude": "36.83333000"
   },
   {
      "name": "Kozlovo",
      "countryCode": "RU",
      "stateCode": "TVE",
      "latitude": "56.50977000",
      "longitude": "36.27326000"
   },
   {
      "name": "Krasnokholmskiy Rayon",
      "countryCode": "RU",
      "stateCode": "TVE",
      "latitude": "58.08333000",
      "longitude": "37.16667000"
   },
   {
      "name": "Krasnomayskiy",
      "countryCode": "RU",
      "stateCode": "TVE",
      "latitude": "57.61941000",
      "longitude": "34.40987000"
   },
   {
      "name": "Krasnyy Kholm",
      "countryCode": "RU",
      "stateCode": "TVE",
      "latitude": "58.06070000",
      "longitude": "37.12032000"
   },
   {
      "name": "Kuvshinovo",
      "countryCode": "RU",
      "stateCode": "TVE",
      "latitude": "57.02953000",
      "longitude": "34.17252000"
   },
   {
      "name": "Kuvshinovskiy Rayon",
      "countryCode": "RU",
      "stateCode": "TVE",
      "latitude": "57.00000000",
      "longitude": "34.16667000"
   },
   {
      "name": "Kuzhenkino",
      "countryCode": "RU",
      "stateCode": "TVE",
      "latitude": "57.76111000",
      "longitude": "33.95083000"
   },
   {
      "name": "Lesnoy Rayon",
      "countryCode": "RU",
      "stateCode": "TVE",
      "latitude": "58.25000000",
      "longitude": "35.50000000"
   },
   {
      "name": "Lesnoye",
      "countryCode": "RU",
      "stateCode": "TVE",
      "latitude": "58.28406000",
      "longitude": "35.51584000"
   },
   {
      "name": "Likhoslavl’",
      "countryCode": "RU",
      "stateCode": "TVE",
      "latitude": "57.12747000",
      "longitude": "35.46404000"
   },
   {
      "name": "Likhoslavl’skiy Rayon",
      "countryCode": "RU",
      "stateCode": "TVE",
      "latitude": "57.16667000",
      "longitude": "35.41667000"
   },
   {
      "name": "Maksatikha",
      "countryCode": "RU",
      "stateCode": "TVE",
      "latitude": "57.79695000",
      "longitude": "35.88254000"
   },
   {
      "name": "Maksatikhinskiy Rayon",
      "countryCode": "RU",
      "stateCode": "TVE",
      "latitude": "57.83333000",
      "longitude": "35.91667000"
   },
   {
      "name": "Molokovo",
      "countryCode": "RU",
      "stateCode": "TVE",
      "latitude": "58.16611000",
      "longitude": "36.76278000"
   },
   {
      "name": "Nelidovo",
      "countryCode": "RU",
      "stateCode": "TVE",
      "latitude": "56.22107000",
      "longitude": "32.77738000"
   },
   {
      "name": "Novozavidovskiy",
      "countryCode": "RU",
      "stateCode": "TVE",
      "latitude": "56.55000000",
      "longitude": "36.43333000"
   },
   {
      "name": "Olenino",
      "countryCode": "RU",
      "stateCode": "TVE",
      "latitude": "56.20917000",
      "longitude": "33.48888000"
   },
   {
      "name": "Orsha",
      "countryCode": "RU",
      "stateCode": "TVE",
      "latitude": "56.91196000",
      "longitude": "36.22862000"
   },
   {
      "name": "Ostashkov",
      "countryCode": "RU",
      "stateCode": "TVE",
      "latitude": "57.14667000",
      "longitude": "33.10753000"
   },
   {
      "name": "Ostashkovskiy Rayon",
      "countryCode": "RU",
      "stateCode": "TVE",
      "latitude": "57.16667000",
      "longitude": "33.25000000"
   },
   {
      "name": "Peno",
      "countryCode": "RU",
      "stateCode": "TVE",
      "latitude": "56.92624000",
      "longitude": "32.74262000"
   },
   {
      "name": "Penovskiy Rayon",
      "countryCode": "RU",
      "stateCode": "TVE",
      "latitude": "56.91667000",
      "longitude": "32.75000000"
   },
   {
      "name": "Radchenko",
      "countryCode": "RU",
      "stateCode": "TVE",
      "latitude": "56.68027000",
      "longitude": "36.37178000"
   },
   {
      "name": "Rameshki",
      "countryCode": "RU",
      "stateCode": "TVE",
      "latitude": "57.34390000",
      "longitude": "36.04535000"
   },
   {
      "name": "Rameshkovskiy Rayon",
      "countryCode": "RU",
      "stateCode": "TVE",
      "latitude": "57.33333000",
      "longitude": "36.08333000"
   },
   {
      "name": "Redkino",
      "countryCode": "RU",
      "stateCode": "TVE",
      "latitude": "56.64754000",
      "longitude": "36.29674000"
   },
   {
      "name": "Rzhev",
      "countryCode": "RU",
      "stateCode": "TVE",
      "latitude": "56.26241000",
      "longitude": "34.32817000"
   },
   {
      "name": "Sakharovo",
      "countryCode": "RU",
      "stateCode": "TVE",
      "latitude": "56.89949000",
      "longitude": "36.05015000"
   },
   {
      "name": "Sandovo",
      "countryCode": "RU",
      "stateCode": "TVE",
      "latitude": "58.46022000",
      "longitude": "36.41277000"
   },
   {
      "name": "Sandovskiy Rayon",
      "countryCode": "RU",
      "stateCode": "TVE",
      "latitude": "58.41667000",
      "longitude": "36.41667000"
   },
   {
      "name": "Selishche",
      "countryCode": "RU",
      "stateCode": "TVE",
      "latitude": "56.88794000",
      "longitude": "33.26914000"
   },
   {
      "name": "Selizharovo",
      "countryCode": "RU",
      "stateCode": "TVE",
      "latitude": "56.85188000",
      "longitude": "33.44869000"
   },
   {
      "name": "Selizharovskiy Rayon",
      "countryCode": "RU",
      "stateCode": "TVE",
      "latitude": "56.83333000",
      "longitude": "33.41667000"
   },
   {
      "name": "Sonkovo",
      "countryCode": "RU",
      "stateCode": "TVE",
      "latitude": "57.77816000",
      "longitude": "37.15707000"
   },
   {
      "name": "Spirovo",
      "countryCode": "RU",
      "stateCode": "TVE",
      "latitude": "57.41905000",
      "longitude": "34.97658000"
   },
   {
      "name": "Spirovskiy Rayon",
      "countryCode": "RU",
      "stateCode": "TVE",
      "latitude": "57.41667000",
      "longitude": "35.00000000"
   },
   {
      "name": "Stantsia Staritsa",
      "countryCode": "RU",
      "stateCode": "TVE",
      "latitude": "56.53224000",
      "longitude": "34.77287000"
   },
   {
      "name": "Staraya Toropa",
      "countryCode": "RU",
      "stateCode": "TVE",
      "latitude": "56.28012000",
      "longitude": "31.67018000"
   },
   {
      "name": "Staritsa",
      "countryCode": "RU",
      "stateCode": "TVE",
      "latitude": "56.50752000",
      "longitude": "34.93544000"
   },
   {
      "name": "Staritskiy Rayon",
      "countryCode": "RU",
      "stateCode": "TVE",
      "latitude": "56.50000000",
      "longitude": "34.91667000"
   },
   {
      "name": "Toropets",
      "countryCode": "RU",
      "stateCode": "TVE",
      "latitude": "56.49779000",
      "longitude": "31.63528000"
   },
   {
      "name": "Toropetskiy Rayon",
      "countryCode": "RU",
      "stateCode": "TVE",
      "latitude": "56.58333000",
      "longitude": "31.50000000"
   },
   {
      "name": "Torzhok",
      "countryCode": "RU",
      "stateCode": "TVE",
      "latitude": "57.04360000",
      "longitude": "34.96221000"
   },
   {
      "name": "Torzhokskiy Rayon",
      "countryCode": "RU",
      "stateCode": "TVE",
      "latitude": "57.08333000",
      "longitude": "35.00000000"
   },
   {
      "name": "Tver",
      "countryCode": "RU",
      "stateCode": "TVE",
      "latitude": "56.85836000",
      "longitude": "35.90057000"
   },
   {
      "name": "Udomlya",
      "countryCode": "RU",
      "stateCode": "TVE",
      "latitude": "57.87944000",
      "longitude": "34.99250000"
   },
   {
      "name": "Vasil’yevskiy Mokh",
      "countryCode": "RU",
      "stateCode": "TVE",
      "latitude": "57.01316000",
      "longitude": "35.91897000"
   },
   {
      "name": "Velikooktyabr’skiy",
      "countryCode": "RU",
      "stateCode": "TVE",
      "latitude": "57.43333000",
      "longitude": "33.81595000"
   },
   {
      "name": "Ves’yegonsk",
      "countryCode": "RU",
      "stateCode": "TVE",
      "latitude": "58.66398000",
      "longitude": "37.26040000"
   },
   {
      "name": "Ves’yegonskiy Rayon",
      "countryCode": "RU",
      "stateCode": "TVE",
      "latitude": "58.66667000",
      "longitude": "37.16667000"
   },
   {
      "name": "Vydropuzhsk",
      "countryCode": "RU",
      "stateCode": "TVE",
      "latitude": "57.36470000",
      "longitude": "34.84287000"
   },
   {
      "name": "Vypolzovo",
      "countryCode": "RU",
      "stateCode": "TVE",
      "latitude": "57.87667000",
      "longitude": "33.69861000"
   },
   {
      "name": "Vyshnevolotskiy Rayon",
      "countryCode": "RU",
      "stateCode": "TVE",
      "latitude": "57.58333000",
      "longitude": "34.58333000"
   },
   {
      "name": "Vyshniy Volochëk",
      "countryCode": "RU",
      "stateCode": "TVE",
      "latitude": "57.59125000",
      "longitude": "34.56453000"
   },
   {
      "name": "Zapadnaya Dvina",
      "countryCode": "RU",
      "stateCode": "TVE",
      "latitude": "56.25901000",
      "longitude": "32.07454000"
   },
   {
      "name": "Zavidovo",
      "countryCode": "RU",
      "stateCode": "TVE",
      "latitude": "56.53333000",
      "longitude": "36.53333000"
   },
   {
      "name": "Zharkovskiy",
      "countryCode": "RU",
      "stateCode": "TVE",
      "latitude": "55.84900000",
      "longitude": "32.26970000"
   },
   {
      "name": "Zubtsov",
      "countryCode": "RU",
      "stateCode": "TVE",
      "latitude": "56.17533000",
      "longitude": "34.58935000"
   },
   {
      "name": "Zubtsovskiy Rayon",
      "countryCode": "RU",
      "stateCode": "TVE",
      "latitude": "56.16667000",
      "longitude": "34.58333000"
   }
]