[
   {
      "name": "Ampang",
      "countryCode": "MY",
      "stateCode": "10",
      "latitude": "3.15000000",
      "longitude": "101.76667000"
   },
   {
      "name": "Bagan Pulau Ketam",
      "countryCode": "MY",
      "stateCode": "10",
      "latitude": "3.01667000",
      "longitude": "101.26667000"
   },
   {
      "name": "Banting",
      "countryCode": "MY",
      "stateCode": "10",
      "latitude": "2.81360000",
      "longitude": "101.50185000"
   },
   {
      "name": "Batang Berjuntai",
      "countryCode": "MY",
      "stateCode": "10",
      "latitude": "3.38333000",
      "longitude": "101.41667000"
   },
   {
      "name": "Batu Arang",
      "countryCode": "MY",
      "stateCode": "10",
      "latitude": "3.31667000",
      "longitude": "101.46667000"
   },
   {
      "name": "Jenjarum",
      "countryCode": "MY",
      "stateCode": "10",
      "latitude": "2.87240000",
      "longitude": "101.49484000"
   },
   {
      "name": "Kampong Baharu Balakong",
      "countryCode": "MY",
      "stateCode": "10",
      "latitude": "3.03333000",
      "longitude": "101.75000000"
   },
   {
      "name": "Kampung Baru Subang",
      "countryCode": "MY",
      "stateCode": "10",
      "latitude": "3.15000000",
      "longitude": "101.53333000"
   },
   {
      "name": "Kampung Tanjung Karang",
      "countryCode": "MY",
      "stateCode": "10",
      "latitude": "3.42420000",
      "longitude": "101.18490000"
   },
   {
      "name": "Klang",
      "countryCode": "MY",
      "stateCode": "10",
      "latitude": "3.03667000",
      "longitude": "101.44333000"
   },
   {
      "name": "Kuala Selangor",
      "countryCode": "MY",
      "stateCode": "10",
      "latitude": "3.35000000",
      "longitude": "101.25000000"
   },
   {
      "name": "Kuang",
      "countryCode": "MY",
      "stateCode": "10",
      "latitude": "3.25940000",
      "longitude": "101.55410000"
   },
   {
      "name": "Ladang Seri Kundang",
      "countryCode": "MY",
      "stateCode": "10",
      "latitude": "3.28560000",
      "longitude": "101.51900000"
   },
   {
      "name": "Pelabuhan Klang",
      "countryCode": "MY",
      "stateCode": "10",
      "latitude": "2.99959000",
      "longitude": "101.39287000"
   },
   {
      "name": "Petaling Jaya",
      "countryCode": "MY",
      "stateCode": "10",
      "latitude": "3.10726000",
      "longitude": "101.60671000"
   },
   {
      "name": "Putra Heights",
      "countryCode": "MY",
      "stateCode": "10",
      "latitude": "2.99361000",
      "longitude": "101.57255000"
   },
   {
      "name": "Rawang",
      "countryCode": "MY",
      "stateCode": "10",
      "latitude": "3.32130000",
      "longitude": "101.57670000"
   },
   {
      "name": "Semenyih",
      "countryCode": "MY",
      "stateCode": "10",
      "latitude": "2.95160000",
      "longitude": "101.84300000"
   },
   {
      "name": "Serendah",
      "countryCode": "MY",
      "stateCode": "10",
      "latitude": "3.36460000",
      "longitude": "101.60410000"
   },
   {
      "name": "Shah Alam",
      "countryCode": "MY",
      "stateCode": "10",
      "latitude": "3.08507000",
      "longitude": "101.53281000"
   },
   {
      "name": "Subang Jaya",
      "countryCode": "MY",
      "stateCode": "10",
      "latitude": "3.04384000",
      "longitude": "101.58062000"
   },
   {
      "name": "Sungai Besar",
      "countryCode": "MY",
      "stateCode": "10",
      "latitude": "3.67460000",
      "longitude": "100.98670000"
   },
   {
      "name": "Sungai Pelek New Village",
      "countryCode": "MY",
      "stateCode": "10",
      "latitude": "2.65000000",
      "longitude": "101.70000000"
   },
   {
      "name": "Tanjung Sepat",
      "countryCode": "MY",
      "stateCode": "10",
      "latitude": "2.65790000",
      "longitude": "101.56290000"
   }
]