[
   {
      "name": "Aïn Smara",
      "countryCode": "DZ",
      "stateCode": "25",
      "latitude": "36.26740000",
      "longitude": "6.50135000"
   },
   {
      "name": "Constantine",
      "countryCode": "DZ",
      "stateCode": "25",
      "latitude": "36.36500000",
      "longitude": "6.61472000"
   },
   {
      "name": "Didouche Mourad",
      "countryCode": "DZ",
      "stateCode": "25",
      "latitude": "36.45250000",
      "longitude": "6.63639000"
   },
   {
      "name": "El Khroub",
      "countryCode": "DZ",
      "stateCode": "25",
      "latitude": "36.26333000",
      "longitude": "6.69361000"
   },
   {
      "name": "Hamma Bouziane",
      "countryCode": "DZ",
      "stateCode": "25",
      "latitude": "36.41205000",
      "longitude": "6.59603000"
   },
   {
      "name": "’Aïn Abid",
      "countryCode": "DZ",
      "stateCode": "25",
      "latitude": "36.23194000",
      "longitude": "6.94333000"
   }
]