[
   {
      "name": "Abbesbüttel",
      "countryCode": "DE",
      "stateCode": "NI",
      "latitude": "52.35233000",
      "longitude": "10.55649000"
   },
   {
      "name": "Achim",
      "countryCode": "DE",
      "stateCode": "NI",
      "latitude": "53.01416000",
      "longitude": "9.02630000"
   },
   {
      "name": "Adelebsen",
      "countryCode": "DE",
      "stateCode": "NI",
      "latitude": "51.58272000",
      "longitude": "9.75461000"
   },
   {
      "name": "Adelheidsdorf",
      "countryCode": "DE",
      "stateCode": "NI",
      "latitude": "52.56404000",
      "longitude": "10.06039000"
   },
   {
      "name": "Adenbüttel",
      "countryCode": "DE",
      "stateCode": "NI",
      "latitude": "52.37984000",
      "longitude": "10.45079000"
   },
   {
      "name": "Adendorf",
      "countryCode": "DE",
      "stateCode": "NI",
      "latitude": "53.28189000",
      "longitude": "10.43787000"
   },
   {
      "name": "Adenstedt",
      "countryCode": "DE",
      "stateCode": "NI",
      "latitude": "51.99852000",
      "longitude": "9.93516000"
   },
   {
      "name": "Aerzen",
      "countryCode": "DE",
      "stateCode": "NI",
      "latitude": "52.04953000",
      "longitude": "9.25856000"
   },
   {
      "name": "Agathenburg",
      "countryCode": "DE",
      "stateCode": "NI",
      "latitude": "53.56065000",
      "longitude": "9.53180000"
   },
   {
      "name": "Ahausen",
      "countryCode": "DE",
      "stateCode": "NI",
      "latitude": "53.06667000",
      "longitude": "9.31667000"
   },
   {
      "name": "Ahlden",
      "countryCode": "DE",
      "stateCode": "NI",
      "latitude": "52.75968000",
      "longitude": "9.55115000"
   },
   {
      "name": "Ahlerstedt",
      "countryCode": "DE",
      "stateCode": "NI",
      "latitude": "53.40000000",
      "longitude": "9.45000000"
   },
   {
      "name": "Ahnsbeck",
      "countryCode": "DE",
      "stateCode": "NI",
      "latitude": "52.61071000",
      "longitude": "10.28534000"
   },
   {
      "name": "Ahnsen",
      "countryCode": "DE",
      "stateCode": "NI",
      "latitude": "52.25466000",
      "longitude": "9.10089000"
   },
   {
      "name": "Ahsen-Oetzen",
      "countryCode": "DE",
      "stateCode": "NI",
      "latitude": "52.95868000",
      "longitude": "9.07933000"
   },
   {
      "name": "Alfeld",
      "countryCode": "DE",
      "stateCode": "NI",
      "latitude": "51.98382000",
      "longitude": "9.81989000"
   },
   {
      "name": "Alfhausen",
      "countryCode": "DE",
      "stateCode": "NI",
      "latitude": "52.50000000",
      "longitude": "7.95000000"
   },
   {
      "name": "Algermissen",
      "countryCode": "DE",
      "stateCode": "NI",
      "latitude": "52.25332000",
      "longitude": "9.96915000"
   },
   {
      "name": "Alt Wallmoden",
      "countryCode": "DE",
      "stateCode": "NI",
      "latitude": "52.01933000",
      "longitude": "10.30294000"
   },
   {
      "name": "Altenau",
      "countryCode": "DE",
      "stateCode": "NI",
      "latitude": "51.80113000",
      "longitude": "10.44148000"
   },
   {
      "name": "Altenmedingen",
      "countryCode": "DE",
      "stateCode": "NI",
      "latitude": "53.13050000",
      "longitude": "10.60163000"
   },
   {
      "name": "Amelinghausen",
      "countryCode": "DE",
      "stateCode": "NI",
      "latitude": "53.12397000",
      "longitude": "10.21274000"
   },
   {
      "name": "Ankum",
      "countryCode": "DE",
      "stateCode": "NI",
      "latitude": "52.55000000",
      "longitude": "7.88333000"
   },
   {
      "name": "Apelern",
      "countryCode": "DE",
      "stateCode": "NI",
      "latitude": "52.28979000",
      "longitude": "9.33580000"
   },
   {
      "name": "Apen",
      "countryCode": "DE",
      "stateCode": "NI",
      "latitude": "53.21667000",
      "longitude": "7.80000000"
   },
   {
      "name": "Apensen",
      "countryCode": "DE",
      "stateCode": "NI",
      "latitude": "53.43333000",
      "longitude": "9.61667000"
   },
   {
      "name": "Appel",
      "countryCode": "DE",
      "stateCode": "NI",
      "latitude": "53.39060000",
      "longitude": "9.74565000"
   },
   {
      "name": "Arpke",
      "countryCode": "DE",
      "stateCode": "NI",
      "latitude": "52.38597000",
      "longitude": "10.10047000"
   },
   {
      "name": "Artlenburg",
      "countryCode": "DE",
      "stateCode": "NI",
      "latitude": "53.37182000",
      "longitude": "10.48793000"
   },
   {
      "name": "Asendorf",
      "countryCode": "DE",
      "stateCode": "NI",
      "latitude": "52.77219000",
      "longitude": "9.00489000"
   },
   {
      "name": "Auf der Horst",
      "countryCode": "DE",
      "stateCode": "NI",
      "latitude": "52.41943000",
      "longitude": "9.60248000"
   },
   {
      "name": "Auhagen",
      "countryCode": "DE",
      "stateCode": "NI",
      "latitude": "52.39828000",
      "longitude": "9.29194000"
   },
   {
      "name": "Aurich",
      "countryCode": "DE",
      "stateCode": "NI",
      "latitude": "53.46919000",
      "longitude": "7.48232000"
   },
   {
      "name": "Axstedt",
      "countryCode": "DE",
      "stateCode": "NI",
      "latitude": "53.35466000",
      "longitude": "8.77485000"
   },
   {
      "name": "Bad Bentheim",
      "countryCode": "DE",
      "stateCode": "NI",
      "latitude": "52.30066000",
      "longitude": "7.15763000"
   },
   {
      "name": "Bad Bevensen",
      "countryCode": "DE",
      "stateCode": "NI",
      "latitude": "53.07923000",
      "longitude": "10.58129000"
   },
   {
      "name": "Bad Eilsen",
      "countryCode": "DE",
      "stateCode": "NI",
      "latitude": "52.24215000",
      "longitude": "9.09822000"
   },
   {
      "name": "Bad Essen",
      "countryCode": "DE",
      "stateCode": "NI",
      "latitude": "52.31667000",
      "longitude": "8.33333000"
   },
   {
      "name": "Bad Fallingbostel",
      "countryCode": "DE",
      "stateCode": "NI",
      "latitude": "52.86641000",
      "longitude": "9.69558000"
   },
   {
      "name": "Bad Gandersheim",
      "countryCode": "DE",
      "stateCode": "NI",
      "latitude": "51.87167000",
      "longitude": "10.02537000"
   },
   {
      "name": "Bad Grund",
      "countryCode": "DE",
      "stateCode": "NI",
      "latitude": "51.81021000",
      "longitude": "10.23694000"
   },
   {
      "name": "Bad Harzburg",
      "countryCode": "DE",
      "stateCode": "NI",
      "latitude": "51.88268000",
      "longitude": "10.56157000"
   },
   {
      "name": "Bad Iburg",
      "countryCode": "DE",
      "stateCode": "NI",
      "latitude": "52.15490000",
      "longitude": "8.04216000"
   },
   {
      "name": "Bad Laer",
      "countryCode": "DE",
      "stateCode": "NI",
      "latitude": "52.10000000",
      "longitude": "8.08333000"
   },
   {
      "name": "Bad Lauterberg im Harz",
      "countryCode": "DE",
      "stateCode": "NI",
      "latitude": "51.63272000",
      "longitude": "10.47031000"
   },
   {
      "name": "Bad Münder am Deister",
      "countryCode": "DE",
      "stateCode": "NI",
      "latitude": "52.19551000",
      "longitude": "9.46421000"
   },
   {
      "name": "Bad Nenndorf",
      "countryCode": "DE",
      "stateCode": "NI",
      "latitude": "52.33703000",
      "longitude": "9.37904000"
   },
   {
      "name": "Bad Pyrmont",
      "countryCode": "DE",
      "stateCode": "NI",
      "latitude": "51.98589000",
      "longitude": "9.25246000"
   },
   {
      "name": "Bad Rothenfelde",
      "countryCode": "DE",
      "stateCode": "NI",
      "latitude": "52.11667000",
      "longitude": "8.16667000"
   },
   {
      "name": "Bad Sachsa",
      "countryCode": "DE",
      "stateCode": "NI",
      "latitude": "51.59499000",
      "longitude": "10.55546000"
   },
   {
      "name": "Bad Salzdetfurth",
      "countryCode": "DE",
      "stateCode": "NI",
      "latitude": "52.05777000",
      "longitude": "10.00580000"
   },
   {
      "name": "Bad Zwischenahn",
      "countryCode": "DE",
      "stateCode": "NI",
      "latitude": "53.18333000",
      "longitude": "8.00000000"
   },
   {
      "name": "Badbergen",
      "countryCode": "DE",
      "stateCode": "NI",
      "latitude": "52.63333000",
      "longitude": "7.98333000"
   },
   {
      "name": "Baddeckenstedt",
      "countryCode": "DE",
      "stateCode": "NI",
      "latitude": "52.08333000",
      "longitude": "10.23333000"
   },
   {
      "name": "Badenhausen",
      "countryCode": "DE",
      "stateCode": "NI",
      "latitude": "51.76996000",
      "longitude": "10.20493000"
   },
   {
      "name": "Bahrdorf",
      "countryCode": "DE",
      "stateCode": "NI",
      "latitude": "52.38587000",
      "longitude": "11.00040000"
   },
   {
      "name": "Bahrenborstel",
      "countryCode": "DE",
      "stateCode": "NI",
      "latitude": "52.57009000",
      "longitude": "8.80863000"
   },
   {
      "name": "Bakum",
      "countryCode": "DE",
      "stateCode": "NI",
      "latitude": "52.74118000",
      "longitude": "8.19546000"
   },
   {
      "name": "Balge",
      "countryCode": "DE",
      "stateCode": "NI",
      "latitude": "52.71667000",
      "longitude": "9.16667000"
   },
   {
      "name": "Balje",
      "countryCode": "DE",
      "stateCode": "NI",
      "latitude": "53.83333000",
      "longitude": "9.13333000"
   },
   {
      "name": "Banteln",
      "countryCode": "DE",
      "stateCode": "NI",
      "latitude": "52.06667000",
      "longitude": "9.75000000"
   },
   {
      "name": "Bardowick",
      "countryCode": "DE",
      "stateCode": "NI",
      "latitude": "53.29354000",
      "longitude": "10.38811000"
   },
   {
      "name": "Barenburg",
      "countryCode": "DE",
      "stateCode": "NI",
      "latitude": "52.61953000",
      "longitude": "8.79999000"
   },
   {
      "name": "Barendorf",
      "countryCode": "DE",
      "stateCode": "NI",
      "latitude": "53.22896000",
      "longitude": "10.52158000"
   },
   {
      "name": "Bargstedt",
      "countryCode": "DE",
      "stateCode": "NI",
      "latitude": "53.46667000",
      "longitude": "9.45000000"
   },
   {
      "name": "Barnstorf",
      "countryCode": "DE",
      "stateCode": "NI",
      "latitude": "52.71009000",
      "longitude": "8.50256000"
   },
   {
      "name": "Barsinghausen",
      "countryCode": "DE",
      "stateCode": "NI",
      "latitude": "52.30000000",
      "longitude": "9.45000000"
   },
   {
      "name": "Barum",
      "countryCode": "DE",
      "stateCode": "NI",
      "latitude": "53.35000000",
      "longitude": "10.40000000"
   },
   {
      "name": "Barver",
      "countryCode": "DE",
      "stateCode": "NI",
      "latitude": "52.62066000",
      "longitude": "8.59251000"
   },
   {
      "name": "Barwedel",
      "countryCode": "DE",
      "stateCode": "NI",
      "latitude": "52.52192000",
      "longitude": "10.77488000"
   },
   {
      "name": "Barßel",
      "countryCode": "DE",
      "stateCode": "NI",
      "latitude": "53.16981000",
      "longitude": "7.75012000"
   },
   {
      "name": "Basdahl",
      "countryCode": "DE",
      "stateCode": "NI",
      "latitude": "53.44502000",
      "longitude": "9.00025000"
   },
   {
      "name": "Bassum",
      "countryCode": "DE",
      "stateCode": "NI",
      "latitude": "52.85059000",
      "longitude": "8.72791000"
   },
   {
      "name": "Bawinkel",
      "countryCode": "DE",
      "stateCode": "NI",
      "latitude": "52.60000000",
      "longitude": "7.40000000"
   },
   {
      "name": "Beckdorf",
      "countryCode": "DE",
      "stateCode": "NI",
      "latitude": "53.41667000",
      "longitude": "9.61667000"
   },
   {
      "name": "Beckedorf",
      "countryCode": "DE",
      "stateCode": "NI",
      "latitude": "52.35000000",
      "longitude": "9.31667000"
   },
   {
      "name": "Beedenbostel",
      "countryCode": "DE",
      "stateCode": "NI",
      "latitude": "52.64288000",
      "longitude": "10.25907000"
   },
   {
      "name": "Beesten",
      "countryCode": "DE",
      "stateCode": "NI",
      "latitude": "52.43333000",
      "longitude": "7.50000000"
   },
   {
      "name": "Bei der Höhne",
      "countryCode": "DE",
      "stateCode": "NI",
      "latitude": "53.51351000",
      "longitude": "9.11191000"
   },
   {
      "name": "Belm",
      "countryCode": "DE",
      "stateCode": "NI",
      "latitude": "52.30000000",
      "longitude": "8.13333000"
   },
   {
      "name": "Bendestorf",
      "countryCode": "DE",
      "stateCode": "NI",
      "latitude": "53.33583000",
      "longitude": "9.96154000"
   },
   {
      "name": "Berge",
      "countryCode": "DE",
      "stateCode": "NI",
      "latitude": "52.62326000",
      "longitude": "7.74550000"
   },
   {
      "name": "Bergen",
      "countryCode": "DE",
      "stateCode": "NI",
      "latitude": "52.80837000",
      "longitude": "9.96374000"
   },
   {
      "name": "Bergen an der Dumme",
      "countryCode": "DE",
      "stateCode": "NI",
      "latitude": "52.89109000",
      "longitude": "10.95629000"
   },
   {
      "name": "Bersenbrück",
      "countryCode": "DE",
      "stateCode": "NI",
      "latitude": "52.55160000",
      "longitude": "7.94836000"
   },
   {
      "name": "Berumbur",
      "countryCode": "DE",
      "stateCode": "NI",
      "latitude": "53.60000000",
      "longitude": "7.31667000"
   },
   {
      "name": "Betheln",
      "countryCode": "DE",
      "stateCode": "NI",
      "latitude": "52.11431000",
      "longitude": "9.79397000"
   },
   {
      "name": "Betzendorf",
      "countryCode": "DE",
      "stateCode": "NI",
      "latitude": "53.13750000",
      "longitude": "10.31273000"
   },
   {
      "name": "Bevenrode",
      "countryCode": "DE",
      "stateCode": "NI",
      "latitude": "52.34026000",
      "longitude": "10.57743000"
   },
   {
      "name": "Bevern",
      "countryCode": "DE",
      "stateCode": "NI",
      "latitude": "51.85826000",
      "longitude": "9.49408000"
   },
   {
      "name": "Beverstedt",
      "countryCode": "DE",
      "stateCode": "NI",
      "latitude": "53.43413000",
      "longitude": "8.81915000"
   },
   {
      "name": "Bienenbüttel",
      "countryCode": "DE",
      "stateCode": "NI",
      "latitude": "53.14157000",
      "longitude": "10.48679000"
   },
   {
      "name": "Bilshausen",
      "countryCode": "DE",
      "stateCode": "NI",
      "latitude": "51.62974000",
      "longitude": "10.15859000"
   },
   {
      "name": "Binnen",
      "countryCode": "DE",
      "stateCode": "NI",
      "latitude": "52.61667000",
      "longitude": "9.13333000"
   },
   {
      "name": "Bippen",
      "countryCode": "DE",
      "stateCode": "NI",
      "latitude": "52.58333000",
      "longitude": "7.73333000"
   },
   {
      "name": "Bispingen",
      "countryCode": "DE",
      "stateCode": "NI",
      "latitude": "53.08312000",
      "longitude": "9.99772000"
   },
   {
      "name": "Bissendorf",
      "countryCode": "DE",
      "stateCode": "NI",
      "latitude": "52.23333000",
      "longitude": "8.16667000"
   },
   {
      "name": "Bleckede",
      "countryCode": "DE",
      "stateCode": "NI",
      "latitude": "53.28972000",
      "longitude": "10.73372000"
   },
   {
      "name": "Blender",
      "countryCode": "DE",
      "stateCode": "NI",
      "latitude": "52.91667000",
      "longitude": "9.13333000"
   },
   {
      "name": "Bliedersdorf",
      "countryCode": "DE",
      "stateCode": "NI",
      "latitude": "53.48333000",
      "longitude": "9.56667000"
   },
   {
      "name": "Blomberg",
      "countryCode": "DE",
      "stateCode": "NI",
      "latitude": "53.57678000",
      "longitude": "7.55824000"
   },
   {
      "name": "Bockenem",
      "countryCode": "DE",
      "stateCode": "NI",
      "latitude": "52.00993000",
      "longitude": "10.13197000"
   },
   {
      "name": "Bockhorn",
      "countryCode": "DE",
      "stateCode": "NI",
      "latitude": "53.40000000",
      "longitude": "8.01667000"
   },
   {
      "name": "Bockhorst",
      "countryCode": "DE",
      "stateCode": "NI",
      "latitude": "53.03296000",
      "longitude": "7.57576000"
   },
   {
      "name": "Bodenfelde",
      "countryCode": "DE",
      "stateCode": "NI",
      "latitude": "51.64044000",
      "longitude": "9.55569000"
   },
   {
      "name": "Bodenwerder",
      "countryCode": "DE",
      "stateCode": "NI",
      "latitude": "51.97156000",
      "longitude": "9.51931000"
   },
   {
      "name": "Boffzen",
      "countryCode": "DE",
      "stateCode": "NI",
      "latitude": "51.75000000",
      "longitude": "9.38333000"
   },
   {
      "name": "Bohmte",
      "countryCode": "DE",
      "stateCode": "NI",
      "latitude": "52.36667000",
      "longitude": "8.31667000"
   },
   {
      "name": "Bokel",
      "countryCode": "DE",
      "stateCode": "NI",
      "latitude": "53.39326000",
      "longitude": "8.76803000"
   },
   {
      "name": "Bomlitz",
      "countryCode": "DE",
      "stateCode": "NI",
      "latitude": "52.90000000",
      "longitude": "9.65000000"
   },
   {
      "name": "Borkum",
      "countryCode": "DE",
      "stateCode": "NI",
      "latitude": "53.58094000",
      "longitude": "6.69153000"
   },
   {
      "name": "Borstel",
      "countryCode": "DE",
      "stateCode": "NI",
      "latitude": "52.67034000",
      "longitude": "8.96896000"
   },
   {
      "name": "Bothel",
      "countryCode": "DE",
      "stateCode": "NI",
      "latitude": "53.06667000",
      "longitude": "9.50000000"
   },
   {
      "name": "Bovenden",
      "countryCode": "DE",
      "stateCode": "NI",
      "latitude": "51.58836000",
      "longitude": "9.92220000"
   },
   {
      "name": "Brackel",
      "countryCode": "DE",
      "stateCode": "NI",
      "latitude": "53.29974000",
      "longitude": "10.04860000"
   },
   {
      "name": "Brake (Unterweser)",
      "countryCode": "DE",
      "stateCode": "NI",
      "latitude": "53.33333000",
      "longitude": "8.48333000"
   },
   {
      "name": "Bramsche",
      "countryCode": "DE",
      "stateCode": "NI",
      "latitude": "52.40881000",
      "longitude": "7.97288000"
   },
   {
      "name": "Bramstedt",
      "countryCode": "DE",
      "stateCode": "NI",
      "latitude": "53.36603000",
      "longitude": "8.69005000"
   },
   {
      "name": "Braunlage",
      "countryCode": "DE",
      "stateCode": "NI",
      "latitude": "51.72651000",
      "longitude": "10.61090000"
   },
   {
      "name": "Braunschweig",
      "countryCode": "DE",
      "stateCode": "NI",
      "latitude": "52.26594000",
      "longitude": "10.52673000"
   },
   {
      "name": "Breddorf",
      "countryCode": "DE",
      "stateCode": "NI",
      "latitude": "53.29262000",
      "longitude": "9.08089000"
   },
   {
      "name": "Bremervörde",
      "countryCode": "DE",
      "stateCode": "NI",
      "latitude": "53.48458000",
      "longitude": "9.14306000"
   },
   {
      "name": "Brietlingen",
      "countryCode": "DE",
      "stateCode": "NI",
      "latitude": "53.33333000",
      "longitude": "10.45000000"
   },
   {
      "name": "Brockel",
      "countryCode": "DE",
      "stateCode": "NI",
      "latitude": "53.10000000",
      "longitude": "9.51667000"
   },
   {
      "name": "Brockum",
      "countryCode": "DE",
      "stateCode": "NI",
      "latitude": "52.46667000",
      "longitude": "8.41667000"
   },
   {
      "name": "Brome",
      "countryCode": "DE",
      "stateCode": "NI",
      "latitude": "52.60019000",
      "longitude": "10.93754000"
   },
   {
      "name": "Bruchhausen-Vilsen",
      "countryCode": "DE",
      "stateCode": "NI",
      "latitude": "52.82931000",
      "longitude": "8.99066000"
   },
   {
      "name": "Brüggen",
      "countryCode": "DE",
      "stateCode": "NI",
      "latitude": "52.04250000",
      "longitude": "9.77450000"
   },
   {
      "name": "Buchholz",
      "countryCode": "DE",
      "stateCode": "NI",
      "latitude": "53.00884000",
      "longitude": "9.56287000"
   },
   {
      "name": "Buchholz in der Nordheide",
      "countryCode": "DE",
      "stateCode": "NI",
      "latitude": "53.32641000",
      "longitude": "9.86812000"
   },
   {
      "name": "Bunde",
      "countryCode": "DE",
      "stateCode": "NI",
      "latitude": "53.18333000",
      "longitude": "7.26667000"
   },
   {
      "name": "Burgdorf",
      "countryCode": "DE",
      "stateCode": "NI",
      "latitude": "52.44628000",
      "longitude": "10.00640000"
   },
   {
      "name": "Butjadingen",
      "countryCode": "DE",
      "stateCode": "NI",
      "latitude": "53.54722000",
      "longitude": "8.33500000"
   },
   {
      "name": "Buxtehude",
      "countryCode": "DE",
      "stateCode": "NI",
      "latitude": "53.46716000",
      "longitude": "9.68636000"
   },
   {
      "name": "Börger",
      "countryCode": "DE",
      "stateCode": "NI",
      "latitude": "52.91211000",
      "longitude": "7.53576000"
   },
   {
      "name": "Börßum",
      "countryCode": "DE",
      "stateCode": "NI",
      "latitude": "52.06921000",
      "longitude": "10.58431000"
   },
   {
      "name": "Bösel",
      "countryCode": "DE",
      "stateCode": "NI",
      "latitude": "53.00000000",
      "longitude": "7.95000000"
   },
   {
      "name": "Bötersen",
      "countryCode": "DE",
      "stateCode": "NI",
      "latitude": "53.13333000",
      "longitude": "9.31667000"
   },
   {
      "name": "Bückeburg",
      "countryCode": "DE",
      "stateCode": "NI",
      "latitude": "52.26065000",
      "longitude": "9.04939000"
   },
   {
      "name": "Bücken",
      "countryCode": "DE",
      "stateCode": "NI",
      "latitude": "52.77876000",
      "longitude": "9.13371000"
   },
   {
      "name": "Büddenstedt",
      "countryCode": "DE",
      "stateCode": "NI",
      "latitude": "52.17035000",
      "longitude": "11.01877000"
   },
   {
      "name": "Bühren",
      "countryCode": "DE",
      "stateCode": "NI",
      "latitude": "52.80629000",
      "longitude": "8.21880000"
   },
   {
      "name": "Cadenberge",
      "countryCode": "DE",
      "stateCode": "NI",
      "latitude": "53.76926000",
      "longitude": "9.06269000"
   },
   {
      "name": "Calberlah",
      "countryCode": "DE",
      "stateCode": "NI",
      "latitude": "52.42074000",
      "longitude": "10.62326000"
   },
   {
      "name": "Cappeln",
      "countryCode": "DE",
      "stateCode": "NI",
      "latitude": "52.81085000",
      "longitude": "8.11474000"
   },
   {
      "name": "Celle",
      "countryCode": "DE",
      "stateCode": "NI",
      "latitude": "52.62264000",
      "longitude": "10.08047000"
   },
   {
      "name": "Clausthal-Zellerfeld",
      "countryCode": "DE",
      "stateCode": "NI",
      "latitude": "51.80949000",
      "longitude": "10.33821000"
   },
   {
      "name": "Clenze",
      "countryCode": "DE",
      "stateCode": "NI",
      "latitude": "52.93729000",
      "longitude": "10.95750000"
   },
   {
      "name": "Cloppenburg",
      "countryCode": "DE",
      "stateCode": "NI",
      "latitude": "52.84754000",
      "longitude": "8.04500000"
   },
   {
      "name": "Coppenbrügge",
      "countryCode": "DE",
      "stateCode": "NI",
      "latitude": "52.11852000",
      "longitude": "9.54870000"
   },
   {
      "name": "Cremlingen",
      "countryCode": "DE",
      "stateCode": "NI",
      "latitude": "52.25000000",
      "longitude": "10.65000000"
   },
   {
      "name": "Cuxhaven",
      "countryCode": "DE",
      "stateCode": "NI",
      "latitude": "53.87176000",
      "longitude": "8.69087000"
   },
   {
      "name": "Dahlenburg",
      "countryCode": "DE",
      "stateCode": "NI",
      "latitude": "53.18767000",
      "longitude": "10.73650000"
   },
   {
      "name": "Damme",
      "countryCode": "DE",
      "stateCode": "NI",
      "latitude": "52.52157000",
      "longitude": "8.19793000"
   },
   {
      "name": "Danndorf",
      "countryCode": "DE",
      "stateCode": "NI",
      "latitude": "52.42472000",
      "longitude": "10.91286000"
   },
   {
      "name": "Dannenberg",
      "countryCode": "DE",
      "stateCode": "NI",
      "latitude": "53.09670000",
      "longitude": "11.09001000"
   },
   {
      "name": "Dassel",
      "countryCode": "DE",
      "stateCode": "NI",
      "latitude": "51.80179000",
      "longitude": "9.68904000"
   },
   {
      "name": "Dedelstorf",
      "countryCode": "DE",
      "stateCode": "NI",
      "latitude": "52.70000000",
      "longitude": "10.50000000"
   },
   {
      "name": "Deensen",
      "countryCode": "DE",
      "stateCode": "NI",
      "latitude": "51.86053000",
      "longitude": "9.59322000"
   },
   {
      "name": "Deinste",
      "countryCode": "DE",
      "stateCode": "NI",
      "latitude": "53.52903000",
      "longitude": "9.44376000"
   },
   {
      "name": "Delligsen",
      "countryCode": "DE",
      "stateCode": "NI",
      "latitude": "51.94120000",
      "longitude": "9.80272000"
   },
   {
      "name": "Delmenhorst",
      "countryCode": "DE",
      "stateCode": "NI",
      "latitude": "53.05110000",
      "longitude": "8.63091000"
   },
   {
      "name": "Dersum",
      "countryCode": "DE",
      "stateCode": "NI",
      "latitude": "52.96112000",
      "longitude": "7.27394000"
   },
   {
      "name": "Destedt",
      "countryCode": "DE",
      "stateCode": "NI",
      "latitude": "52.23801000",
      "longitude": "10.71063000"
   },
   {
      "name": "Detern",
      "countryCode": "DE",
      "stateCode": "NI",
      "latitude": "53.20927000",
      "longitude": "7.67395000"
   },
   {
      "name": "Detmerode",
      "countryCode": "DE",
      "stateCode": "NI",
      "latitude": "52.39016000",
      "longitude": "10.74480000"
   },
   {
      "name": "Dettum",
      "countryCode": "DE",
      "stateCode": "NI",
      "latitude": "52.17246000",
      "longitude": "10.66807000"
   },
   {
      "name": "Deutsch Evern",
      "countryCode": "DE",
      "stateCode": "NI",
      "latitude": "53.20000000",
      "longitude": "10.43333000"
   },
   {
      "name": "Didderse",
      "countryCode": "DE",
      "stateCode": "NI",
      "latitude": "52.38042000",
      "longitude": "10.40294000"
   },
   {
      "name": "Diekholzen",
      "countryCode": "DE",
      "stateCode": "NI",
      "latitude": "52.09617000",
      "longitude": "9.91945000"
   },
   {
      "name": "Diepholz",
      "countryCode": "DE",
      "stateCode": "NI",
      "latitude": "52.60783000",
      "longitude": "8.37005000"
   },
   {
      "name": "Dinklage",
      "countryCode": "DE",
      "stateCode": "NI",
      "latitude": "52.66223000",
      "longitude": "8.12440000"
   },
   {
      "name": "Dissen",
      "countryCode": "DE",
      "stateCode": "NI",
      "latitude": "52.11591000",
      "longitude": "8.19956000"
   },
   {
      "name": "Dohren",
      "countryCode": "DE",
      "stateCode": "NI",
      "latitude": "52.65000000",
      "longitude": "7.58333000"
   },
   {
      "name": "Dollbergen",
      "countryCode": "DE",
      "stateCode": "NI",
      "latitude": "52.40671000",
      "longitude": "10.18098000"
   },
   {
      "name": "Dollern",
      "countryCode": "DE",
      "stateCode": "NI",
      "latitude": "53.53333000",
      "longitude": "9.55000000"
   },
   {
      "name": "Dornum",
      "countryCode": "DE",
      "stateCode": "NI",
      "latitude": "53.64648000",
      "longitude": "7.42957000"
   },
   {
      "name": "Dorum",
      "countryCode": "DE",
      "stateCode": "NI",
      "latitude": "53.68790000",
      "longitude": "8.56734000"
   },
   {
      "name": "Drage",
      "countryCode": "DE",
      "stateCode": "NI",
      "latitude": "53.41667000",
      "longitude": "10.26667000"
   },
   {
      "name": "Drakenburg",
      "countryCode": "DE",
      "stateCode": "NI",
      "latitude": "52.68689000",
      "longitude": "9.21083000"
   },
   {
      "name": "Drangstedt",
      "countryCode": "DE",
      "stateCode": "NI",
      "latitude": "53.61359000",
      "longitude": "8.75576000"
   },
   {
      "name": "Dransfeld",
      "countryCode": "DE",
      "stateCode": "NI",
      "latitude": "51.49910000",
      "longitude": "9.76179000"
   },
   {
      "name": "Drentwede",
      "countryCode": "DE",
      "stateCode": "NI",
      "latitude": "52.74388000",
      "longitude": "8.56504000"
   },
   {
      "name": "Drochtersen",
      "countryCode": "DE",
      "stateCode": "NI",
      "latitude": "53.71015000",
      "longitude": "9.38463000"
   },
   {
      "name": "Duderstadt",
      "countryCode": "DE",
      "stateCode": "NI",
      "latitude": "51.51312000",
      "longitude": "10.25951000"
   },
   {
      "name": "Duingen",
      "countryCode": "DE",
      "stateCode": "NI",
      "latitude": "52.00449000",
      "longitude": "9.69578000"
   },
   {
      "name": "Dunum",
      "countryCode": "DE",
      "stateCode": "NI",
      "latitude": "53.60000000",
      "longitude": "7.65000000"
   },
   {
      "name": "Dörpen",
      "countryCode": "DE",
      "stateCode": "NI",
      "latitude": "52.96469000",
      "longitude": "7.32273000"
   },
   {
      "name": "Dörverden",
      "countryCode": "DE",
      "stateCode": "NI",
      "latitude": "52.85000000",
      "longitude": "9.23333000"
   },
   {
      "name": "Dötlingen",
      "countryCode": "DE",
      "stateCode": "NI",
      "latitude": "52.93333000",
      "longitude": "8.38333000"
   },
   {
      "name": "Dünsen",
      "countryCode": "DE",
      "stateCode": "NI",
      "latitude": "52.92749000",
      "longitude": "8.64191000"
   },
   {
      "name": "Ebergötzen",
      "countryCode": "DE",
      "stateCode": "NI",
      "latitude": "51.57096000",
      "longitude": "10.10632000"
   },
   {
      "name": "Ebersdorf",
      "countryCode": "DE",
      "stateCode": "NI",
      "latitude": "53.52514000",
      "longitude": "9.04897000"
   },
   {
      "name": "Ebstorf",
      "countryCode": "DE",
      "stateCode": "NI",
      "latitude": "53.02785000",
      "longitude": "10.41839000"
   },
   {
      "name": "Echem",
      "countryCode": "DE",
      "stateCode": "NI",
      "latitude": "53.33333000",
      "longitude": "10.53333000"
   },
   {
      "name": "Edemissen",
      "countryCode": "DE",
      "stateCode": "NI",
      "latitude": "52.38702000",
      "longitude": "10.26140000"
   },
   {
      "name": "Edewecht",
      "countryCode": "DE",
      "stateCode": "NI",
      "latitude": "53.12699000",
      "longitude": "7.98406000"
   },
   {
      "name": "Egestorf",
      "countryCode": "DE",
      "stateCode": "NI",
      "latitude": "52.28568000",
      "longitude": "9.51676000"
   },
   {
      "name": "Eggermühlen",
      "countryCode": "DE",
      "stateCode": "NI",
      "latitude": "52.56667000",
      "longitude": "7.81667000"
   },
   {
      "name": "Ehrenburg",
      "countryCode": "DE",
      "stateCode": "NI",
      "latitude": "52.75000000",
      "longitude": "8.70000000"
   },
   {
      "name": "Eicklingen",
      "countryCode": "DE",
      "stateCode": "NI",
      "latitude": "52.55037000",
      "longitude": "10.18439000"
   },
   {
      "name": "Eime",
      "countryCode": "DE",
      "stateCode": "NI",
      "latitude": "52.07449000",
      "longitude": "9.72118000"
   },
   {
      "name": "Eimen",
      "countryCode": "DE",
      "stateCode": "NI",
      "latitude": "51.88333000",
      "longitude": "9.78333000"
   },
   {
      "name": "Eimke",
      "countryCode": "DE",
      "stateCode": "NI",
      "latitude": "52.96601000",
      "longitude": "10.31324000"
   },
   {
      "name": "Einbeck",
      "countryCode": "DE",
      "stateCode": "NI",
      "latitude": "51.82018000",
      "longitude": "9.86961000"
   },
   {
      "name": "Eisdorf am Harz",
      "countryCode": "DE",
      "stateCode": "NI",
      "latitude": "51.76152000",
      "longitude": "10.17591000"
   },
   {
      "name": "Elbe",
      "countryCode": "DE",
      "stateCode": "NI",
      "latitude": "52.08333000",
      "longitude": "10.28333000"
   },
   {
      "name": "Eldingen",
      "countryCode": "DE",
      "stateCode": "NI",
      "latitude": "52.68333000",
      "longitude": "10.33333000"
   },
   {
      "name": "Elsdorf",
      "countryCode": "DE",
      "stateCode": "NI",
      "latitude": "53.24120000",
      "longitude": "9.35056000"
   },
   {
      "name": "Elsfleth",
      "countryCode": "DE",
      "stateCode": "NI",
      "latitude": "53.23748000",
      "longitude": "8.45664000"
   },
   {
      "name": "Elze",
      "countryCode": "DE",
      "stateCode": "NI",
      "latitude": "52.12263000",
      "longitude": "9.73595000"
   },
   {
      "name": "Embsen",
      "countryCode": "DE",
      "stateCode": "NI",
      "latitude": "53.17606000",
      "longitude": "10.34625000"
   },
   {
      "name": "Emden",
      "countryCode": "DE",
      "stateCode": "NI",
      "latitude": "53.36745000",
      "longitude": "7.20778000"
   },
   {
      "name": "Emlichheim",
      "countryCode": "DE",
      "stateCode": "NI",
      "latitude": "52.61667000",
      "longitude": "6.85000000"
   },
   {
      "name": "Emsbüren",
      "countryCode": "DE",
      "stateCode": "NI",
      "latitude": "52.40000000",
      "longitude": "7.30000000"
   },
   {
      "name": "Emstek",
      "countryCode": "DE",
      "stateCode": "NI",
      "latitude": "52.83333000",
      "longitude": "8.15000000"
   },
   {
      "name": "Emtinghausen",
      "countryCode": "DE",
      "stateCode": "NI",
      "latitude": "52.93333000",
      "longitude": "8.96667000"
   },
   {
      "name": "Engeln",
      "countryCode": "DE",
      "stateCode": "NI",
      "latitude": "52.79363000",
      "longitude": "8.91815000"
   },
   {
      "name": "Erkerode",
      "countryCode": "DE",
      "stateCode": "NI",
      "latitude": "52.20485000",
      "longitude": "10.70982000"
   },
   {
      "name": "Eschede",
      "countryCode": "DE",
      "stateCode": "NI",
      "latitude": "52.73494000",
      "longitude": "10.23540000"
   },
   {
      "name": "Eschershausen",
      "countryCode": "DE",
      "stateCode": "NI",
      "latitude": "51.92664000",
      "longitude": "9.64282000"
   },
   {
      "name": "Esens",
      "countryCode": "DE",
      "stateCode": "NI",
      "latitude": "53.64866000",
      "longitude": "7.61267000"
   },
   {
      "name": "Essel",
      "countryCode": "DE",
      "stateCode": "NI",
      "latitude": "52.69131000",
      "longitude": "9.64141000"
   },
   {
      "name": "Essen",
      "countryCode": "DE",
      "stateCode": "NI",
      "latitude": "52.72258000",
      "longitude": "7.93710000"
   },
   {
      "name": "Esterwegen",
      "countryCode": "DE",
      "stateCode": "NI",
      "latitude": "52.99288000",
      "longitude": "7.63327000"
   },
   {
      "name": "Estorf",
      "countryCode": "DE",
      "stateCode": "NI",
      "latitude": "52.58850000",
      "longitude": "9.14147000"
   },
   {
      "name": "Evessen",
      "countryCode": "DE",
      "stateCode": "NI",
      "latitude": "52.18888000",
      "longitude": "10.71081000"
   },
   {
      "name": "Eydelstedt",
      "countryCode": "DE",
      "stateCode": "NI",
      "latitude": "52.69241000",
      "longitude": "8.54668000"
   },
   {
      "name": "Eyendorf",
      "countryCode": "DE",
      "stateCode": "NI",
      "latitude": "53.20000000",
      "longitude": "10.15000000"
   },
   {
      "name": "Eystrup",
      "countryCode": "DE",
      "stateCode": "NI",
      "latitude": "52.77935000",
      "longitude": "9.21315000"
   },
   {
      "name": "Faßberg",
      "countryCode": "DE",
      "stateCode": "NI",
      "latitude": "52.90000000",
      "longitude": "10.16667000"
   },
   {
      "name": "Fedderwarden",
      "countryCode": "DE",
      "stateCode": "NI",
      "latitude": "53.56142000",
      "longitude": "8.04371000"
   },
   {
      "name": "Filsum",
      "countryCode": "DE",
      "stateCode": "NI",
      "latitude": "53.24213000",
      "longitude": "7.62785000"
   },
   {
      "name": "Fintel",
      "countryCode": "DE",
      "stateCode": "NI",
      "latitude": "53.17188000",
      "longitude": "9.66969000"
   },
   {
      "name": "Flöthe",
      "countryCode": "DE",
      "stateCode": "NI",
      "latitude": "52.08333000",
      "longitude": "10.48333000"
   },
   {
      "name": "Freden",
      "countryCode": "DE",
      "stateCode": "NI",
      "latitude": "51.92771000",
      "longitude": "9.89350000"
   },
   {
      "name": "Freiburg",
      "countryCode": "DE",
      "stateCode": "NI",
      "latitude": "53.82529000",
      "longitude": "9.28803000"
   },
   {
      "name": "Freren",
      "countryCode": "DE",
      "stateCode": "NI",
      "latitude": "52.48700000",
      "longitude": "7.54313000"
   },
   {
      "name": "Friedeburg",
      "countryCode": "DE",
      "stateCode": "NI",
      "latitude": "53.45000000",
      "longitude": "7.83333000"
   },
   {
      "name": "Friedland",
      "countryCode": "DE",
      "stateCode": "NI",
      "latitude": "51.41917000",
      "longitude": "9.91762000"
   },
   {
      "name": "Friesoythe",
      "countryCode": "DE",
      "stateCode": "NI",
      "latitude": "53.02260000",
      "longitude": "7.85764000"
   },
   {
      "name": "Fürstenau",
      "countryCode": "DE",
      "stateCode": "NI",
      "latitude": "52.51667000",
      "longitude": "7.67670000"
   },
   {
      "name": "Fürstenberg",
      "countryCode": "DE",
      "stateCode": "NI",
      "latitude": "51.73333000",
      "longitude": "9.40000000"
   },
   {
      "name": "Ganderkesee",
      "countryCode": "DE",
      "stateCode": "NI",
      "latitude": "53.03333000",
      "longitude": "8.53333000"
   },
   {
      "name": "Garbsen",
      "countryCode": "DE",
      "stateCode": "NI",
      "latitude": "52.41371000",
      "longitude": "9.58990000"
   },
   {
      "name": "Garbsen-Mitte",
      "countryCode": "DE",
      "stateCode": "NI",
      "latitude": "52.42659000",
      "longitude": "9.60383000"
   },
   {
      "name": "Garlstorf",
      "countryCode": "DE",
      "stateCode": "NI",
      "latitude": "53.23728000",
      "longitude": "10.10137000"
   },
   {
      "name": "Garrel",
      "countryCode": "DE",
      "stateCode": "NI",
      "latitude": "52.95000000",
      "longitude": "8.01667000"
   },
   {
      "name": "Garstedt",
      "countryCode": "DE",
      "stateCode": "NI",
      "latitude": "53.28467000",
      "longitude": "10.16137000"
   },
   {
      "name": "Gartow",
      "countryCode": "DE",
      "stateCode": "NI",
      "latitude": "53.02470000",
      "longitude": "11.46200000"
   },
   {
      "name": "Geeste",
      "countryCode": "DE",
      "stateCode": "NI",
      "latitude": "52.60000000",
      "longitude": "7.26667000"
   },
   {
      "name": "Gehrde",
      "countryCode": "DE",
      "stateCode": "NI",
      "latitude": "52.57684000",
      "longitude": "8.00342000"
   },
   {
      "name": "Gehrden",
      "countryCode": "DE",
      "stateCode": "NI",
      "latitude": "52.31362000",
      "longitude": "9.60033000"
   },
   {
      "name": "Gemeinde Friedland",
      "countryCode": "DE",
      "stateCode": "NI",
      "latitude": "51.41667000",
      "longitude": "9.93333000"
   },
   {
      "name": "Georgsdorf",
      "countryCode": "DE",
      "stateCode": "NI",
      "latitude": "52.56667000",
      "longitude": "7.08333000"
   },
   {
      "name": "Georgsmarienhütte",
      "countryCode": "DE",
      "stateCode": "NI",
      "latitude": "52.20296000",
      "longitude": "8.04480000"
   },
   {
      "name": "Gerdau",
      "countryCode": "DE",
      "stateCode": "NI",
      "latitude": "52.96667000",
      "longitude": "10.41667000"
   },
   {
      "name": "Gersten",
      "countryCode": "DE",
      "stateCode": "NI",
      "latitude": "52.58333000",
      "longitude": "7.51667000"
   },
   {
      "name": "Gieboldehausen",
      "countryCode": "DE",
      "stateCode": "NI",
      "latitude": "51.60962000",
      "longitude": "10.21619000"
   },
   {
      "name": "Giesen",
      "countryCode": "DE",
      "stateCode": "NI",
      "latitude": "52.19716000",
      "longitude": "9.89890000"
   },
   {
      "name": "Gifhorn",
      "countryCode": "DE",
      "stateCode": "NI",
      "latitude": "52.47774000",
      "longitude": "10.55110000"
   },
   {
      "name": "Gilten",
      "countryCode": "DE",
      "stateCode": "NI",
      "latitude": "52.70000000",
      "longitude": "9.58333000"
   },
   {
      "name": "Gittelde",
      "countryCode": "DE",
      "stateCode": "NI",
      "latitude": "51.79840000",
      "longitude": "10.18780000"
   },
   {
      "name": "Glandorf",
      "countryCode": "DE",
      "stateCode": "NI",
      "latitude": "52.08474000",
      "longitude": "7.99944000"
   },
   {
      "name": "Gnarrenburg",
      "countryCode": "DE",
      "stateCode": "NI",
      "latitude": "53.38333000",
      "longitude": "9.00000000"
   },
   {
      "name": "Goldenstedt",
      "countryCode": "DE",
      "stateCode": "NI",
      "latitude": "52.78833000",
      "longitude": "8.43201000"
   },
   {
      "name": "Golmbach",
      "countryCode": "DE",
      "stateCode": "NI",
      "latitude": "51.90000000",
      "longitude": "9.55000000"
   },
   {
      "name": "Goslar",
      "countryCode": "DE",
      "stateCode": "NI",
      "latitude": "51.90425000",
      "longitude": "10.42766000"
   },
   {
      "name": "Grafhorst",
      "countryCode": "DE",
      "stateCode": "NI",
      "latitude": "52.44482000",
      "longitude": "10.94513000"
   },
   {
      "name": "Grasberg",
      "countryCode": "DE",
      "stateCode": "NI",
      "latitude": "53.18333000",
      "longitude": "8.98333000"
   },
   {
      "name": "Grasleben",
      "countryCode": "DE",
      "stateCode": "NI",
      "latitude": "52.30638000",
      "longitude": "11.01465000"
   },
   {
      "name": "Gronau",
      "countryCode": "DE",
      "stateCode": "NI",
      "latitude": "52.08460000",
      "longitude": "9.77678000"
   },
   {
      "name": "Groß Ippener",
      "countryCode": "DE",
      "stateCode": "NI",
      "latitude": "52.96667000",
      "longitude": "8.61667000"
   },
   {
      "name": "Groß Munzel",
      "countryCode": "DE",
      "stateCode": "NI",
      "latitude": "52.36554000",
      "longitude": "9.47828000"
   },
   {
      "name": "Groß Oesingen",
      "countryCode": "DE",
      "stateCode": "NI",
      "latitude": "52.64761000",
      "longitude": "10.46366000"
   },
   {
      "name": "Groß Twülpstedt",
      "countryCode": "DE",
      "stateCode": "NI",
      "latitude": "52.37361000",
      "longitude": "10.91929000"
   },
   {
      "name": "Großenkneten",
      "countryCode": "DE",
      "stateCode": "NI",
      "latitude": "52.94377000",
      "longitude": "8.25323000"
   },
   {
      "name": "Großgoltern",
      "countryCode": "DE",
      "stateCode": "NI",
      "latitude": "52.33261000",
      "longitude": "9.50111000"
   },
   {
      "name": "Grünendeich",
      "countryCode": "DE",
      "stateCode": "NI",
      "latitude": "53.56952000",
      "longitude": "9.61218000"
   },
   {
      "name": "Guderhandviertel",
      "countryCode": "DE",
      "stateCode": "NI",
      "latitude": "53.54919000",
      "longitude": "9.60960000"
   },
   {
      "name": "Gyhum",
      "countryCode": "DE",
      "stateCode": "NI",
      "latitude": "53.21667000",
      "longitude": "9.31667000"
   },
   {
      "name": "Göttingen",
      "countryCode": "DE",
      "stateCode": "NI",
      "latitude": "51.53443000",
      "longitude": "9.93228000"
   },
   {
      "name": "Hage",
      "countryCode": "DE",
      "stateCode": "NI",
      "latitude": "53.60274000",
      "longitude": "7.28527000"
   },
   {
      "name": "Hagen",
      "countryCode": "DE",
      "stateCode": "NI",
      "latitude": "52.19629000",
      "longitude": "7.98041000"
   },
   {
      "name": "Hagen im Bremischen",
      "countryCode": "DE",
      "stateCode": "NI",
      "latitude": "53.35707000",
      "longitude": "8.64341000"
   },
   {
      "name": "Hagenburg",
      "countryCode": "DE",
      "stateCode": "NI",
      "latitude": "52.43367000",
      "longitude": "9.32473000"
   },
   {
      "name": "Halbemond",
      "countryCode": "DE",
      "stateCode": "NI",
      "latitude": "53.56710000",
      "longitude": "7.29038000"
   },
   {
      "name": "Halle",
      "countryCode": "DE",
      "stateCode": "NI",
      "latitude": "51.99122000",
      "longitude": "9.56532000"
   },
   {
      "name": "Hambergen",
      "countryCode": "DE",
      "stateCode": "NI",
      "latitude": "53.30826000",
      "longitude": "8.82520000"
   },
   {
      "name": "Hambühren",
      "countryCode": "DE",
      "stateCode": "NI",
      "latitude": "52.63333000",
      "longitude": "9.98333000"
   },
   {
      "name": "Hameln",
      "countryCode": "DE",
      "stateCode": "NI",
      "latitude": "52.10397000",
      "longitude": "9.35623000"
   },
   {
      "name": "Hammah",
      "countryCode": "DE",
      "stateCode": "NI",
      "latitude": "53.61667000",
      "longitude": "9.36667000"
   },
   {
      "name": "Handeloh",
      "countryCode": "DE",
      "stateCode": "NI",
      "latitude": "53.24563000",
      "longitude": "9.83923000"
   },
   {
      "name": "Handorf",
      "countryCode": "DE",
      "stateCode": "NI",
      "latitude": "53.34084000",
      "longitude": "10.34652000"
   },
   {
      "name": "Hankensbüttel",
      "countryCode": "DE",
      "stateCode": "NI",
      "latitude": "52.73333000",
      "longitude": "10.60000000"
   },
   {
      "name": "Hannover",
      "countryCode": "DE",
      "stateCode": "NI",
      "latitude": "52.37052000",
      "longitude": "9.73322000"
   },
   {
      "name": "Hannoversch Münden",
      "countryCode": "DE",
      "stateCode": "NI",
      "latitude": "51.41505000",
      "longitude": "9.65046000"
   },
   {
      "name": "Hanstedt",
      "countryCode": "DE",
      "stateCode": "NI",
      "latitude": "53.26667000",
      "longitude": "10.01667000"
   },
   {
      "name": "Hanstedt Eins",
      "countryCode": "DE",
      "stateCode": "NI",
      "latitude": "53.04642000",
      "longitude": "10.37444000"
   },
   {
      "name": "Hardegsen",
      "countryCode": "DE",
      "stateCode": "NI",
      "latitude": "51.65227000",
      "longitude": "9.83050000"
   },
   {
      "name": "Haren",
      "countryCode": "DE",
      "stateCode": "NI",
      "latitude": "52.79262000",
      "longitude": "7.24142000"
   },
   {
      "name": "Harpstedt",
      "countryCode": "DE",
      "stateCode": "NI",
      "latitude": "52.90942000",
      "longitude": "8.58962000"
   },
   {
      "name": "Harsefeld",
      "countryCode": "DE",
      "stateCode": "NI",
      "latitude": "53.45399000",
      "longitude": "9.50297000"
   },
   {
      "name": "Harsum",
      "countryCode": "DE",
      "stateCode": "NI",
      "latitude": "52.21045000",
      "longitude": "9.96486000"
   },
   {
      "name": "Hasbergen",
      "countryCode": "DE",
      "stateCode": "NI",
      "latitude": "52.23754000",
      "longitude": "7.96114000"
   },
   {
      "name": "Haselünne",
      "countryCode": "DE",
      "stateCode": "NI",
      "latitude": "52.67412000",
      "longitude": "7.48460000"
   },
   {
      "name": "Hassel",
      "countryCode": "DE",
      "stateCode": "NI",
      "latitude": "52.69688000",
      "longitude": "8.83198000"
   },
   {
      "name": "Hassendorf",
      "countryCode": "DE",
      "stateCode": "NI",
      "latitude": "53.10859000",
      "longitude": "9.26482000"
   },
   {
      "name": "Haste",
      "countryCode": "DE",
      "stateCode": "NI",
      "latitude": "52.38105000",
      "longitude": "9.39280000"
   },
   {
      "name": "Hatten",
      "countryCode": "DE",
      "stateCode": "NI",
      "latitude": "53.05000000",
      "longitude": "8.38333000"
   },
   {
      "name": "Hattorf",
      "countryCode": "DE",
      "stateCode": "NI",
      "latitude": "51.65035000",
      "longitude": "10.23681000"
   },
   {
      "name": "Haverlah",
      "countryCode": "DE",
      "stateCode": "NI",
      "latitude": "52.06667000",
      "longitude": "10.16667000"
   },
   {
      "name": "Haßbergen",
      "countryCode": "DE",
      "stateCode": "NI",
      "latitude": "52.73333000",
      "longitude": "9.23333000"
   },
   {
      "name": "Hechthausen",
      "countryCode": "DE",
      "stateCode": "NI",
      "latitude": "53.64041000",
      "longitude": "9.23942000"
   },
   {
      "name": "Heede",
      "countryCode": "DE",
      "stateCode": "NI",
      "latitude": "52.99205000",
      "longitude": "7.29830000"
   },
   {
      "name": "Heemsen",
      "countryCode": "DE",
      "stateCode": "NI",
      "latitude": "52.70000000",
      "longitude": "9.26667000"
   },
   {
      "name": "Heere",
      "countryCode": "DE",
      "stateCode": "NI",
      "latitude": "52.06667000",
      "longitude": "10.25000000"
   },
   {
      "name": "Heeslingen",
      "countryCode": "DE",
      "stateCode": "NI",
      "latitude": "53.31667000",
      "longitude": "9.33333000"
   },
   {
      "name": "Heeßen",
      "countryCode": "DE",
      "stateCode": "NI",
      "latitude": "52.23211000",
      "longitude": "9.09642000"
   },
   {
      "name": "Hehlen",
      "countryCode": "DE",
      "stateCode": "NI",
      "latitude": "51.98858000",
      "longitude": "9.47004000"
   },
   {
      "name": "Heidenau",
      "countryCode": "DE",
      "stateCode": "NI",
      "latitude": "53.31667000",
      "longitude": "9.66667000"
   },
   {
      "name": "Heinade",
      "countryCode": "DE",
      "stateCode": "NI",
      "latitude": "51.83333000",
      "longitude": "9.63333000"
   },
   {
      "name": "Heinböckel",
      "countryCode": "DE",
      "stateCode": "NI",
      "latitude": "53.57457000",
      "longitude": "9.32644000"
   },
   {
      "name": "Heinsen",
      "countryCode": "DE",
      "stateCode": "NI",
      "latitude": "52.06257000",
      "longitude": "9.66316000"
   },
   {
      "name": "Hellwege",
      "countryCode": "DE",
      "stateCode": "NI",
      "latitude": "53.07346000",
      "longitude": "9.23566000"
   },
   {
      "name": "Helmstedt",
      "countryCode": "DE",
      "stateCode": "NI",
      "latitude": "52.22790000",
      "longitude": "11.00985000"
   },
   {
      "name": "Helpsen",
      "countryCode": "DE",
      "stateCode": "NI",
      "latitude": "52.31131000",
      "longitude": "9.11676000"
   },
   {
      "name": "Hemmingen",
      "countryCode": "DE",
      "stateCode": "NI",
      "latitude": "52.31425000",
      "longitude": "9.72359000"
   },
   {
      "name": "Hemmoor",
      "countryCode": "DE",
      "stateCode": "NI",
      "latitude": "53.68702000",
      "longitude": "9.15492000"
   },
   {
      "name": "Hemsbünde",
      "countryCode": "DE",
      "stateCode": "NI",
      "latitude": "53.08998000",
      "longitude": "9.47261000"
   },
   {
      "name": "Hemslingen",
      "countryCode": "DE",
      "stateCode": "NI",
      "latitude": "53.08333000",
      "longitude": "9.60000000"
   },
   {
      "name": "Hepstedt",
      "countryCode": "DE",
      "stateCode": "NI",
      "latitude": "53.25874000",
      "longitude": "9.08209000"
   },
   {
      "name": "Hermannsburg",
      "countryCode": "DE",
      "stateCode": "NI",
      "latitude": "52.83254000",
      "longitude": "10.08957000"
   },
   {
      "name": "Herzberg am Harz",
      "countryCode": "DE",
      "stateCode": "NI",
      "latitude": "51.65546000",
      "longitude": "10.33938000"
   },
   {
      "name": "Herzlake",
      "countryCode": "DE",
      "stateCode": "NI",
      "latitude": "52.68530000",
      "longitude": "7.59946000"
   },
   {
      "name": "Hesel",
      "countryCode": "DE",
      "stateCode": "NI",
      "latitude": "53.30000000",
      "longitude": "7.60000000"
   },
   {
      "name": "Hespe",
      "countryCode": "DE",
      "stateCode": "NI",
      "latitude": "52.32999000",
      "longitude": "9.10818000"
   },
   {
      "name": "Hessisch Oldendorf",
      "countryCode": "DE",
      "stateCode": "NI",
      "latitude": "52.17269000",
      "longitude": "9.24913000"
   },
   {
      "name": "Heuerßen",
      "countryCode": "DE",
      "stateCode": "NI",
      "latitude": "52.32946000",
      "longitude": "9.27718000"
   },
   {
      "name": "Heyersum",
      "countryCode": "DE",
      "stateCode": "NI",
      "latitude": "52.15678000",
      "longitude": "9.81265000"
   },
   {
      "name": "Hildesheim",
      "countryCode": "DE",
      "stateCode": "NI",
      "latitude": "52.15077000",
      "longitude": "9.95112000"
   },
   {
      "name": "Hilgermissen",
      "countryCode": "DE",
      "stateCode": "NI",
      "latitude": "52.85000000",
      "longitude": "9.16667000"
   },
   {
      "name": "Hillerse",
      "countryCode": "DE",
      "stateCode": "NI",
      "latitude": "51.68558000",
      "longitude": "9.94973000"
   },
   {
      "name": "Hilter",
      "countryCode": "DE",
      "stateCode": "NI",
      "latitude": "52.13573000",
      "longitude": "8.14715000"
   },
   {
      "name": "Himbergen",
      "countryCode": "DE",
      "stateCode": "NI",
      "latitude": "53.09418000",
      "longitude": "10.72909000"
   },
   {
      "name": "Himmelpforten",
      "countryCode": "DE",
      "stateCode": "NI",
      "latitude": "53.61413000",
      "longitude": "9.30516000"
   },
   {
      "name": "Hinte",
      "countryCode": "DE",
      "stateCode": "NI",
      "latitude": "53.41667000",
      "longitude": "7.18333000"
   },
   {
      "name": "Hipstedt",
      "countryCode": "DE",
      "stateCode": "NI",
      "latitude": "53.48333000",
      "longitude": "8.96667000"
   },
   {
      "name": "Hitzacker",
      "countryCode": "DE",
      "stateCode": "NI",
      "latitude": "53.15254000",
      "longitude": "11.04418000"
   },
   {
      "name": "Hodenhagen",
      "countryCode": "DE",
      "stateCode": "NI",
      "latitude": "52.76506000",
      "longitude": "9.59495000"
   },
   {
      "name": "Hohenhameln",
      "countryCode": "DE",
      "stateCode": "NI",
      "latitude": "52.25755000",
      "longitude": "10.06416000"
   },
   {
      "name": "Hohnhorst",
      "countryCode": "DE",
      "stateCode": "NI",
      "latitude": "52.36942000",
      "longitude": "9.37168000"
   },
   {
      "name": "Holdorf",
      "countryCode": "DE",
      "stateCode": "NI",
      "latitude": "52.58333000",
      "longitude": "8.11667000"
   },
   {
      "name": "Holle",
      "countryCode": "DE",
      "stateCode": "NI",
      "latitude": "52.08721000",
      "longitude": "10.16012000"
   },
   {
      "name": "Hollenstedt",
      "countryCode": "DE",
      "stateCode": "NI",
      "latitude": "53.36667000",
      "longitude": "9.71667000"
   },
   {
      "name": "Holtland",
      "countryCode": "DE",
      "stateCode": "NI",
      "latitude": "53.28333000",
      "longitude": "7.58333000"
   },
   {
      "name": "Holzminden",
      "countryCode": "DE",
      "stateCode": "NI",
      "latitude": "51.82798000",
      "longitude": "9.44550000"
   },
   {
      "name": "Hoogstede",
      "countryCode": "DE",
      "stateCode": "NI",
      "latitude": "52.58333000",
      "longitude": "6.95000000"
   },
   {
      "name": "Hornburg",
      "countryCode": "DE",
      "stateCode": "NI",
      "latitude": "52.03095000",
      "longitude": "10.60490000"
   },
   {
      "name": "Horneburg",
      "countryCode": "DE",
      "stateCode": "NI",
      "latitude": "53.50672000",
      "longitude": "9.57546000"
   },
   {
      "name": "Horstedt",
      "countryCode": "DE",
      "stateCode": "NI",
      "latitude": "53.18333000",
      "longitude": "9.23333000"
   },
   {
      "name": "Hoya",
      "countryCode": "DE",
      "stateCode": "NI",
      "latitude": "52.80781000",
      "longitude": "9.14028000"
   },
   {
      "name": "Hude",
      "countryCode": "DE",
      "stateCode": "NI",
      "latitude": "53.10766000",
      "longitude": "8.46322000"
   },
   {
      "name": "Huede",
      "countryCode": "DE",
      "stateCode": "NI",
      "latitude": "52.49588000",
      "longitude": "8.35804000"
   },
   {
      "name": "Husum",
      "countryCode": "DE",
      "stateCode": "NI",
      "latitude": "52.56667000",
      "longitude": "9.25000000"
   },
   {
      "name": "Hänigsen",
      "countryCode": "DE",
      "stateCode": "NI",
      "latitude": "52.48425000",
      "longitude": "10.09129000"
   },
   {
      "name": "Hörden",
      "countryCode": "DE",
      "stateCode": "NI",
      "latitude": "51.66835000",
      "longitude": "10.28372000"
   },
   {
      "name": "Hülsede",
      "countryCode": "DE",
      "stateCode": "NI",
      "latitude": "52.24951000",
      "longitude": "9.36147000"
   },
   {
      "name": "Ihlienworth",
      "countryCode": "DE",
      "stateCode": "NI",
      "latitude": "53.73333000",
      "longitude": "8.91667000"
   },
   {
      "name": "Ilsede",
      "countryCode": "DE",
      "stateCode": "NI",
      "latitude": "52.26340000",
      "longitude": "10.19922000"
   },
   {
      "name": "Isenbüttel",
      "countryCode": "DE",
      "stateCode": "NI",
      "latitude": "52.43333000",
      "longitude": "10.58333000"
   },
   {
      "name": "Isernhagen Farster Bauerschaft",
      "countryCode": "DE",
      "stateCode": "NI",
      "latitude": "52.47093000",
      "longitude": "9.84179000"
   },
   {
      "name": "Itterbeck",
      "countryCode": "DE",
      "stateCode": "NI",
      "latitude": "52.50618000",
      "longitude": "6.80354000"
   },
   {
      "name": "Jameln",
      "countryCode": "DE",
      "stateCode": "NI",
      "latitude": "53.05000000",
      "longitude": "11.08333000"
   },
   {
      "name": "Jembke",
      "countryCode": "DE",
      "stateCode": "NI",
      "latitude": "52.50000000",
      "longitude": "10.76667000"
   },
   {
      "name": "Jemgum",
      "countryCode": "DE",
      "stateCode": "NI",
      "latitude": "53.26667000",
      "longitude": "7.38333000"
   },
   {
      "name": "Jerxheim",
      "countryCode": "DE",
      "stateCode": "NI",
      "latitude": "52.08172000",
      "longitude": "10.89844000"
   },
   {
      "name": "Jesteburg",
      "countryCode": "DE",
      "stateCode": "NI",
      "latitude": "53.30966000",
      "longitude": "9.95262000"
   },
   {
      "name": "Jever",
      "countryCode": "DE",
      "stateCode": "NI",
      "latitude": "53.57368000",
      "longitude": "7.89806000"
   },
   {
      "name": "Jork",
      "countryCode": "DE",
      "stateCode": "NI",
      "latitude": "53.53198000",
      "longitude": "9.68076000"
   },
   {
      "name": "Juist",
      "countryCode": "DE",
      "stateCode": "NI",
      "latitude": "53.67787000",
      "longitude": "6.99575000"
   },
   {
      "name": "Jühnde",
      "countryCode": "DE",
      "stateCode": "NI",
      "latitude": "51.46667000",
      "longitude": "9.80000000"
   },
   {
      "name": "Kakenstorf",
      "countryCode": "DE",
      "stateCode": "NI",
      "latitude": "53.30317000",
      "longitude": "9.76289000"
   },
   {
      "name": "Kalefeld",
      "countryCode": "DE",
      "stateCode": "NI",
      "latitude": "51.80000000",
      "longitude": "10.03333000"
   },
   {
      "name": "Katlenburg-Lindau",
      "countryCode": "DE",
      "stateCode": "NI",
      "latitude": "51.68333000",
      "longitude": "10.10000000"
   },
   {
      "name": "Kettenkamp",
      "countryCode": "DE",
      "stateCode": "NI",
      "latitude": "52.58333000",
      "longitude": "7.83333000"
   },
   {
      "name": "Kirchbrak",
      "countryCode": "DE",
      "stateCode": "NI",
      "latitude": "51.96585000",
      "longitude": "9.57510000"
   },
   {
      "name": "Kirchdorf",
      "countryCode": "DE",
      "stateCode": "NI",
      "latitude": "52.59523000",
      "longitude": "8.83490000"
   },
   {
      "name": "Kirchgellersen",
      "countryCode": "DE",
      "stateCode": "NI",
      "latitude": "53.23333000",
      "longitude": "10.30000000"
   },
   {
      "name": "Kirchlinteln",
      "countryCode": "DE",
      "stateCode": "NI",
      "latitude": "52.94236000",
      "longitude": "9.31811000"
   },
   {
      "name": "Kirchseelte",
      "countryCode": "DE",
      "stateCode": "NI",
      "latitude": "52.95000000",
      "longitude": "8.68333000"
   },
   {
      "name": "Kirchtimke",
      "countryCode": "DE",
      "stateCode": "NI",
      "latitude": "53.25000000",
      "longitude": "9.15000000"
   },
   {
      "name": "Kirchwalsede",
      "countryCode": "DE",
      "stateCode": "NI",
      "latitude": "53.01667000",
      "longitude": "9.40000000"
   },
   {
      "name": "Kissenbrück",
      "countryCode": "DE",
      "stateCode": "NI",
      "latitude": "52.10956000",
      "longitude": "10.58996000"
   },
   {
      "name": "Klein Berßen",
      "countryCode": "DE",
      "stateCode": "NI",
      "latitude": "52.76797000",
      "longitude": "7.46182000"
   },
   {
      "name": "Klein Gusborn",
      "countryCode": "DE",
      "stateCode": "NI",
      "latitude": "53.08331000",
      "longitude": "11.19323000"
   },
   {
      "name": "Klein Schwülper",
      "countryCode": "DE",
      "stateCode": "NI",
      "latitude": "52.34153000",
      "longitude": "10.42903000"
   },
   {
      "name": "Kluse",
      "countryCode": "DE",
      "stateCode": "NI",
      "latitude": "52.93633000",
      "longitude": "7.34093000"
   },
   {
      "name": "Krebeck",
      "countryCode": "DE",
      "stateCode": "NI",
      "latitude": "51.58333000",
      "longitude": "10.11667000"
   },
   {
      "name": "Kreiensen",
      "countryCode": "DE",
      "stateCode": "NI",
      "latitude": "51.85363000",
      "longitude": "9.96481000"
   },
   {
      "name": "Kutenholz",
      "countryCode": "DE",
      "stateCode": "NI",
      "latitude": "53.48152000",
      "longitude": "9.32118000"
   },
   {
      "name": "Königslutter am Elm",
      "countryCode": "DE",
      "stateCode": "NI",
      "latitude": "52.25116000",
      "longitude": "10.81683000"
   },
   {
      "name": "Kührstedt",
      "countryCode": "DE",
      "stateCode": "NI",
      "latitude": "53.57747000",
      "longitude": "8.80091000"
   },
   {
      "name": "Küsten",
      "countryCode": "DE",
      "stateCode": "NI",
      "latitude": "52.97779000",
      "longitude": "11.06240000"
   },
   {
      "name": "Laar",
      "countryCode": "DE",
      "stateCode": "NI",
      "latitude": "52.35581000",
      "longitude": "8.25388000"
   },
   {
      "name": "Laatzen",
      "countryCode": "DE",
      "stateCode": "NI",
      "latitude": "52.31506000",
      "longitude": "9.79739000"
   },
   {
      "name": "Lachendorf",
      "countryCode": "DE",
      "stateCode": "NI",
      "latitude": "52.61667000",
      "longitude": "10.25000000"
   },
   {
      "name": "Lamspringe",
      "countryCode": "DE",
      "stateCode": "NI",
      "latitude": "51.96071000",
      "longitude": "10.01105000"
   },
   {
      "name": "Lamstedt",
      "countryCode": "DE",
      "stateCode": "NI",
      "latitude": "53.63333000",
      "longitude": "9.10000000"
   },
   {
      "name": "Landesbergen",
      "countryCode": "DE",
      "stateCode": "NI",
      "latitude": "52.55598000",
      "longitude": "9.12505000"
   },
   {
      "name": "Landolfshausen",
      "countryCode": "DE",
      "stateCode": "NI",
      "latitude": "51.53333000",
      "longitude": "10.10000000"
   },
   {
      "name": "Langelsheim",
      "countryCode": "DE",
      "stateCode": "NI",
      "latitude": "51.93789000",
      "longitude": "10.33264000"
   },
   {
      "name": "Langen",
      "countryCode": "DE",
      "stateCode": "NI",
      "latitude": "53.60554000",
      "longitude": "8.59509000"
   },
   {
      "name": "Langenhagen",
      "countryCode": "DE",
      "stateCode": "NI",
      "latitude": "52.44758000",
      "longitude": "9.73741000"
   },
   {
      "name": "Langeoog",
      "countryCode": "DE",
      "stateCode": "NI",
      "latitude": "53.75000000",
      "longitude": "7.48333000"
   },
   {
      "name": "Langlingen",
      "countryCode": "DE",
      "stateCode": "NI",
      "latitude": "52.55593000",
      "longitude": "10.28291000"
   },
   {
      "name": "Langwedel",
      "countryCode": "DE",
      "stateCode": "NI",
      "latitude": "52.97864000",
      "longitude": "9.18542000"
   },
   {
      "name": "Lastrup",
      "countryCode": "DE",
      "stateCode": "NI",
      "latitude": "52.79468000",
      "longitude": "7.86715000"
   },
   {
      "name": "Lathen",
      "countryCode": "DE",
      "stateCode": "NI",
      "latitude": "52.86667000",
      "longitude": "7.31667000"
   },
   {
      "name": "Lauenau",
      "countryCode": "DE",
      "stateCode": "NI",
      "latitude": "52.27393000",
      "longitude": "9.36928000"
   },
   {
      "name": "Lauenbrück",
      "countryCode": "DE",
      "stateCode": "NI",
      "latitude": "53.20000000",
      "longitude": "9.56667000"
   },
   {
      "name": "Lauenhagen",
      "countryCode": "DE",
      "stateCode": "NI",
      "latitude": "52.35547000",
      "longitude": "9.20637000"
   },
   {
      "name": "Leer",
      "countryCode": "DE",
      "stateCode": "NI",
      "latitude": "53.23157000",
      "longitude": "7.46100000"
   },
   {
      "name": "Leese",
      "countryCode": "DE",
      "stateCode": "NI",
      "latitude": "52.50000000",
      "longitude": "9.11667000"
   },
   {
      "name": "Leezdorf",
      "countryCode": "DE",
      "stateCode": "NI",
      "latitude": "53.55000000",
      "longitude": "7.30000000"
   },
   {
      "name": "Lehre",
      "countryCode": "DE",
      "stateCode": "NI",
      "latitude": "52.33333000",
      "longitude": "10.66667000"
   },
   {
      "name": "Lehrte",
      "countryCode": "DE",
      "stateCode": "NI",
      "latitude": "52.37193000",
      "longitude": "9.97919000"
   },
   {
      "name": "Leiferde",
      "countryCode": "DE",
      "stateCode": "NI",
      "latitude": "52.20445000",
      "longitude": "10.50842000"
   },
   {
      "name": "Lemförde",
      "countryCode": "DE",
      "stateCode": "NI",
      "latitude": "52.46557000",
      "longitude": "8.37621000"
   },
   {
      "name": "Lemwerder",
      "countryCode": "DE",
      "stateCode": "NI",
      "latitude": "53.16667000",
      "longitude": "8.61667000"
   },
   {
      "name": "Lengede",
      "countryCode": "DE",
      "stateCode": "NI",
      "latitude": "52.20487000",
      "longitude": "10.30775000"
   },
   {
      "name": "Lengerich",
      "countryCode": "DE",
      "stateCode": "NI",
      "latitude": "52.55381000",
      "longitude": "7.53164000"
   },
   {
      "name": "Liebenau",
      "countryCode": "DE",
      "stateCode": "NI",
      "latitude": "52.60362000",
      "longitude": "9.09719000"
   },
   {
      "name": "Liebenburg",
      "countryCode": "DE",
      "stateCode": "NI",
      "latitude": "52.02176000",
      "longitude": "10.43169000"
   },
   {
      "name": "Lilienthal",
      "countryCode": "DE",
      "stateCode": "NI",
      "latitude": "53.14193000",
      "longitude": "8.90338000"
   },
   {
      "name": "Lindhorst",
      "countryCode": "DE",
      "stateCode": "NI",
      "latitude": "52.35789000",
      "longitude": "9.28319000"
   },
   {
      "name": "Lindwedel",
      "countryCode": "DE",
      "stateCode": "NI",
      "latitude": "52.60784000",
      "longitude": "9.68737000"
   },
   {
      "name": "Lingen",
      "countryCode": "DE",
      "stateCode": "NI",
      "latitude": "52.52143000",
      "longitude": "7.31845000"
   },
   {
      "name": "Lintig",
      "countryCode": "DE",
      "stateCode": "NI",
      "latitude": "53.60341000",
      "longitude": "8.87876000"
   },
   {
      "name": "Lohne",
      "countryCode": "DE",
      "stateCode": "NI",
      "latitude": "52.66625000",
      "longitude": "8.23750000"
   },
   {
      "name": "Lorup",
      "countryCode": "DE",
      "stateCode": "NI",
      "latitude": "52.92495000",
      "longitude": "7.64339000"
   },
   {
      "name": "Loxstedt",
      "countryCode": "DE",
      "stateCode": "NI",
      "latitude": "53.46667000",
      "longitude": "8.65000000"
   },
   {
      "name": "Luhden",
      "countryCode": "DE",
      "stateCode": "NI",
      "latitude": "52.22538000",
      "longitude": "9.09256000"
   },
   {
      "name": "Lunestedt",
      "countryCode": "DE",
      "stateCode": "NI",
      "latitude": "53.43621000",
      "longitude": "8.75193000"
   },
   {
      "name": "Lutter am Barenberge",
      "countryCode": "DE",
      "stateCode": "NI",
      "latitude": "51.98943000",
      "longitude": "10.26930000"
   },
   {
      "name": "Lähden",
      "countryCode": "DE",
      "stateCode": "NI",
      "latitude": "52.74547000",
      "longitude": "7.57036000"
   },
   {
      "name": "Löningen",
      "countryCode": "DE",
      "stateCode": "NI",
      "latitude": "52.73678000",
      "longitude": "7.75809000"
   },
   {
      "name": "Lüchow",
      "countryCode": "DE",
      "stateCode": "NI",
      "latitude": "52.96811000",
      "longitude": "11.15397000"
   },
   {
      "name": "Lüder",
      "countryCode": "DE",
      "stateCode": "NI",
      "latitude": "52.80878000",
      "longitude": "10.66609000"
   },
   {
      "name": "Lüdersfeld",
      "countryCode": "DE",
      "stateCode": "NI",
      "latitude": "52.35993000",
      "longitude": "9.25422000"
   },
   {
      "name": "Lüneburg",
      "countryCode": "DE",
      "stateCode": "NI",
      "latitude": "53.25090000",
      "longitude": "10.41409000"
   },
   {
      "name": "Lünne",
      "countryCode": "DE",
      "stateCode": "NI",
      "latitude": "52.42958000",
      "longitude": "7.42653000"
   },
   {
      "name": "Marienhafe",
      "countryCode": "DE",
      "stateCode": "NI",
      "latitude": "53.52274000",
      "longitude": "7.27306000"
   },
   {
      "name": "Mariental",
      "countryCode": "DE",
      "stateCode": "NI",
      "latitude": "52.27593000",
      "longitude": "10.98371000"
   },
   {
      "name": "Marklohe",
      "countryCode": "DE",
      "stateCode": "NI",
      "latitude": "52.66857000",
      "longitude": "9.14219000"
   },
   {
      "name": "Marschacht",
      "countryCode": "DE",
      "stateCode": "NI",
      "latitude": "53.41520000",
      "longitude": "10.37524000"
   },
   {
      "name": "Martfeld",
      "countryCode": "DE",
      "stateCode": "NI",
      "latitude": "52.87572000",
      "longitude": "9.06081000"
   },
   {
      "name": "Marxen",
      "countryCode": "DE",
      "stateCode": "NI",
      "latitude": "53.31211000",
      "longitude": "10.00415000"
   },
   {
      "name": "Meerbeck",
      "countryCode": "DE",
      "stateCode": "NI",
      "latitude": "52.34174000",
      "longitude": "9.15067000"
   },
   {
      "name": "Meerdorf",
      "countryCode": "DE",
      "stateCode": "NI",
      "latitude": "52.34583000",
      "longitude": "10.31745000"
   },
   {
      "name": "Meinersen",
      "countryCode": "DE",
      "stateCode": "NI",
      "latitude": "52.47436000",
      "longitude": "10.35247000"
   },
   {
      "name": "Melbeck",
      "countryCode": "DE",
      "stateCode": "NI",
      "latitude": "53.18333000",
      "longitude": "10.40000000"
   },
   {
      "name": "Melle",
      "countryCode": "DE",
      "stateCode": "NI",
      "latitude": "52.20197000",
      "longitude": "8.33826000"
   },
   {
      "name": "Mellinghausen",
      "countryCode": "DE",
      "stateCode": "NI",
      "latitude": "52.70697000",
      "longitude": "8.89704000"
   },
   {
      "name": "Menslage",
      "countryCode": "DE",
      "stateCode": "NI",
      "latitude": "52.68333000",
      "longitude": "7.81667000"
   },
   {
      "name": "Meppen",
      "countryCode": "DE",
      "stateCode": "NI",
      "latitude": "52.69064000",
      "longitude": "7.29097000"
   },
   {
      "name": "Merzen",
      "countryCode": "DE",
      "stateCode": "NI",
      "latitude": "52.48333000",
      "longitude": "7.83333000"
   },
   {
      "name": "Messingen",
      "countryCode": "DE",
      "stateCode": "NI",
      "latitude": "52.46667000",
      "longitude": "7.46667000"
   },
   {
      "name": "Midlum",
      "countryCode": "DE",
      "stateCode": "NI",
      "latitude": "53.73135000",
      "longitude": "8.61695000"
   },
   {
      "name": "Mittegroßefehn",
      "countryCode": "DE",
      "stateCode": "NI",
      "latitude": "53.39165000",
      "longitude": "7.56602000"
   },
   {
      "name": "Moisburg",
      "countryCode": "DE",
      "stateCode": "NI",
      "latitude": "53.40620000",
      "longitude": "9.69880000"
   },
   {
      "name": "Molbergen",
      "countryCode": "DE",
      "stateCode": "NI",
      "latitude": "52.85805000",
      "longitude": "7.92548000"
   },
   {
      "name": "Moringen",
      "countryCode": "DE",
      "stateCode": "NI",
      "latitude": "51.69915000",
      "longitude": "9.87107000"
   },
   {
      "name": "Morsum",
      "countryCode": "DE",
      "stateCode": "NI",
      "latitude": "52.95347000",
      "longitude": "9.07962000"
   },
   {
      "name": "Munster",
      "countryCode": "DE",
      "stateCode": "NI",
      "latitude": "52.98569000",
      "longitude": "10.08756000"
   },
   {
      "name": "Müden",
      "countryCode": "DE",
      "stateCode": "NI",
      "latitude": "52.52771000",
      "longitude": "10.36011000"
   },
   {
      "name": "Nahrendorf",
      "countryCode": "DE",
      "stateCode": "NI",
      "latitude": "53.17389000",
      "longitude": "10.81381000"
   },
   {
      "name": "Neu Darchau",
      "countryCode": "DE",
      "stateCode": "NI",
      "latitude": "53.22901000",
      "longitude": "10.88529000"
   },
   {
      "name": "Neu Wulmstorf",
      "countryCode": "DE",
      "stateCode": "NI",
      "latitude": "53.46667000",
      "longitude": "9.80000000"
   },
   {
      "name": "Neubrück",
      "countryCode": "DE",
      "stateCode": "NI",
      "latitude": "52.37088000",
      "longitude": "10.41761000"
   },
   {
      "name": "Neubörger",
      "countryCode": "DE",
      "stateCode": "NI",
      "latitude": "52.95815000",
      "longitude": "7.44839000"
   },
   {
      "name": "Neuenkirchen",
      "countryCode": "DE",
      "stateCode": "NI",
      "latitude": "52.13778000",
      "longitude": "8.38835000"
   },
   {
      "name": "Neuharlingersiel",
      "countryCode": "DE",
      "stateCode": "NI",
      "latitude": "53.69993000",
      "longitude": "7.70288000"
   },
   {
      "name": "Neuhaus an der Oste",
      "countryCode": "DE",
      "stateCode": "NI",
      "latitude": "53.80043000",
      "longitude": "9.03348000"
   },
   {
      "name": "Neukamperfehn",
      "countryCode": "DE",
      "stateCode": "NI",
      "latitude": "53.33642000",
      "longitude": "7.56189000"
   },
   {
      "name": "Neustadt am Rübenberge",
      "countryCode": "DE",
      "stateCode": "NI",
      "latitude": "52.50462000",
      "longitude": "9.45871000"
   },
   {
      "name": "Niederlangen",
      "countryCode": "DE",
      "stateCode": "NI",
      "latitude": "52.85712000",
      "longitude": "7.28199000"
   },
   {
      "name": "Niedernwöhren",
      "countryCode": "DE",
      "stateCode": "NI",
      "latitude": "52.35214000",
      "longitude": "9.14788000"
   },
   {
      "name": "Nienburg",
      "countryCode": "DE",
      "stateCode": "NI",
      "latitude": "52.64610000",
      "longitude": "9.22086000"
   },
   {
      "name": "Nienstädt",
      "countryCode": "DE",
      "stateCode": "NI",
      "latitude": "52.29242000",
      "longitude": "9.16440000"
   },
   {
      "name": "Norddeich",
      "countryCode": "DE",
      "stateCode": "NI",
      "latitude": "53.61349000",
      "longitude": "7.16043000"
   },
   {
      "name": "Norden",
      "countryCode": "DE",
      "stateCode": "NI",
      "latitude": "53.59552000",
      "longitude": "7.20639000"
   },
   {
      "name": "Nordenham",
      "countryCode": "DE",
      "stateCode": "NI",
      "latitude": "53.48610000",
      "longitude": "8.48093000"
   },
   {
      "name": "Norderney",
      "countryCode": "DE",
      "stateCode": "NI",
      "latitude": "53.70828000",
      "longitude": "7.15819000"
   },
   {
      "name": "Nordholz",
      "countryCode": "DE",
      "stateCode": "NI",
      "latitude": "53.78448000",
      "longitude": "8.61354000"
   },
   {
      "name": "Nordhorn",
      "countryCode": "DE",
      "stateCode": "NI",
      "latitude": "52.43081000",
      "longitude": "7.06833000"
   },
   {
      "name": "Nordleda",
      "countryCode": "DE",
      "stateCode": "NI",
      "latitude": "53.76667000",
      "longitude": "8.83333000"
   },
   {
      "name": "Nordstemmen",
      "countryCode": "DE",
      "stateCode": "NI",
      "latitude": "52.16196000",
      "longitude": "9.78350000"
   },
   {
      "name": "Northeim",
      "countryCode": "DE",
      "stateCode": "NI",
      "latitude": "51.70662000",
      "longitude": "9.99997000"
   },
   {
      "name": "Nortmoor",
      "countryCode": "DE",
      "stateCode": "NI",
      "latitude": "53.24608000",
      "longitude": "7.57178000"
   },
   {
      "name": "Nortrup",
      "countryCode": "DE",
      "stateCode": "NI",
      "latitude": "52.61503000",
      "longitude": "7.86072000"
   },
   {
      "name": "Nottensdorf",
      "countryCode": "DE",
      "stateCode": "NI",
      "latitude": "53.48333000",
      "longitude": "9.60000000"
   },
   {
      "name": "Nörten-Hardenberg",
      "countryCode": "DE",
      "stateCode": "NI",
      "latitude": "51.62878000",
      "longitude": "9.93593000"
   },
   {
      "name": "Oberndorf",
      "countryCode": "DE",
      "stateCode": "NI",
      "latitude": "53.75000000",
      "longitude": "9.15000000"
   },
   {
      "name": "Obernfeld",
      "countryCode": "DE",
      "stateCode": "NI",
      "latitude": "51.55000000",
      "longitude": "10.23333000"
   },
   {
      "name": "Obernkirchen",
      "countryCode": "DE",
      "stateCode": "NI",
      "latitude": "52.27210000",
      "longitude": "9.12912000"
   },
   {
      "name": "Oederquart",
      "countryCode": "DE",
      "stateCode": "NI",
      "latitude": "53.80267000",
      "longitude": "9.23680000"
   },
   {
      "name": "Oerel",
      "countryCode": "DE",
      "stateCode": "NI",
      "latitude": "53.48333000",
      "longitude": "9.05000000"
   },
   {
      "name": "Oldenburg",
      "countryCode": "DE",
      "stateCode": "NI",
      "latitude": "53.14118000",
      "longitude": "8.21467000"
   },
   {
      "name": "Oldendorf",
      "countryCode": "DE",
      "stateCode": "NI",
      "latitude": "53.15580000",
      "longitude": "10.21431000"
   },
   {
      "name": "Osloß",
      "countryCode": "DE",
      "stateCode": "NI",
      "latitude": "52.46925000",
      "longitude": "10.68011000"
   },
   {
      "name": "Osnabrück",
      "countryCode": "DE",
      "stateCode": "NI",
      "latitude": "52.27264000",
      "longitude": "8.04980000"
   },
   {
      "name": "Osteel",
      "countryCode": "DE",
      "stateCode": "NI",
      "latitude": "53.54417000",
      "longitude": "7.25400000"
   },
   {
      "name": "Osten",
      "countryCode": "DE",
      "stateCode": "NI",
      "latitude": "53.70000000",
      "longitude": "9.20000000"
   },
   {
      "name": "Ostercappeln",
      "countryCode": "DE",
      "stateCode": "NI",
      "latitude": "52.35000000",
      "longitude": "8.23333000"
   },
   {
      "name": "Osterholz-Scharmbeck",
      "countryCode": "DE",
      "stateCode": "NI",
      "latitude": "53.22698000",
      "longitude": "8.79528000"
   },
   {
      "name": "Osterode am Harz",
      "countryCode": "DE",
      "stateCode": "NI",
      "latitude": "51.72686000",
      "longitude": "10.25089000"
   },
   {
      "name": "Ostrhauderfehn",
      "countryCode": "DE",
      "stateCode": "NI",
      "latitude": "53.13333000",
      "longitude": "7.61667000"
   },
   {
      "name": "Ottenstein",
      "countryCode": "DE",
      "stateCode": "NI",
      "latitude": "51.94707000",
      "longitude": "9.40700000"
   },
   {
      "name": "Otter",
      "countryCode": "DE",
      "stateCode": "NI",
      "latitude": "53.24015000",
      "longitude": "9.74247000"
   },
   {
      "name": "Otterndorf",
      "countryCode": "DE",
      "stateCode": "NI",
      "latitude": "53.80908000",
      "longitude": "8.90068000"
   },
   {
      "name": "Ottersberg",
      "countryCode": "DE",
      "stateCode": "NI",
      "latitude": "53.10990000",
      "longitude": "9.14408000"
   },
   {
      "name": "Ovelgönne",
      "countryCode": "DE",
      "stateCode": "NI",
      "latitude": "53.34189000",
      "longitude": "8.42179000"
   },
   {
      "name": "Oyten",
      "countryCode": "DE",
      "stateCode": "NI",
      "latitude": "53.05000000",
      "longitude": "9.01667000"
   },
   {
      "name": "Papenburg",
      "countryCode": "DE",
      "stateCode": "NI",
      "latitude": "53.07738000",
      "longitude": "7.40444000"
   },
   {
      "name": "Parsau",
      "countryCode": "DE",
      "stateCode": "NI",
      "latitude": "52.53471000",
      "longitude": "10.89020000"
   },
   {
      "name": "Pattensen",
      "countryCode": "DE",
      "stateCode": "NI",
      "latitude": "52.26448000",
      "longitude": "9.76436000"
   },
   {
      "name": "Peine",
      "countryCode": "DE",
      "stateCode": "NI",
      "latitude": "52.31928000",
      "longitude": "10.23520000"
   },
   {
      "name": "Pennigsehl",
      "countryCode": "DE",
      "stateCode": "NI",
      "latitude": "52.64181000",
      "longitude": "9.02630000"
   },
   {
      "name": "Polle",
      "countryCode": "DE",
      "stateCode": "NI",
      "latitude": "51.89871000",
      "longitude": "9.40386000"
   },
   {
      "name": "Pollhagen",
      "countryCode": "DE",
      "stateCode": "NI",
      "latitude": "52.38529000",
      "longitude": "9.18813000"
   },
   {
      "name": "Quakenbrück",
      "countryCode": "DE",
      "stateCode": "NI",
      "latitude": "52.67502000",
      "longitude": "7.94983000"
   },
   {
      "name": "Radbruch",
      "countryCode": "DE",
      "stateCode": "NI",
      "latitude": "53.31667000",
      "longitude": "10.28333000"
   },
   {
      "name": "Raddestorf",
      "countryCode": "DE",
      "stateCode": "NI",
      "latitude": "52.45000000",
      "longitude": "8.96667000"
   },
   {
      "name": "Rastede",
      "countryCode": "DE",
      "stateCode": "NI",
      "latitude": "53.25000000",
      "longitude": "8.20000000"
   },
   {
      "name": "Rechtsupweg",
      "countryCode": "DE",
      "stateCode": "NI",
      "latitude": "53.53333000",
      "longitude": "7.33333000"
   },
   {
      "name": "Reeßum",
      "countryCode": "DE",
      "stateCode": "NI",
      "latitude": "53.13333000",
      "longitude": "9.21667000"
   },
   {
      "name": "Regesbostel",
      "countryCode": "DE",
      "stateCode": "NI",
      "latitude": "53.38333000",
      "longitude": "9.65000000"
   },
   {
      "name": "Rehburg-Loccum",
      "countryCode": "DE",
      "stateCode": "NI",
      "latitude": "52.46952000",
      "longitude": "9.19957000"
   },
   {
      "name": "Rehden",
      "countryCode": "DE",
      "stateCode": "NI",
      "latitude": "52.61024000",
      "longitude": "8.48093000"
   },
   {
      "name": "Reinstorf",
      "countryCode": "DE",
      "stateCode": "NI",
      "latitude": "53.23445000",
      "longitude": "10.57323000"
   },
   {
      "name": "Remlingen",
      "countryCode": "DE",
      "stateCode": "NI",
      "latitude": "52.11367000",
      "longitude": "10.67408000"
   },
   {
      "name": "Reppenstedt",
      "countryCode": "DE",
      "stateCode": "NI",
      "latitude": "53.25000000",
      "longitude": "10.35000000"
   },
   {
      "name": "Rethem",
      "countryCode": "DE",
      "stateCode": "NI",
      "latitude": "52.78621000",
      "longitude": "9.37862000"
   },
   {
      "name": "Rethen",
      "countryCode": "DE",
      "stateCode": "NI",
      "latitude": "52.37707000",
      "longitude": "10.47855000"
   },
   {
      "name": "Rhade",
      "countryCode": "DE",
      "stateCode": "NI",
      "latitude": "53.32872000",
      "longitude": "9.11350000"
   },
   {
      "name": "Rhede",
      "countryCode": "DE",
      "stateCode": "NI",
      "latitude": "53.06020000",
      "longitude": "7.27127000"
   },
   {
      "name": "Rheden",
      "countryCode": "DE",
      "stateCode": "NI",
      "latitude": "52.05784000",
      "longitude": "9.78714000"
   },
   {
      "name": "Rhumspringe",
      "countryCode": "DE",
      "stateCode": "NI",
      "latitude": "51.58333000",
      "longitude": "10.30000000"
   },
   {
      "name": "Ribbesbüttel",
      "countryCode": "DE",
      "stateCode": "NI",
      "latitude": "52.43435000",
      "longitude": "10.50997000"
   },
   {
      "name": "Riede",
      "countryCode": "DE",
      "stateCode": "NI",
      "latitude": "52.96667000",
      "longitude": "8.95000000"
   },
   {
      "name": "Rieste",
      "countryCode": "DE",
      "stateCode": "NI",
      "latitude": "52.48333000",
      "longitude": "8.01667000"
   },
   {
      "name": "Rinteln",
      "countryCode": "DE",
      "stateCode": "NI",
      "latitude": "52.18604000",
      "longitude": "9.07917000"
   },
   {
      "name": "Ritterhude",
      "countryCode": "DE",
      "stateCode": "NI",
      "latitude": "53.18289000",
      "longitude": "8.73550000"
   },
   {
      "name": "Rodenberg",
      "countryCode": "DE",
      "stateCode": "NI",
      "latitude": "52.31152000",
      "longitude": "9.35640000"
   },
   {
      "name": "Ronnenberg",
      "countryCode": "DE",
      "stateCode": "NI",
      "latitude": "52.31939000",
      "longitude": "9.65544000"
   },
   {
      "name": "Rosche",
      "countryCode": "DE",
      "stateCode": "NI",
      "latitude": "52.98663000",
      "longitude": "10.75184000"
   },
   {
      "name": "Rosdorf",
      "countryCode": "DE",
      "stateCode": "NI",
      "latitude": "51.50000000",
      "longitude": "9.90000000"
   },
   {
      "name": "Rotenburg",
      "countryCode": "DE",
      "stateCode": "NI",
      "latitude": "53.11125000",
      "longitude": "9.41082000"
   },
   {
      "name": "Rullstorf",
      "countryCode": "DE",
      "stateCode": "NI",
      "latitude": "53.28645000",
      "longitude": "10.52972000"
   },
   {
      "name": "Röhrsen",
      "countryCode": "DE",
      "stateCode": "NI",
      "latitude": "52.71078000",
      "longitude": "9.23139000"
   },
   {
      "name": "Rötgesbüttel",
      "countryCode": "DE",
      "stateCode": "NI",
      "latitude": "52.41667000",
      "longitude": "10.53333000"
   },
   {
      "name": "Rühen",
      "countryCode": "DE",
      "stateCode": "NI",
      "latitude": "52.48560000",
      "longitude": "10.88642000"
   },
   {
      "name": "Sachsenhagen",
      "countryCode": "DE",
      "stateCode": "NI",
      "latitude": "52.39734000",
      "longitude": "9.26791000"
   },
   {
      "name": "Salzbergen",
      "countryCode": "DE",
      "stateCode": "NI",
      "latitude": "52.33333000",
      "longitude": "7.35000000"
   },
   {
      "name": "Salzgitter",
      "countryCode": "DE",
      "stateCode": "NI",
      "latitude": "52.15705000",
      "longitude": "10.41540000"
   },
   {
      "name": "Salzhausen",
      "countryCode": "DE",
      "stateCode": "NI",
      "latitude": "53.22339000",
      "longitude": "10.16981000"
   },
   {
      "name": "Salzhemmendorf",
      "countryCode": "DE",
      "stateCode": "NI",
      "latitude": "52.06700000",
      "longitude": "9.58720000"
   },
   {
      "name": "Sande",
      "countryCode": "DE",
      "stateCode": "NI",
      "latitude": "53.50489000",
      "longitude": "8.01418000"
   },
   {
      "name": "Sandstedt",
      "countryCode": "DE",
      "stateCode": "NI",
      "latitude": "53.35981000",
      "longitude": "8.52137000"
   },
   {
      "name": "Sankt Andreasberg",
      "countryCode": "DE",
      "stateCode": "NI",
      "latitude": "51.71004000",
      "longitude": "10.51867000"
   },
   {
      "name": "Sarstedt",
      "countryCode": "DE",
      "stateCode": "NI",
      "latitude": "52.23495000",
      "longitude": "9.85411000"
   },
   {
      "name": "Sassenburg",
      "countryCode": "DE",
      "stateCode": "NI",
      "latitude": "52.51667000",
      "longitude": "10.63333000"
   },
   {
      "name": "Sauensiek",
      "countryCode": "DE",
      "stateCode": "NI",
      "latitude": "53.38333000",
      "longitude": "9.60000000"
   },
   {
      "name": "Schapen",
      "countryCode": "DE",
      "stateCode": "NI",
      "latitude": "52.40000000",
      "longitude": "7.56667000"
   },
   {
      "name": "Scharnebeck",
      "countryCode": "DE",
      "stateCode": "NI",
      "latitude": "53.29237000",
      "longitude": "10.50188000"
   },
   {
      "name": "Scheden",
      "countryCode": "DE",
      "stateCode": "NI",
      "latitude": "51.45000000",
      "longitude": "9.73333000"
   },
   {
      "name": "Scheeßel",
      "countryCode": "DE",
      "stateCode": "NI",
      "latitude": "53.16667000",
      "longitude": "9.48333000"
   },
   {
      "name": "Schellerten",
      "countryCode": "DE",
      "stateCode": "NI",
      "latitude": "52.18530000",
      "longitude": "10.10227000"
   },
   {
      "name": "Schiffdorf",
      "countryCode": "DE",
      "stateCode": "NI",
      "latitude": "53.53333000",
      "longitude": "8.65000000"
   },
   {
      "name": "Schillig",
      "countryCode": "DE",
      "stateCode": "NI",
      "latitude": "53.70378000",
      "longitude": "8.02170000"
   },
   {
      "name": "Schladen",
      "countryCode": "DE",
      "stateCode": "NI",
      "latitude": "52.02218000",
      "longitude": "10.53967000"
   },
   {
      "name": "Schnega",
      "countryCode": "DE",
      "stateCode": "NI",
      "latitude": "52.89130000",
      "longitude": "10.89226000"
   },
   {
      "name": "Schneverdingen",
      "countryCode": "DE",
      "stateCode": "NI",
      "latitude": "53.11685000",
      "longitude": "9.79524000"
   },
   {
      "name": "Schortens",
      "countryCode": "DE",
      "stateCode": "NI",
      "latitude": "53.53333000",
      "longitude": "7.95000000"
   },
   {
      "name": "Schwaförden",
      "countryCode": "DE",
      "stateCode": "NI",
      "latitude": "52.73775000",
      "longitude": "8.83026000"
   },
   {
      "name": "Schwanewede",
      "countryCode": "DE",
      "stateCode": "NI",
      "latitude": "53.23333000",
      "longitude": "8.60000000"
   },
   {
      "name": "Schwarme",
      "countryCode": "DE",
      "stateCode": "NI",
      "latitude": "52.90000000",
      "longitude": "9.01667000"
   },
   {
      "name": "Schwarmstedt",
      "countryCode": "DE",
      "stateCode": "NI",
      "latitude": "52.67794000",
      "longitude": "9.61767000"
   },
   {
      "name": "Schöningen",
      "countryCode": "DE",
      "stateCode": "NI",
      "latitude": "52.13802000",
      "longitude": "10.96745000"
   },
   {
      "name": "Schöppenstedt",
      "countryCode": "DE",
      "stateCode": "NI",
      "latitude": "52.14308000",
      "longitude": "10.77450000"
   },
   {
      "name": "Schüttorf",
      "countryCode": "DE",
      "stateCode": "NI",
      "latitude": "52.32281000",
      "longitude": "7.22176000"
   },
   {
      "name": "Seeburg",
      "countryCode": "DE",
      "stateCode": "NI",
      "latitude": "51.56667000",
      "longitude": "10.15000000"
   },
   {
      "name": "Seelze",
      "countryCode": "DE",
      "stateCode": "NI",
      "latitude": "52.39635000",
      "longitude": "9.59727000"
   },
   {
      "name": "Seesen",
      "countryCode": "DE",
      "stateCode": "NI",
      "latitude": "51.89095000",
      "longitude": "10.17847000"
   },
   {
      "name": "Seevetal",
      "countryCode": "DE",
      "stateCode": "NI",
      "latitude": "53.40000000",
      "longitude": "9.96667000"
   },
   {
      "name": "Seggebruch",
      "countryCode": "DE",
      "stateCode": "NI",
      "latitude": "52.30050000",
      "longitude": "9.09462000"
   },
   {
      "name": "Sehlde",
      "countryCode": "DE",
      "stateCode": "NI",
      "latitude": "52.03887000",
      "longitude": "10.26569000"
   },
   {
      "name": "Sehlem",
      "countryCode": "DE",
      "stateCode": "NI",
      "latitude": "52.01236000",
      "longitude": "9.97593000"
   },
   {
      "name": "Sehnde",
      "countryCode": "DE",
      "stateCode": "NI",
      "latitude": "52.31394000",
      "longitude": "9.96820000"
   },
   {
      "name": "Selsingen",
      "countryCode": "DE",
      "stateCode": "NI",
      "latitude": "53.37329000",
      "longitude": "9.21289000"
   },
   {
      "name": "Seulingen",
      "countryCode": "DE",
      "stateCode": "NI",
      "latitude": "51.54129000",
      "longitude": "10.16263000"
   },
   {
      "name": "Sibbesse",
      "countryCode": "DE",
      "stateCode": "NI",
      "latitude": "52.05000000",
      "longitude": "9.90000000"
   },
   {
      "name": "Sickte",
      "countryCode": "DE",
      "stateCode": "NI",
      "latitude": "52.21847000",
      "longitude": "10.64240000"
   },
   {
      "name": "Siedenburg",
      "countryCode": "DE",
      "stateCode": "NI",
      "latitude": "52.69293000",
      "longitude": "8.93961000"
   },
   {
      "name": "Sillenstede",
      "countryCode": "DE",
      "stateCode": "NI",
      "latitude": "53.57437000",
      "longitude": "7.98500000"
   },
   {
      "name": "Sittensen",
      "countryCode": "DE",
      "stateCode": "NI",
      "latitude": "53.27615000",
      "longitude": "9.50429000"
   },
   {
      "name": "Soderstorf",
      "countryCode": "DE",
      "stateCode": "NI",
      "latitude": "53.14275000",
      "longitude": "10.14807000"
   },
   {
      "name": "Soltau",
      "countryCode": "DE",
      "stateCode": "NI",
      "latitude": "52.98638000",
      "longitude": "9.84338000"
   },
   {
      "name": "Soltendieck",
      "countryCode": "DE",
      "stateCode": "NI",
      "latitude": "52.87369000",
      "longitude": "10.76162000"
   },
   {
      "name": "Sottrum",
      "countryCode": "DE",
      "stateCode": "NI",
      "latitude": "53.11667000",
      "longitude": "9.23333000"
   },
   {
      "name": "Spelle",
      "countryCode": "DE",
      "stateCode": "NI",
      "latitude": "52.36667000",
      "longitude": "7.46667000"
   },
   {
      "name": "Sprakensehl",
      "countryCode": "DE",
      "stateCode": "NI",
      "latitude": "52.76668000",
      "longitude": "10.49177000"
   },
   {
      "name": "Springe",
      "countryCode": "DE",
      "stateCode": "NI",
      "latitude": "52.20845000",
      "longitude": "9.55416000"
   },
   {
      "name": "Stade",
      "countryCode": "DE",
      "stateCode": "NI",
      "latitude": "53.59337000",
      "longitude": "9.47629000"
   },
   {
      "name": "Stadensen",
      "countryCode": "DE",
      "stateCode": "NI",
      "latitude": "52.87571000",
      "longitude": "10.55619000"
   },
   {
      "name": "Stadthagen",
      "countryCode": "DE",
      "stateCode": "NI",
      "latitude": "52.32333000",
      "longitude": "9.20311000"
   },
   {
      "name": "Stadtoldendorf",
      "countryCode": "DE",
      "stateCode": "NI",
      "latitude": "51.88242000",
      "longitude": "9.62650000"
   },
   {
      "name": "Stedesdorf",
      "countryCode": "DE",
      "stateCode": "NI",
      "latitude": "53.63333000",
      "longitude": "7.66667000"
   },
   {
      "name": "Steimbke",
      "countryCode": "DE",
      "stateCode": "NI",
      "latitude": "52.65483000",
      "longitude": "9.39091000"
   },
   {
      "name": "Steinfeld",
      "countryCode": "DE",
      "stateCode": "NI",
      "latitude": "52.58596000",
      "longitude": "8.21417000"
   },
   {
      "name": "Steinhorst",
      "countryCode": "DE",
      "stateCode": "NI",
      "latitude": "52.68333000",
      "longitude": "10.40000000"
   },
   {
      "name": "Steinkirchen",
      "countryCode": "DE",
      "stateCode": "NI",
      "latitude": "53.56601000",
      "longitude": "9.61111000"
   },
   {
      "name": "Stelle",
      "countryCode": "DE",
      "stateCode": "NI",
      "latitude": "53.38416000",
      "longitude": "10.11138000"
   },
   {
      "name": "Steyerberg",
      "countryCode": "DE",
      "stateCode": "NI",
      "latitude": "52.57017000",
      "longitude": "9.02423000"
   },
   {
      "name": "Stolzenau",
      "countryCode": "DE",
      "stateCode": "NI",
      "latitude": "52.51667000",
      "longitude": "9.06667000"
   },
   {
      "name": "Stuhr",
      "countryCode": "DE",
      "stateCode": "NI",
      "latitude": "53.03333000",
      "longitude": "8.75000000"
   },
   {
      "name": "Stöckse",
      "countryCode": "DE",
      "stateCode": "NI",
      "latitude": "52.64067000",
      "longitude": "9.34027000"
   },
   {
      "name": "Suddendorf",
      "countryCode": "DE",
      "stateCode": "NI",
      "latitude": "52.30096000",
      "longitude": "7.22572000"
   },
   {
      "name": "Suderburg",
      "countryCode": "DE",
      "stateCode": "NI",
      "latitude": "52.89586000",
      "longitude": "10.45141000"
   },
   {
      "name": "Sudwalde",
      "countryCode": "DE",
      "stateCode": "NI",
      "latitude": "52.79337000",
      "longitude": "8.83611000"
   },
   {
      "name": "Suhlendorf",
      "countryCode": "DE",
      "stateCode": "NI",
      "latitude": "52.93333000",
      "longitude": "10.76667000"
   },
   {
      "name": "Sulingen",
      "countryCode": "DE",
      "stateCode": "NI",
      "latitude": "52.68373000",
      "longitude": "8.80949000"
   },
   {
      "name": "Surwold",
      "countryCode": "DE",
      "stateCode": "NI",
      "latitude": "52.97800000",
      "longitude": "7.51534000"
   },
   {
      "name": "Sustrum",
      "countryCode": "DE",
      "stateCode": "NI",
      "latitude": "52.91667000",
      "longitude": "7.28333000"
   },
   {
      "name": "Syke",
      "countryCode": "DE",
      "stateCode": "NI",
      "latitude": "52.91345000",
      "longitude": "8.82209000"
   },
   {
      "name": "Sögel",
      "countryCode": "DE",
      "stateCode": "NI",
      "latitude": "52.85000000",
      "longitude": "7.51667000"
   },
   {
      "name": "Söhlde",
      "countryCode": "DE",
      "stateCode": "NI",
      "latitude": "52.18898000",
      "longitude": "10.23239000"
   },
   {
      "name": "Südergellersen",
      "countryCode": "DE",
      "stateCode": "NI",
      "latitude": "53.21667000",
      "longitude": "10.30000000"
   },
   {
      "name": "Süpplingen",
      "countryCode": "DE",
      "stateCode": "NI",
      "latitude": "52.22811000",
      "longitude": "10.90393000"
   },
   {
      "name": "Süstedt",
      "countryCode": "DE",
      "stateCode": "NI",
      "latitude": "52.86165000",
      "longitude": "8.92213000"
   },
   {
      "name": "Tappenbeck",
      "countryCode": "DE",
      "stateCode": "NI",
      "latitude": "52.47055000",
      "longitude": "10.74068000"
   },
   {
      "name": "Tarmstedt",
      "countryCode": "DE",
      "stateCode": "NI",
      "latitude": "53.22505000",
      "longitude": "9.07763000"
   },
   {
      "name": "Tespe",
      "countryCode": "DE",
      "stateCode": "NI",
      "latitude": "53.39640000",
      "longitude": "10.41084000"
   },