[
   {
      "name": "Bhattarai Danda",
      "countryCode": "NP",
      "stateCode": "3",
      "latitude": "27.88333000",
      "longitude": "83.93333000"
   },
   {
      "name": "Butwāl",
      "countryCode": "NP",
      "stateCode": "3",
      "latitude": "27.70055000",
      "longitude": "83.44836000"
   },
   {
      "name": "Bāglung",
      "countryCode": "NP",
      "stateCode": "3",
      "latitude": "28.27189000",
      "longitude": "83.58975000"
   },
   {
      "name": "Chitre",
      "countryCode": "NP",
      "stateCode": "3",
      "latitude": "28.42673000",
      "longitude": "83.69076000"
   },
   {
      "name": "Dihi",
      "countryCode": "NP",
      "stateCode": "3",
      "latitude": "27.87552000",
      "longitude": "83.92759000"
   },
   {
      "name": "Dārchulā",
      "countryCode": "NP",
      "stateCode": "3",
      "latitude": "29.83000000",
      "longitude": "80.55000000"
   },
   {
      "name": "Pokhara",
      "countryCode": "NP",
      "stateCode": "3",
      "latitude": "28.26689000",
      "longitude": "83.96851000"
   },
   {
      "name": "Siddharthanagar",
      "countryCode": "NP",
      "stateCode": "3",
      "latitude": "27.50000000",
      "longitude": "83.45000000"
   },
   {
      "name": "Tānsen",
      "countryCode": "NP",
      "stateCode": "3",
      "latitude": "27.86731000",
      "longitude": "83.54670000"
   },
   {
      "name": "Wāliṅ",
      "countryCode": "NP",
      "stateCode": "3",
      "latitude": "27.98370000",
      "longitude": "83.75925000"
   }
]