[
   {
      "name": "Kongo Central",
      "isoCode": "BC",
      "countryCode": "CD",
      "latitude": "-5.23656850",
      "longitude": "13.91439900"
   },
   {
      "name": "Bas-Uélé",
      "isoCode": "BU",
      "countryCode": "CD",
      "latitude": "3.99010090",
      "longitude": "24.90422080"
   },
   {
      "name": "Équateur",
      "isoCode": "EQ",
      "countryCode": "CD",
      "latitude": "-1.83123900",
      "longitude": "-78.18340600"
   },
   {
      "name": "Haut-Katanga",
      "isoCode": "HK",
      "countryCode": "CD",
      "latitude": "-10.41020750",
      "longitude": "27.54958460"
   },
   {
      "name": "Haut-Lomami",
      "isoCode": "HL",
      "countryCode": "CD",
      "latitude": "-7.70527520",
      "longitude": "24.90422080"
   },
   {
      "name": "Haut-Uélé",
      "isoCode": "HU",
      "countryCode": "CD",
      "latitude": "3.58451540",
      "longitude": "28.29943500"
   },
   {
      "name": "Ituri",
      "isoCode": "IT",
      "countryCode": "CD",
      "latitude": "1.59576820",
      "longitude": "29.41793240"
   },
   {
      "name": "Kasaï Central",
      "isoCode": "KC",
      "countryCode": "CD",
      "latitude": "-8.44045910",
      "longitude": "20.41659340"
   },
   {
      "name": "Kasaï Oriental",
      "isoCode": "KE",
      "countryCode": "CD",
      "latitude": "-6.03362300",
      "longitude": "23.57285010"
   },
   {
      "name": "Kwango",
      "isoCode": "KG",
      "countryCode": "CD",
      "latitude": "-6.43374090",
      "longitude": "17.66888700"
   },
   {
      "name": "Kwilu",
      "isoCode": "KL",
      "countryCode": "CD",
      "latitude": "-5.11888250",
      "longitude": "18.42760470"
   },
   {
      "name": "Kinshasa",
      "isoCode": "KN",
      "countryCode": "CD",
      "latitude": "-4.44193110",
      "longitude": "15.26629310"
   },
   {
      "name": "Kasaï",
      "isoCode": "KS",
      "countryCode": "CD",
      "latitude": "-5.04719790",
      "longitude": "20.71224650"
   },
   {
      "name": "Lomami",
      "isoCode": "LO",
      "countryCode": "CD",
      "latitude": "-6.14539310",
      "longitude": "24.52426400"
   },
   {
      "name": "Lualaba",
      "isoCode": "LU",
      "countryCode": "CD",
      "latitude": "-10.48086980",
      "longitude": "25.62978160"
   },
   {
      "name": "Maniema",
      "isoCode": "MA",
      "countryCode": "CD",
      "latitude": "-3.07309290",
      "longitude": "26.04138890"
   },
   {
      "name": "Mai-Ndombe",
      "isoCode": "MN",
      "countryCode": "CD",
      "latitude": "-2.63574340",
      "longitude": "18.42760470"
   },
   {
      "name": "Mongala",
      "isoCode": "MO",
      "countryCode": "CD",
      "latitude": "1.99623240",
      "longitude": "21.47528510"
   },
   {
      "name": "Nord-Kivu",
      "isoCode": "NK",
      "countryCode": "CD",
      "latitude": "-0.79177290",
      "longitude": "29.04599270"
   },
   {
      "name": "Nord-Ubangi",
      "isoCode": "NU",
      "countryCode": "CD",
      "latitude": "3.78787260",
      "longitude": "21.47528510"
   },
   {
      "name": "Sankuru",
      "isoCode": "SA",
      "countryCode": "CD",
      "latitude": "-2.84374530",
      "longitude": "23.38235450"
   },
   {
      "name": "Sud-Kivu",
      "isoCode": "SK",
      "countryCode": "CD",
      "latitude": "-3.01165800",
      "longitude": "28.29943500"
   },
   {
      "name": "Sud-Ubangi",
      "isoCode": "SU",
      "countryCode": "CD",
      "latitude": "3.22999420",
      "longitude": "19.18800470"
   },
   {
      "name": "Tanganyika",
      "isoCode": "TA",
      "countryCode": "CD",
      "latitude": "-6.27401180",
      "longitude": "27.92490020"
   },
   {
      "name": "Tshopo",
      "isoCode": "TO",
      "countryCode": "CD",
      "latitude": "0.54554620",
      "longitude": "24.90422080"
   },
   {
      "name": "Tshuapa",
      "isoCode": "TU",
      "countryCode": "CD",
      "latitude": "-0.99030230",
      "longitude": "23.02888440"
   }
]