[
   {
      "name": "Mazeikiai",
      "countryCode": "LT",
      "stateCode": "51",
      "latitude": "56.31667000",
      "longitude": "22.33333000"
   },
   {
      "name": "Plateliai",
      "countryCode": "LT",
      "stateCode": "51",
      "latitude": "56.04657000",
      "longitude": "21.81615000"
   },
   {
      "name": "Plunge",
      "countryCode": "LT",
      "stateCode": "51",
      "latitude": "55.91139000",
      "longitude": "21.84417000"
   },
   {
      "name": "Rietavas",
      "countryCode": "LT",
      "stateCode": "51",
      "latitude": "55.72375000",
      "longitude": "21.93266000"
   },
   {
      "name": "Seda",
      "countryCode": "LT",
      "stateCode": "51",
      "latitude": "56.16854000",
      "longitude": "22.09071000"
   },
   {
      "name": "Telsiai",
      "countryCode": "LT",
      "stateCode": "51",
      "latitude": "55.98139000",
      "longitude": "22.24722000"
   },
   {
      "name": "Varniai",
      "countryCode": "LT",
      "stateCode": "51",
      "latitude": "55.74435000",
      "longitude": "22.37251000"
   },
   {
      "name": "Viek≈°niai",
      "countryCode": "LT",
      "stateCode": "51",
      "latitude": "56.23598000",
      "longitude": "22.51667000"
   }
]