[
   {
      "name": "Acatlán de Juárez Municipality",
      "countryCode": "MX",
      "stateCode": "JAL",
      "latitude": "20.42416667",
      "longitude": "-103.60138889"
   },
   {
      "name": "Acueducto Fraccionamiento",
      "countryCode": "MX",
      "stateCode": "JAL",
      "latitude": "19.47917000",
      "longitude": "-103.31806000"
   },
   {
      "name": "Agua Bermeja",
      "countryCode": "MX",
      "stateCode": "JAL",
      "latitude": "20.66750000",
      "longitude": "-102.97056000"
   },
   {
      "name": "Agua Caliente",
      "countryCode": "MX",
      "stateCode": "JAL",
      "latitude": "21.77250000",
      "longitude": "-103.78806000"
   },
   {
      "name": "Agua Colorada",
      "countryCode": "MX",
      "stateCode": "JAL",
      "latitude": "20.94694000",
      "longitude": "-103.20611000"
   },
   {
      "name": "Agua Delgada",
      "countryCode": "MX",
      "stateCode": "JAL",
      "latitude": "20.16222000",
      "longitude": "-103.82750000"
   },
   {
      "name": "Agua Escondida",
      "countryCode": "MX",
      "stateCode": "JAL",
      "latitude": "20.86083000",
      "longitude": "-102.72500000"
   },
   {
      "name": "Agua Fría",
      "countryCode": "MX",
      "stateCode": "JAL",
      "latitude": "20.58778000",
      "longitude": "-102.55833000"
   },
   {
      "name": "Agua Nueva",
      "countryCode": "MX",
      "stateCode": "JAL",
      "latitude": "20.67889000",
      "longitude": "-102.45111000"
   },
   {
      "name": "Agua Paloma",
      "countryCode": "MX",
      "stateCode": "JAL",
      "latitude": "19.67799000",
      "longitude": "-105.18473000"
   },
   {
      "name": "Agua Prieta",
      "countryCode": "MX",
      "stateCode": "JAL",
      "latitude": "20.79361000",
      "longitude": "-102.89194000"
   },
   {
      "name": "Agua Rica",
      "countryCode": "MX",
      "stateCode": "JAL",
      "latitude": "20.83639000",
      "longitude": "-103.18778000"
   },
   {
      "name": "Agua Salada",
      "countryCode": "MX",
      "stateCode": "JAL",
      "latitude": "19.73111000",
      "longitude": "-103.19639000"
   },
   {
      "name": "Agua Zarca",
      "countryCode": "MX",
      "stateCode": "JAL",
      "latitude": "21.85035000",
      "longitude": "-103.49102000"
   },
   {
      "name": "Ahualulco de Mercado Municipality",
      "countryCode": "MX",
      "stateCode": "JAL",
      "latitude": "20.61666667",
      "longitude": "-103.86666667"
   },
   {
      "name": "Ahuatlán",
      "countryCode": "MX",
      "stateCode": "JAL",
      "latitude": "20.41836000",
      "longitude": "-102.88759000"
   },
   {
      "name": "Ahuetita de Abajo",
      "countryCode": "MX",
      "stateCode": "JAL",
      "latitude": "21.41972000",
      "longitude": "-102.65278000"
   },
   {
      "name": "Ahuisculco",
      "countryCode": "MX",
      "stateCode": "JAL",
      "latitude": "20.56875000",
      "longitude": "-103.70313000"
   },
   {
      "name": "Ajijic",
      "countryCode": "MX",
      "stateCode": "JAL",
      "latitude": "20.29944444",
      "longitude": "-103.25805556"
   },
   {
      "name": "Alfredo V. Bonfil",
      "countryCode": "MX",
      "stateCode": "JAL",
      "latitude": "20.66278000",
      "longitude": "-103.72278000"
   },
   {
      "name": "Alista",
      "countryCode": "MX",
      "stateCode": "JAL",
      "latitude": "19.63401000",
      "longitude": "-103.78890000"
   },
   {
      "name": "Allende",
      "countryCode": "MX",
      "stateCode": "JAL",
      "latitude": "20.72054000",
      "longitude": "-102.08557000"
   },
   {
      "name": "Altavista de Ramos",
      "countryCode": "MX",
      "stateCode": "JAL",
      "latitude": "20.43333333",
      "longitude": "-104.01666667"
   },
   {
      "name": "Altus Bosques",
      "countryCode": "MX",
      "stateCode": "JAL",
      "latitude": "20.56806000",
      "longitude": "-103.37250000"
   },
   {
      "name": "Amacuautitlán",
      "countryCode": "MX",
      "stateCode": "JAL",
      "latitude": "19.81619000",
      "longitude": "-104.02078000"
   },
   {
      "name": "Amacueca Municipality",
      "countryCode": "MX",
      "stateCode": "JAL",
      "latitude": "19.93333333",
      "longitude": "-103.06666667"
   },
   {
      "name": "Amajaquillo",
      "countryCode": "MX",
      "stateCode": "JAL",
      "latitude": "20.92750000",
      "longitude": "-104.60028000"
   },
   {
      "name": "Amatanejo",
      "countryCode": "MX",
      "stateCode": "JAL",
      "latitude": "20.95241000",
      "longitude": "-104.73775000"
   },
   {
      "name": "Amatitán",
      "countryCode": "MX",
      "stateCode": "JAL",
      "latitude": "20.83333333",
      "longitude": "-103.71666667"
   },
   {
      "name": "Ambrosio",
      "countryCode": "MX",
      "stateCode": "JAL",
      "latitude": "20.27605000",
      "longitude": "-103.97092000"
   },
   {
      "name": "Ameca",
      "countryCode": "MX",
      "stateCode": "JAL",
      "latitude": "20.67000000",
      "longitude": "-103.70000000"
   },
   {
      "name": "Ameca Municipality",
      "countryCode": "MX",
      "stateCode": "JAL",
      "latitude": "20.54831370",
      "longitude": "-104.04750230"
   },
   {
      "name": "Analco",
      "countryCode": "MX",
      "stateCode": "JAL",
      "latitude": "21.38500000",
      "longitude": "-102.63417000"
   },
   {
      "name": "Anoca",
      "countryCode": "MX",
      "stateCode": "JAL",
      "latitude": "20.09222000",
      "longitude": "-103.54556000"
   },
   {
      "name": "Antonio Escobedo",
      "countryCode": "MX",
      "stateCode": "JAL",
      "latitude": "20.80000000",
      "longitude": "-104.01667000"
   },
   {
      "name": "Apazulco",
      "countryCode": "MX",
      "stateCode": "JAL",
      "latitude": "19.36972000",
      "longitude": "-104.87889000"
   },
   {
      "name": "Apozol de Gutiérrez",
      "countryCode": "MX",
      "stateCode": "JAL",
      "latitude": "21.01778000",
      "longitude": "-102.82556000"
   },
   {
      "name": "Aquiles Serdán",
      "countryCode": "MX",
      "stateCode": "JAL",
      "latitude": "20.30019000",
      "longitude": "-105.62230000"
   },
   {
      "name": "Arandas",
      "countryCode": "MX",
      "stateCode": "JAL",
      "latitude": "20.70519000",
      "longitude": "-102.34635000"
   },
   {
      "name": "Arroyo Hondo",
      "countryCode": "MX",
      "stateCode": "JAL",
      "latitude": "19.68222000",
      "longitude": "-103.30000000"
   },
   {
      "name": "Atacco",
      "countryCode": "MX",
      "stateCode": "JAL",
      "latitude": "19.92662000",
      "longitude": "-103.74249000"
   },
   {
      "name": "Atarjeas de Covarrubias",
      "countryCode": "MX",
      "stateCode": "JAL",
      "latitude": "19.91944000",
      "longitude": "-103.94333000"
   },
   {
      "name": "Atemanica",
      "countryCode": "MX",
      "stateCode": "JAL",
      "latitude": "21.07528000",
      "longitude": "-103.75028000"
   },
   {
      "name": "Atengo",
      "countryCode": "MX",
      "stateCode": "JAL",
      "latitude": "20.21666667",
      "longitude": "-104.08333333"
   },
   {
      "name": "Atenguillo",
      "countryCode": "MX",
      "stateCode": "JAL",
      "latitude": "20.41553000",
      "longitude": "-104.49387000"
   },
   {
      "name": "Atequiza",
      "countryCode": "MX",
      "stateCode": "JAL",
      "latitude": "20.39006000",
      "longitude": "-103.14065000"
   },
   {
      "name": "Atotonilco el Alto Municipality",
      "countryCode": "MX",
      "stateCode": "JAL",
      "latitude": "20.53333333",
      "longitude": "-102.50000000"
   },
   {
      "name": "Atotonilco el Bajo",
      "countryCode": "MX",
      "stateCode": "JAL",
      "latitude": "20.34833333",
      "longitude": "-103.67083333"
   },
   {
      "name": "Atotonilquillo",
      "countryCode": "MX",
      "stateCode": "JAL",
      "latitude": "20.39287000",
      "longitude": "-103.12356000"
   },
   {
      "name": "Atoyac",
      "countryCode": "MX",
      "stateCode": "JAL",
      "latitude": "20.01700000",
      "longitude": "-103.53300000"
   },
   {
      "name": "Atzcatlán",
      "countryCode": "MX",
      "stateCode": "JAL",
      "latitude": "20.40306000",
      "longitude": "-102.97111000"
   },
   {
      "name": "Autlán de Navarro",
      "countryCode": "MX",
      "stateCode": "JAL",
      "latitude": "19.76666667",
      "longitude": "-104.36666667"
   },
   {
      "name": "Ayotitlán",
      "countryCode": "MX",
      "stateCode": "JAL",
      "latitude": "20.22048000",
      "longitude": "-103.94397000"
   },
   {
      "name": "Ayotlán Municipality",
      "countryCode": "MX",
      "stateCode": "JAL",
      "latitude": "20.49388889",
      "longitude": "-102.35083333"
   },
   {
      "name": "Ayuquila",
      "countryCode": "MX",
      "stateCode": "JAL",
      "latitude": "19.84001000",
      "longitude": "-104.27156000"
   },
   {
      "name": "Ayutla, Jalisco",
      "countryCode": "MX",
      "stateCode": "JAL",
      "latitude": "20.81666667",
      "longitude": "-104.20000000"
   },
   {
      "name": "Bajío Seco",
      "countryCode": "MX",
      "stateCode": "JAL",
      "latitude": "20.70889000",
      "longitude": "-102.39028000"
   },
   {
      "name": "Bajío de Ratones",
      "countryCode": "MX",
      "stateCode": "JAL",
      "latitude": "20.71306000",
      "longitude": "-102.42861000"
   },
   {
      "name": "Bajío de San José",
      "countryCode": "MX",
      "stateCode": "JAL",
      "latitude": "21.67525000",
      "longitude": "-102.11606000"
   },
   {
      "name": "Balcones de la Calera",
      "countryCode": "MX",
      "stateCode": "JAL",
      "latitude": "20.44250000",
      "longitude": "-103.26722000"
   },
   {
      "name": "Banus Vallarta",
      "countryCode": "MX",
      "stateCode": "JAL",
      "latitude": "20.71611000",
      "longitude": "-105.22306000"
   },
   {
      "name": "Barra de Navidad",
      "countryCode": "MX",
      "stateCode": "JAL",
      "latitude": "19.20805556",
      "longitude": "-104.68055556"
   },
   {
      "name": "Barranca de Otates",
      "countryCode": "MX",
      "stateCode": "JAL",
      "latitude": "20.26806000",
      "longitude": "-103.66472000"
   },
   {
      "name": "Barranca de Santa Clara",
      "countryCode": "MX",
      "stateCode": "JAL",
      "latitude": "20.25566000",
      "longitude": "-103.65560000"
   },
   {
      "name": "Barranca de los Laureles",
      "countryCode": "MX",
      "stateCode": "JAL",
      "latitude": "20.23333333",
      "longitude": "-103.63333333"
   },
   {
      "name": "Barranca del Tule",
      "countryCode": "MX",
      "stateCode": "JAL",
      "latitude": "21.98028000",
      "longitude": "-103.90694000"
   },
   {
      "name": "Barrio de Reyes",
      "countryCode": "MX",
      "stateCode": "JAL",
      "latitude": "21.29194000",
      "longitude": "-102.50556000"
   },
   {
      "name": "Barrio de Tapias",
      "countryCode": "MX",
      "stateCode": "JAL",
      "latitude": "22.18361000",
      "longitude": "-103.22667000"
   },
   {
      "name": "Belem del Refugio",
      "countryCode": "MX",
      "stateCode": "JAL",
      "latitude": "21.53023000",
      "longitude": "-102.43515000"
   },
   {
      "name": "Bellavista",
      "countryCode": "MX",
      "stateCode": "JAL",
      "latitude": "20.43408000",
      "longitude": "-103.63742000"
   },
   {
      "name": "Benito Juárez",
      "countryCode": "MX",
      "stateCode": "JAL",
      "latitude": "20.03639000",
      "longitude": "-105.26806000"
   },
   {
      "name": "Betania",
      "countryCode": "MX",
      "stateCode": "JAL",
      "latitude": "20.58199000",
      "longitude": "-102.37914000"
   },
   {
      "name": "Betulia",
      "countryCode": "MX",
      "stateCode": "JAL",
      "latitude": "21.75935000",
      "longitude": "-102.01940000"
   },
   {
      "name": "Bicercio",
      "countryCode": "MX",
      "stateCode": "JAL",
      "latitude": "20.65944000",
      "longitude": "-102.98389000"
   },
   {
      "name": "Boca de Tomatlán",
      "countryCode": "MX",
      "stateCode": "JAL",
      "latitude": "20.51211000",
      "longitude": "-105.31442000"
   },
   {
      "name": "Bolaños Municipality",
      "countryCode": "MX",
      "stateCode": "JAL",
      "latitude": "21.83055556",
      "longitude": "-103.78055556"
   },
   {
      "name": "Bosque Real Fraccionamiento",
      "countryCode": "MX",
      "stateCode": "JAL",
      "latitude": "20.56833000",
      "longitude": "-103.49389000"
   },
   {
      "name": "Brisas de la Navidad",
      "countryCode": "MX",
      "stateCode": "JAL",
      "latitude": "19.22444000",
      "longitude": "-104.65639000"
   },
   {
      "name": "Brizuela",
      "countryCode": "MX",
      "stateCode": "JAL",
      "latitude": "20.18333333",
      "longitude": "-103.70000000"
   },
   {
      "name": "Buena Vista",
      "countryCode": "MX",
      "stateCode": "JAL",
      "latitude": "20.77722000",
      "longitude": "-102.75778000"
   },
   {
      "name": "Buenavista",
      "countryCode": "MX",
      "stateCode": "JAL",
      "latitude": "21.55889000",
      "longitude": "-102.55639000"
   },
   {
      "name": "Buenos Aires",
      "countryCode": "MX",
      "stateCode": "JAL",
      "latitude": "20.54056000",
      "longitude": "-102.93444000"
   },
   {
      "name": "Cabo Corrientes",
      "countryCode": "MX",
      "stateCode": "JAL",
      "latitude": "20.34394000",
      "longitude": "-105.39322000"
   },
   {
      "name": "Cajititlán",
      "countryCode": "MX",
      "stateCode": "JAL",
      "latitude": "20.43174000",
      "longitude": "-103.30940000"
   },
   {
      "name": "Calerita",
      "countryCode": "MX",
      "stateCode": "JAL",
      "latitude": "21.46000000",
      "longitude": "-102.58806000"
   },
   {
      "name": "Callejones",
      "countryCode": "MX",
      "stateCode": "JAL",
      "latitude": "19.66833000",
      "longitude": "-103.26278000"
   },
   {
      "name": "Camajapita",
      "countryCode": "MX",
      "stateCode": "JAL",
      "latitude": "20.35000000",
      "longitude": "-103.91666667"
   },
   {
      "name": "Campestre las Palomas Fraccionamiento",
      "countryCode": "MX",
      "stateCode": "JAL",
      "latitude": "20.81778000",
      "longitude": "-103.45167000"
   },
   {
      "name": "Campo Acosta",
      "countryCode": "MX",
      "stateCode": "JAL",
      "latitude": "19.77061000",
      "longitude": "-105.24917000"
   },
   {
      "name": "Campo Real",
      "countryCode": "MX",
      "stateCode": "JAL",
      "latitude": "20.78722000",
      "longitude": "-103.44306000"
   },
   {
      "name": "Canchol",
      "countryCode": "MX",
      "stateCode": "JAL",
      "latitude": "19.30028000",
      "longitude": "-102.94889000"
   },
   {
      "name": "Canoas",
      "countryCode": "MX",
      "stateCode": "JAL",
      "latitude": "21.27222000",
      "longitude": "-101.80694000"
   },
   {
      "name": "Canoas de Arriba",
      "countryCode": "MX",
      "stateCode": "JAL",
      "latitude": "22.12333000",
      "longitude": "-103.24556000"
   },
   {
      "name": "Capilla de Guadalupe",
      "countryCode": "MX",
      "stateCode": "JAL",
      "latitude": "20.82694444",
      "longitude": "-102.59222222"
   },
   {
      "name": "Capilla de Milpillas",
      "countryCode": "MX",
      "stateCode": "JAL",
      "latitude": "20.66331000",
      "longitude": "-102.84295000"
   },
   {
      "name": "Capulín",
      "countryCode": "MX",
      "stateCode": "JAL",
      "latitude": "20.47802000",
      "longitude": "-103.26947000"
   },
   {
      "name": "Caquixtle de Arriba",
      "countryCode": "MX",
      "stateCode": "JAL",
      "latitude": "21.51250000",
      "longitude": "-102.07472000"
   },
   {
      "name": "Carrasqueño",
      "countryCode": "MX",
      "stateCode": "JAL",
      "latitude": "20.37917000",
      "longitude": "-102.61889000"
   },
   {
      "name": "Carretas",
      "countryCode": "MX",
      "stateCode": "JAL",
      "latitude": "20.44222000",
      "longitude": "-102.42417000"
   },
   {
      "name": "Carrizal",
      "countryCode": "MX",
      "stateCode": "JAL",
      "latitude": "22.21306000",
      "longitude": "-104.30389000"
   },
   {
      "name": "Casa de Teja",
      "countryCode": "MX",
      "stateCode": "JAL",
      "latitude": "20.45639000",
      "longitude": "-103.13583000"
   },
   {
      "name": "Casas Viejas",
      "countryCode": "MX",
      "stateCode": "JAL",
      "latitude": "21.18972000",
      "longitude": "-102.25389000"
   },
   {
      "name": "Casimiro Castillo",
      "countryCode": "MX",
      "stateCode": "JAL",
      "latitude": "19.60429000",
      "longitude": "-104.43572000"
   },
   {
      "name": "Castro Urdiales",
      "countryCode": "MX",
      "stateCode": "JAL",
      "latitude": "20.59754000",
      "longitude": "-103.82046000"
   },
   {
      "name": "Cañada Grande",
      "countryCode": "MX",
      "stateCode": "JAL",
      "latitude": "21.03889000",
      "longitude": "-102.59278000"
   },
   {
      "name": "Cañada de Islas",
      "countryCode": "MX",
      "stateCode": "JAL",
      "latitude": "21.24139000",
      "longitude": "-102.83722000"
   },
   {
      "name": "Cañada de Ricos",
      "countryCode": "MX",
      "stateCode": "JAL",
      "latitude": "21.37140000",
      "longitude": "-101.87653000"
   },
   {
      "name": "Cañada de San Ignacio",
      "countryCode": "MX",
      "stateCode": "JAL",
      "latitude": "20.55222000",
      "longitude": "-102.35333000"
   },
   {
      "name": "Cañadas de Obregón",
      "countryCode": "MX",
      "stateCode": "JAL",
      "latitude": "21.14685000",
      "longitude": "-102.68616111"
   },
   {
      "name": "Ceja de Bolitas",
      "countryCode": "MX",
      "stateCode": "JAL",
      "latitude": "21.31083000",
      "longitude": "-102.02861000"
   },
   {
      "name": "Centro de Readaptación Social",
      "countryCode": "MX",
      "stateCode": "JAL",
      "latitude": "20.55444000",
      "longitude": "-103.19361000"
   },
   {
      "name": "Cerrito de Buenos Aires",
      "countryCode": "MX",
      "stateCode": "JAL",
      "latitude": "20.52778000",
      "longitude": "-102.93889000"
   },
   {
      "name": "Cerrito de Tierra",
      "countryCode": "MX",
      "stateCode": "JAL",
      "latitude": "20.88861000",
      "longitude": "-103.10389000"
   },
   {
      "name": "Cerro Santa Fe",
      "countryCode": "MX",
      "stateCode": "JAL",
      "latitude": "20.52599000",
      "longitude": "-103.08448000"
   },
   {
      "name": "Chacala",
      "countryCode": "MX",
      "stateCode": "JAL",
      "latitude": "20.42833000",
      "longitude": "-105.46778000"
   },
   {
      "name": "Chachahuatlán",
      "countryCode": "MX",
      "stateCode": "JAL",
      "latitude": "19.63361000",
      "longitude": "-103.98750000"
   },
   {
      "name": "Chalpicote",
      "countryCode": "MX",
      "stateCode": "JAL",
      "latitude": "20.30972000",
      "longitude": "-102.91615000"
   },
   {
      "name": "Chamacuero",
      "countryCode": "MX",
      "stateCode": "JAL",
      "latitude": "20.10793000",
      "longitude": "-103.29326000"
   },
   {
      "name": "Chamela, Jalisco",
      "countryCode": "MX",
      "stateCode": "JAL",
      "latitude": "19.52722222",
      "longitude": "-105.07333333"
   },
   {
      "name": "Chancol",
      "countryCode": "MX",
      "stateCode": "JAL",
      "latitude": "19.48056000",
      "longitude": "-104.17194000"
   },
   {
      "name": "Chancuellar",
      "countryCode": "MX",
      "stateCode": "JAL",
      "latitude": "19.50972000",
      "longitude": "-103.83111000"
   },
   {
      "name": "Chapala",
      "countryCode": "MX",
      "stateCode": "JAL",
      "latitude": "20.29333333",
      "longitude": "-103.18972222"
   },
   {
      "name": "Chayotillo",
      "countryCode": "MX",
      "stateCode": "JAL",
      "latitude": "21.74972000",
      "longitude": "-101.93861000"
   },
   {
      "name": "Chilacayote",
      "countryCode": "MX",
      "stateCode": "JAL",
      "latitude": "20.13861000",
      "longitude": "-104.64861000"
   },
   {
      "name": "Chimaltitán",
      "countryCode": "MX",
      "stateCode": "JAL",
      "latitude": "21.74805556",
      "longitude": "-103.69472222"
   },
   {
      "name": "Chinampas",
      "countryCode": "MX",
      "stateCode": "JAL",
      "latitude": "21.83686000",
      "longitude": "-101.81564000"
   },
   {
      "name": "Chipinque de Arriba",
      "countryCode": "MX",
      "stateCode": "JAL",
      "latitude": "21.43194000",
      "longitude": "-101.90667000"
   },
   {
      "name": "Chiquihuitillo",
      "countryCode": "MX",
      "stateCode": "JAL",
      "latitude": "20.74556000",
      "longitude": "-102.98722000"
   },
   {
      "name": "Chiquilistlán",
      "countryCode": "MX",
      "stateCode": "JAL",
      "latitude": "20.20000000",
      "longitude": "-103.81667000"
   },
   {
      "name": "Chiquilistlán, Jalisco",
      "countryCode": "MX",
      "stateCode": "JAL",
      "latitude": "20.08555556",
      "longitude": "-103.89388889"
   },
   {
      "name": "Chome",
      "countryCode": "MX",
      "stateCode": "JAL",
      "latitude": "20.89528000",
      "longitude": "-103.73528000"
   },
   {
      "name": "Churintzio",
      "countryCode": "MX",
      "stateCode": "JAL",
      "latitude": "21.26167000",
      "longitude": "-102.01444000"
   },
   {
      "name": "Cihuatlán, Jalisco",
      "countryCode": "MX",
      "stateCode": "JAL",
      "latitude": "19.25000000",
      "longitude": "-104.56666667"
   },
   {
      "name": "Cima del Sol",
      "countryCode": "MX",
      "stateCode": "JAL",
      "latitude": "20.46889000",
      "longitude": "-103.41722000"
   },
   {
      "name": "Citala",
      "countryCode": "MX",
      "stateCode": "JAL",
      "latitude": "20.10454000",
      "longitude": "-103.26194000"
   },
   {
      "name": "Ciudad Guzmán",
      "countryCode": "MX",
      "stateCode": "JAL",
      "latitude": "19.70861111",
      "longitude": "-103.46416667"
   },
   {
      "name": "Ciudad Guzmán CERESO",
      "countryCode": "MX",
      "stateCode": "JAL",
      "latitude": "19.65194000",
      "longitude": "-103.50000000"
   },
   {
      "name": "Ciénega de Galvanes",
      "countryCode": "MX",
      "stateCode": "JAL",
      "latitude": "20.57500000",
      "longitude": "-101.97000000"
   },
   {
      "name": "Ciénega del Pastor",
      "countryCode": "MX",
      "stateCode": "JAL",
      "latitude": "20.52060000",
      "longitude": "-102.65710000"
   },
   {
      "name": "Coamostita",
      "countryCode": "MX",
      "stateCode": "JAL",
      "latitude": "21.92833000",
      "longitude": "-103.99083000"
   },
   {
      "name": "Coatlancillo",
      "countryCode": "MX",
      "stateCode": "JAL",
      "latitude": "19.89314000",
      "longitude": "-103.96414000"
   },
   {
      "name": "Cocuasco",
      "countryCode": "MX",
      "stateCode": "JAL",
      "latitude": "21.83444000",
      "longitude": "-103.64389000"
   },
   {
      "name": "Cocula, Jalisco",
      "countryCode": "MX",
      "stateCode": "JAL",
      "latitude": "20.36516667",
      "longitude": "-103.82214167"
   },
   {
      "name": "Codorniz",
      "countryCode": "MX",
      "stateCode": "JAL",
      "latitude": "22.14528000",
      "longitude": "-104.31694000"
   },
   {
      "name": "Cofradía",
      "countryCode": "MX",
      "stateCode": "JAL",
      "latitude": "19.51667000",
      "longitude": "-104.71667000"
   },
   {
      "name": "Cofradía Santa Cruz de Camotlán",
      "countryCode": "MX",
      "stateCode": "JAL",
      "latitude": "20.93086000",
      "longitude": "-104.64303000"
   },
   {
      "name": "Colinas del Roble",
      "countryCode": "MX",
      "stateCode": "JAL",
      "latitude": "20.50417000",
      "longitude": "-103.39833000"
   },
   {
      "name": "Colinas del Valle",
      "countryCode": "MX",
      "stateCode": "JAL",
      "latitude": "20.75694000",
      "longitude": "-105.15917000"
   },
   {
      "name": "Colonia Agua Caliente",
      "countryCode": "MX",
      "stateCode": "JAL",
      "latitude": "21.37778000",
      "longitude": "-101.91611000"
   },
   {
      "name": "Colonia Bosques del Sol",
      "countryCode": "MX",
      "stateCode": "JAL",
      "latitude": "20.59944000",
      "longitude": "-103.21778000"
   },
   {
      "name": "Colonia Capilla de Rayo",
      "countryCode": "MX",
      "stateCode": "JAL",
      "latitude": "20.14806000",
      "longitude": "-104.34639000"
   },
   {
      "name": "Colonia Cuisillos",
      "countryCode": "MX",
      "stateCode": "JAL",
      "latitude": "20.72417000",
      "longitude": "-103.65528000"
   },
   {
      "name": "Colonia Ganadera",
      "countryCode": "MX",
      "stateCode": "JAL",
      "latitude": "21.15611000",
      "longitude": "-102.89944000"
   },
   {
      "name": "Colonia Guadalupana",
      "countryCode": "MX",
      "stateCode": "JAL",
      "latitude": "20.56667000",
      "longitude": "-103.21889000"
   },
   {
      "name": "Colonia Hatmasie",
      "countryCode": "MX",
      "stateCode": "JAL",
      "latitude": "22.39278000",
      "longitude": "-103.99111000"
   },
   {
      "name": "Colonia Loma Alta",
      "countryCode": "MX",
      "stateCode": "JAL",
      "latitude": "19.44583000",
      "longitude": "-104.36556000"
   },
   {
      "name": "Colonia Lázaro Cárdenas",
      "countryCode": "MX",
      "stateCode": "JAL",
      "latitude": "20.42778000",
      "longitude": "-103.68083000"
   },
   {
      "name": "Colonia Lázaro Cárdenas del Río",
      "countryCode": "MX",
      "stateCode": "JAL",
      "latitude": "19.98917000",
      "longitude": "-103.25583000"
   },
   {
      "name": "Colonia Madero",
      "countryCode": "MX",
      "stateCode": "JAL",
      "latitude": "20.07056000",
      "longitude": "-103.08917000"
   },
   {
      "name": "Colonia Niños Héroes",
      "countryCode": "MX",
      "stateCode": "JAL",
      "latitude": "20.55917000",
      "longitude": "-103.43083000"
   },
   {
      "name": "Colonia Paso del Molino",
      "countryCode": "MX",
      "stateCode": "JAL",
      "latitude": "20.59278000",
      "longitude": "-105.21833000"
   },
   {
      "name": "Colonia Pinal Villa",
      "countryCode": "MX",
      "stateCode": "JAL",
      "latitude": "19.23806000",
      "longitude": "-104.69389000"
   },
   {
      "name": "Colonia Santa Cecilia",
      "countryCode": "MX",
      "stateCode": "JAL",
      "latitude": "21.25250000",
      "longitude": "-102.35139000"
   },
   {
      "name": "Colonia Trigomil",
      "countryCode": "MX",
      "stateCode": "JAL",
      "latitude": "19.94222000",
      "longitude": "-104.24917000"
   },
   {
      "name": "Colonia Veintitrés de Mayo",
      "countryCode": "MX",
      "stateCode": "JAL",
      "latitude": "21.01000000",
      "longitude": "-102.19778000"
   },
   {
      "name": "Colonia Veintiuno de Marzo",
      "countryCode": "MX",
      "stateCode": "JAL",
      "latitude": "22.23710000",
      "longitude": "-103.08390000"
   },
   {
      "name": "Colonia la Granjena",
      "countryCode": "MX",
      "stateCode": "JAL",
      "latitude": "20.35167000",
      "longitude": "-102.79639000"
   },
   {
      "name": "Colonia las Granjas",
      "countryCode": "MX",
      "stateCode": "JAL",
      "latitude": "22.61583000",
      "longitude": "-103.89639000"
   },
   {
      "name": "Colonia las Palmas Campamento SAGAR",
      "countryCode": "MX",
      "stateCode": "JAL",
      "latitude": "19.97139000",
      "longitude": "-105.32389000"
   },
   {
      "name": "Colonia los Robles",
      "countryCode": "MX",
      "stateCode": "JAL",
      "latitude": "20.59194000",
      "longitude": "-105.21500000"
   },
   {
      "name": "Colonia los Sauces",
      "countryCode": "MX",
      "stateCode": "JAL",
      "latitude": "20.55028000",
      "longitude": "-103.35167000"
   },
   {
      "name": "Colotlán",
      "countryCode": "MX",
      "stateCode": "JAL",
      "latitude": "22.11343000",
      "longitude": "-103.26664000"
   },
   {
      "name": "Colotlán Municipality",
      "countryCode": "MX",
      "stateCode": "JAL",
      "latitude": "22.20000000",
      "longitude": "-103.30000000"
   },
   {
      "name": "Comanja de Corona",
      "countryCode": "MX",
      "stateCode": "JAL",
      "latitude": "21.32520000",
      "longitude": "-101.71379000"
   },
   {
      "name": "Concepción de Buenos Aires",
      "countryCode": "MX",
      "stateCode": "JAL",
      "latitude": "19.86666667",
      "longitude": "-103.15000000"
   },
   {
      "name": "Concepción del Bramador",
      "countryCode": "MX",
      "stateCode": "JAL",
      "latitude": "20.24460000",
      "longitude": "-105.07807000"
   },
   {
      "name": "Copales",
      "countryCode": "MX",
      "stateCode": "JAL",
      "latitude": "20.85278000",
      "longitude": "-104.74778000"
   },
   {
      "name": "Corral Blanco",
      "countryCode": "MX",
      "stateCode": "JAL",
      "latitude": "21.56778000",
      "longitude": "-102.37139000"
   },
   {
      "name": "Corral de Piedra",
      "countryCode": "MX",
      "stateCode": "JAL",
      "latitude": "21.48333000",
      "longitude": "-102.11806000"
   },
   {
      "name": "Corralillos",
      "countryCode": "MX",
      "stateCode": "JAL",
      "latitude": "20.64944000",
      "longitude": "-102.91056000"
   },
   {
      "name": "Coyamel",
      "countryCode": "MX",
      "stateCode": "JAL",
      "latitude": "19.49806000",
      "longitude": "-104.52306000"
   },
   {
      "name": "Coyula",
      "countryCode": "MX",
      "stateCode": "JAL",
      "latitude": "20.65881000",
      "longitude": "-103.22654000"
   },
   {
      "name": "Cristeros Fraccionamiento",
      "countryCode": "MX",
      "stateCode": "JAL",
      "latitude": "21.32111000",
      "longitude": "-101.97333000"
   },
   {
      "name": "Cuauhtémoc",
      "countryCode": "MX",
      "stateCode": "JAL",
      "latitude": "19.63306000",
      "longitude": "-103.92722000"
   },
   {
      "name": "Cuautitlán",
      "countryCode": "MX",
      "stateCode": "JAL",
      "latitude": "21.73639000",
      "longitude": "-101.96917000"
   },
   {
      "name": "Cuautitlán de García Barragán",
      "countryCode": "MX",
      "stateCode": "JAL",
      "latitude": "19.43333333",
      "longitude": "-104.30000000"
   },
   {
      "name": "Cuautla",
      "countryCode": "MX",
      "stateCode": "JAL",
      "latitude": "20.20139000",
      "longitude": "-104.40750000"
   },
   {
      "name": "Cuesta Chica",
      "countryCode": "MX",
      "stateCode": "JAL",
      "latitude": "20.56444000",
      "longitude": "-102.67167000"
   },
   {
      "name": "Cuesta de Ovejas",
      "countryCode": "MX",
      "stateCode": "JAL",
      "latitude": "20.55222000",
      "longitude": "-102.66750000"
   },
   {
      "name": "Cuexcomatitlán",
      "countryCode": "MX",
      "stateCode": "JAL",
      "latitude": "20.42810000",
      "longitude": "-103.36189000"
   },
   {
      "name": "Cuisillos",
      "countryCode": "MX",
      "stateCode": "JAL",
      "latitude": "20.60948000",
      "longitude": "-103.77441000"
   },
   {
      "name": "Cuitzeo",
      "countryCode": "MX",
      "stateCode": "JAL",
      "latitude": "20.34278000",
      "longitude": "-102.78389000"
   },
   {
      "name": "Cuquío",
      "countryCode": "MX",
      "stateCode": "JAL",
      "latitude": "20.92750000",
      "longitude": "-103.02388889"
   },
   {
      "name": "Custique",
      "countryCode": "MX",
      "stateCode": "JAL",
      "latitude": "21.62000000",
      "longitude": "-102.49111000"
   },
   {
      "name": "Cuxpala",
      "countryCode": "MX",
      "stateCode": "JAL",
      "latitude": "20.55935000",
      "longitude": "-103.64510000"
   },
   {
      "name": "Cópala",
      "countryCode": "MX",
      "stateCode": "JAL",
      "latitude": "19.92333000",
      "longitude": "-103.74806000"
   },
   {
      "name": "Degollado",
      "countryCode": "MX",
      "stateCode": "JAL",
      "latitude": "20.46702000",
      "longitude": "-102.14976000"
   },
   {
      "name": "Dieciocho de Marzo",
      "countryCode": "MX",
      "stateCode": "JAL",
      "latitude": "21.48238000",
      "longitude": "-101.79880000"
   },
   {
      "name": "Ejido Agua Zarca",
      "countryCode": "MX",
      "stateCode": "JAL",
      "latitude": "19.83611000",
      "longitude": "-103.26917000"
   },
   {
      "name": "Ejido Ciénega de Mora",
      "countryCode": "MX",
      "stateCode": "JAL",
      "latitude": "21.50389000",
      "longitude": "-102.35000000"
   },
   {
      "name": "Ejido Modelo",
      "countryCode": "MX",
      "stateCode": "JAL",
      "latitude": "19.53750000",
      "longitude": "-104.51361000"
   },
   {
      "name": "Ejido Poblado Atenquique",
      "countryCode": "MX",
      "stateCode": "JAL",
      "latitude": "19.56639000",
      "longitude": "-103.51722000"
   },
   {
      "name": "Ejido Uno de Febrero",
      "countryCode": "MX",
      "stateCode": "JAL",
      "latitude": "19.81417000",
      "longitude": "-103.49139000"
   },
   {
      "name": "Ejutla",
      "countryCode": "MX",
      "stateCode": "JAL",
      "latitude": "19.90000000",
      "longitude": "-104.15000000"
   },
   {
      "name": "El Agostadero",
      "countryCode": "MX",
      "stateCode": "JAL",
      "latitude": "19.14493000",
      "longitude": "-103.38721000"
   },
   {
      "name": "El Aguacate",
      "countryCode": "MX",
      "stateCode": "JAL",
      "latitude": "20.70172000",
      "longitude": "-103.20799000"
   },
   {
      "name": "El Alto",
      "countryCode": "MX",
      "stateCode": "JAL",
      "latitude": "20.77472000",
      "longitude": "-102.49583000"
   },
   {
      "name": "El Amarillo",
      "countryCode": "MX",
      "stateCode": "JAL",
      "latitude": "20.91333000",
      "longitude": "-103.72500000"
   },
   {
      "name": "El Amarradero",
      "countryCode": "MX",
      "stateCode": "JAL",
      "latitude": "20.65306000",
      "longitude": "-102.01278000"
   },
   {
      "name": "El Arca",
      "countryCode": "MX",
      "stateCode": "JAL",
      "latitude": "20.37167000",
      "longitude": "-102.17611000"
   },
   {
      "name": "El Arco, Ameca",
      "countryCode": "MX",
      "stateCode": "JAL",
      "latitude": "20.60944000",
      "longitude": "-104.07333000"
   },
   {
      "name": "El Arenal",
      "countryCode": "MX",
      "stateCode": "JAL",
      "latitude": "20.77538000",
      "longitude": "-103.69353000"
   },
   {
      "name": "El Asoleadero",
      "countryCode": "MX",
      "stateCode": "JAL",
      "latitude": "21.36389000",
      "longitude": "-102.38222000"
   },
   {
      "name": "El Bajío",
      "countryCode": "MX",
      "stateCode": "JAL",
      "latitude": "21.37944000",
      "longitude": "-101.95028000"
   },
   {
      "name": "El Bajío Lomas del Club",
      "countryCode": "MX",
      "stateCode": "JAL",
      "latitude": "20.58361000",
      "longitude": "-103.29583000"
   },
   {
      "name": "El Bajío de Plascencia",
      "countryCode": "MX",
      "stateCode": "JAL",
      "latitude": "20.71583000",
      "longitude": "-102.79278000"
   },
   {
      "name": "El Banco del Venado",
      "countryCode": "MX",
      "stateCode": "JAL",
      "latitude": "21.85083000",
      "longitude": "-103.98722000"
   },
   {
      "name": "El Barrio",
      "countryCode": "MX",
      "stateCode": "JAL",
      "latitude": "21.40056000",
      "longitude": "-102.55444000"
   },
   {
      "name": "El Brillante Fraccionamiento",
      "countryCode": "MX",
      "stateCode": "JAL",
      "latitude": "20.55750000",
      "longitude": "-104.03194000"
   },
   {
      "name": "El Briseño",
      "countryCode": "MX",
      "stateCode": "JAL",
      "latitude": "20.23889000",
      "longitude": "-103.59500000"
   },
   {
      "name": "El Cabezón",
      "countryCode": "MX",
      "stateCode": "JAL",
      "latitude": "20.49569000",
      "longitude": "-103.95144000"
   },
   {
      "name": "El Cacalote",
      "countryCode": "MX",
      "stateCode": "JAL",
      "latitude": "19.84417000",
      "longitude": "-104.28083000"
   },
   {
      "name": "El Camichín",
      "countryCode": "MX",
      "stateCode": "JAL",
      "latitude": "19.64194000",
      "longitude": "-104.04452000"
   },
   {
      "name": "El Cantón",
      "countryCode": "MX",
      "stateCode": "JAL",
      "latitude": "20.74268000",
      "longitude": "-105.18052000"
   },
   {
      "name": "El Capulín de Chávez",
      "countryCode": "MX",
      "stateCode": "JAL",
      "latitude": "20.65806000",
      "longitude": "-102.20583000"
   },
   {
      "name": "El Carmen",
      "countryCode": "MX",
      "stateCode": "JAL",
      "latitude": "21.70111000",
      "longitude": "-101.99250000"
   },
   {
      "name": "El Carricillo",
      "countryCode": "MX",
      "stateCode": "JAL",
      "latitude": "20.73000000",
      "longitude": "-103.03056000"
   },
   {
      "name": "El Carrizal",
      "countryCode": "MX",
      "stateCode": "JAL",
      "latitude": "19.99750000",
      "longitude": "-103.38750000"
   },
   {
      "name": "El Cedazo",
      "countryCode": "MX",
      "stateCode": "JAL",
      "latitude": "20.70583000",
      "longitude": "-102.69222000"
   },
   {
      "name": "El Cerrito",
      "countryCode": "MX",
      "stateCode": "JAL",
      "latitude": "19.85394000",
      "longitude": "-103.93187000"
   },
   {
      "name": "El Cerro, Jalisco",
      "countryCode": "MX",
      "stateCode": "JAL",
      "latitude": "22.18639000",
      "longitude": "-103.39944000"
   },
   {
      "name": "El Chalate",
      "countryCode": "MX",
      "stateCode": "JAL",
      "latitude": "22.13556000",
      "longitude": "-104.27944000"
   },
   {
      "name": "El Chante",
      "countryCode": "MX",
      "stateCode": "JAL",
      "latitude": "19.71800000",
      "longitude": "-104.20025000"
   },
   {
      "name": "El Chaveño",
      "countryCode": "MX",
      "stateCode": "JAL",
      "latitude": "20.44056000",
      "longitude": "-102.31333000"
   },
   {
      "name": "El Chilar",
      "countryCode": "MX",
      "stateCode": "JAL",
      "latitude": "20.83667000",
      "longitude": "-103.29528000"
   },
   {
      "name": "El Chispeadero",
      "countryCode": "MX",
      "stateCode": "JAL",
      "latitude": "20.77083000",
      "longitude": "-102.80000000"
   },
   {
      "name": "El Chivatillo",
      "countryCode": "MX",
      "stateCode": "JAL",
      "latitude": "20.29733000",
      "longitude": "-103.78934000"
   },
   {
      "name": "El Coahuayote",
      "countryCode": "MX",
      "stateCode": "JAL",
      "latitude": "19.61028000",
      "longitude": "-103.35611000"
   },
   {
      "name": "El Colomo",
      "countryCode": "MX",
      "stateCode": "JAL",
      "latitude": "20.86962000",
      "longitude": "-105.15597000"
   },
   {
      "name": "El Colorado",
      "countryCode": "MX",
      "stateCode": "JAL",
      "latitude": "20.77029000",
      "longitude": "-105.15651000"
   },
   {
      "name": "El Columpio",
      "countryCode": "MX",
      "stateCode": "JAL",
      "latitude": "20.39861000",
      "longitude": "-105.31056000"
   },
   {
      "name": "El Conde",
      "countryCode": "MX",
      "stateCode": "JAL",
      "latitude": "20.38250000",
      "longitude": "-103.85389000"
   },
   {
      "name": "El Conejo",
      "countryCode": "MX",
      "stateCode": "JAL",
      "latitude": "21.46528000",
      "longitude": "-101.86944000"
   },
   {
      "name": "El Corcovado",
      "countryCode": "MX",
      "stateCode": "JAL",
      "latitude": "19.84525000",
      "longitude": "-104.28566000"
   },
   {
      "name": "El Cortijo",
      "countryCode": "MX",
      "stateCode": "JAL",
      "latitude": "20.46917000",
      "longitude": "-103.42194000"
   },
   {
      "name": "El Coyotillo",
      "countryCode": "MX",
      "stateCode": "JAL",
      "latitude": "20.94611000",
      "longitude": "-103.11250000"
   },
   {
      "name": "El Crucero",
      "countryCode": "MX",
      "stateCode": "JAL",
      "latitude": "20.73306000",
      "longitude": "-103.60333000"
   },
   {
      "name": "El Crucero de Arandas",
      "countryCode": "MX",
      "stateCode": "JAL",
      "latitude": "20.88861000",
      "longitude": "-102.70972000"
   },
   {
      "name": "El Crucero de Santa María",
      "countryCode": "MX",
      "stateCode": "JAL",
      "latitude": "20.38398611",
      "longitude": "-103.86053333"
   },
   {
      "name": "El Cuatro",
      "countryCode": "MX",
      "stateCode": "JAL",
      "latitude": "20.85611000",
      "longitude": "-103.02583000"
   },
   {
      "name": "El Derramadero",
      "countryCode": "MX",
      "stateCode": "JAL",
      "latitude": "21.00417000",
      "longitude": "-102.97472000"
   },
   {
      "name": "El Dique",
      "countryCode": "MX",
      "stateCode": "JAL",
      "latitude": "20.45694000",
      "longitude": "-102.73861000"
   },
   {
      "name": "El Fraile",
      "countryCode": "MX",
      "stateCode": "JAL",
      "latitude": "22.26646000",
      "longitude": "-103.23881000"
   },
   {
      "name": "El Gato",
      "countryCode": "MX",
      "stateCode": "JAL",
      "latitude": "20.60444000",
      "longitude": "-102.89722000"
   },
   {
      "name": "El Grullo Municipality",
      "countryCode": "MX",
      "stateCode": "JAL",
      "latitude": "19.79388889",
      "longitude": "-104.20166667"
   },
   {
      "name": "El Hollejo",
      "countryCode": "MX",
      "stateCode": "JAL",
      "latitude": "20.63750000",
      "longitude": "-104.50389000"
   },
   {
      "name": "El Huiroche",
      "countryCode": "MX",
      "stateCode": "JAL",
      "latitude": "21.77722000",
      "longitude": "-102.00583000"
   },
   {
      "name": "El Jabalí",
      "countryCode": "MX",
      "stateCode": "JAL",
      "latitude": "20.46583000",
      "longitude": "-102.97528000"
   },
   {
      "name": "El Jagüey",
      "countryCode": "MX",
      "stateCode": "JAL",
      "latitude": "20.92889000",
      "longitude": "-103.19611000"
   },
   {
      "name": "El Jaral",
      "countryCode": "MX",
      "stateCode": "JAL",
      "latitude": "21.17444000",
      "longitude": "-101.97139000"
   },
   {
      "name": "El Jaralillo",
      "countryCode": "MX",
      "stateCode": "JAL",
      "latitude": "21.64056000",
      "longitude": "-102.27278000"
   },
   {
      "name": "El Jaralito",
      "countryCode": "MX",
      "stateCode": "JAL",
      "latitude": "21.44389000",
      "longitude": "-101.80556000"
   },
   {
      "name": "El Jardín",
      "countryCode": "MX",
      "stateCode": "JAL",
      "latitude": "19.77528000",
      "longitude": "-103.89667000"
   },
   {
      "name": "El Jazmín",
      "countryCode": "MX",
      "stateCode": "JAL",
      "latitude": "19.65344000",
      "longitude": "-103.71006000"
   },
   {
      "name": "El Jomate",
      "countryCode": "MX",
      "stateCode": "JAL",
      "latitude": "21.81278000",
      "longitude": "-104.16111000"
   },
   {
      "name": "El Laurel",
      "countryCode": "MX",
      "stateCode": "JAL",
      "latitude": "20.63194000",
      "longitude": "-102.38889000"
   },
   {
      "name": "El Lazo",
      "countryCode": "MX",
      "stateCode": "JAL",
      "latitude": "20.79639000",
      "longitude": "-103.32806000"
   },
   {
      "name": "El Limón",
      "countryCode": "MX",
      "stateCode": "JAL",
      "latitude": "19.75000000",
      "longitude": "-104.01666667"
   },
   {
      "name": "El Llano de Barajas",
      "countryCode": "MX",
      "stateCode": "JAL",
      "latitude": "20.87583000",
      "longitude": "-103.03722000"
   },
   {
      "name": "El Llano de Plascencia",
      "countryCode": "MX",
      "stateCode": "JAL",
      "latitude": "20.92889000",
      "longitude": "-103.09917000"
   },
   {
      "name": "El Llano de los Toros",
      "countryCode": "MX",
      "stateCode": "JAL",
      "latitude": "19.93500000",
      "longitude": "-103.00944000"
   },
   {
      "name": "El Lobo",
      "countryCode": "MX",
      "stateCode": "JAL",
      "latitude": "21.17361000",
      "longitude": "-101.79361000"
   },
   {
      "name": "El Lopeño",
      "countryCode": "MX",
      "stateCode": "JAL",
      "latitude": "20.39639000",
      "longitude": "-102.56139000"
   },
   {
      "name": "El Loreto Occidental",
      "countryCode": "MX",
      "stateCode": "JAL",
      "latitude": "20.34222000",
      "longitude": "-102.47093000"
   },
   {
      "name": "El Macuchi",
      "countryCode": "MX",
      "stateCode": "JAL",
      "latitude": "20.37882000",
      "longitude": "-104.26388000"
   },
   {
      "name": "El Maestranzo",
      "countryCode": "MX",
      "stateCode": "JAL",
      "latitude": "20.72444000",
      "longitude": "-103.14528000"
   },
   {
      "name": "El Manantial",
      "countryCode": "MX",
      "stateCode": "JAL",
      "latitude": "20.52694000",
      "longitude": "-103.35750000"
   },
   {
      "name": "El Mastranzo",
      "countryCode": "MX",
      "stateCode": "JAL",
      "latitude": "20.88917000",
      "longitude": "-102.39528000"
   },
   {
      "name": "El Mayoral de Abajo",
      "countryCode": "MX",
      "stateCode": "JAL",
      "latitude": "21.21056000",
      "longitude": "-102.45222000"
   },
   {
      "name": "El Medineño",
      "countryCode": "MX",
      "stateCode": "JAL",
      "latitude": "20.86722000",
      "longitude": "-103.77917000"
   },
   {
      "name": "El Mentidero",
      "countryCode": "MX",
      "stateCode": "JAL",
      "latitude": "19.77070000",
      "longitude": "-104.29313000"
   },
   {
      "name": "El Mesoncito",
      "countryCode": "MX",
      "stateCode": "JAL",
      "latitude": "21.41583000",
      "longitude": "-101.85250000"
   },
   {
      "name": "El Mezquite Grande",
      "countryCode": "MX",
      "stateCode": "JAL",
      "latitude": "20.68611000",
      "longitude": "-103.12583000"
   },
   {
      "name": "El Mirador",
      "countryCode": "MX",
      "stateCode": "JAL",
      "latitude": "21.16722000",
      "longitude": "-102.87111000"
   },
   {
      "name": "El Molino",
      "countryCode": "MX",
      "stateCode": "JAL",
      "latitude": "22.01750000",
      "longitude": "-101.85389000"
   },
   {
      "name": "El Moral",
      "countryCode": "MX",
      "stateCode": "JAL",
      "latitude": "19.92667000",
      "longitude": "-102.93750000"
   },
   {
      "name": "El Muey",
      "countryCode": "MX",
      "stateCode": "JAL",
      "latitude": "20.50278000",
      "longitude": "-103.22083000"
   },
   {
      "name": "El Nacimiento",
      "countryCode": "MX",
      "stateCode": "JAL",
      "latitude": "20.53828000",
      "longitude": "-102.55107000"
   },
   {
      "name": "El Nacimiento de Abajo",
      "countryCode": "MX",
      "stateCode": "JAL",
      "latitude": "20.65361000",
      "longitude": "-102.28444000"
   },
   {
      "name": "El Naranjo",
      "countryCode": "MX",
      "stateCode": "JAL",
      "latitude": "20.53417000",
      "longitude": "-104.06028000"
   },
   {
      "name": "El Nuevo Poblado",
      "countryCode": "MX",
      "stateCode": "JAL",
      "latitude": "19.52778000",
      "longitude": "-103.40111000"
   },
   {
      "name": "El Ocote",
      "countryCode": "MX",
      "stateCode": "JAL",
      "latitude": "20.74028000",
      "longitude": "-102.51556000"
   },
   {
      "name": "El Ocotillo",
      "countryCode": "MX",
      "stateCode": "JAL",
      "latitude": "20.60306000",
      "longitude": "-103.20722000"
   },
   {
      "name": "El Ojo de Agua",
      "countryCode": "MX",
      "stateCode": "JAL",
      "latitude": "20.66361000",
      "longitude": "-102.35500000"
   },
   {
      "name": "El Ojuelo",
      "countryCode": "MX",
      "stateCode": "JAL",
      "latitude": "21.40167000",
      "longitude": "-101.83750000"
   },
   {
      "name": "El Olvido",
      "countryCode": "MX",
      "stateCode": "JAL",
      "latitude": "20.96583000",
      "longitude": "-103.65556000"
   },
   {
      "name": "El Padre Juan",
      "countryCode": "MX",
      "stateCode": "JAL",
      "latitude": "21.36000000",
      "longitude": "-102.36583000"
   },
   {
      "name": "El Palmar de San Antonio",
      "countryCode": "MX",
      "stateCode": "JAL",
      "latitude": "19.89083000",
      "longitude": "-104.03972000"
   },
   {
      "name": "El Pantano",
      "countryCode": "MX",
      "stateCode": "JAL",
      "latitude": "20.58000000",
      "longitude": "-104.75472000"
   },
   {
      "name": "El Paso Real",
      "countryCode": "MX",
      "stateCode": "JAL",
      "latitude": "19.60457000",
      "longitude": "-103.95977000"
   },
   {
      "name": "El Pino",
      "countryCode": "MX",
      "stateCode": "JAL",
      "latitude": "20.57667000",
      "longitude": "-103.39389000"
   },
   {
      "name": "El Plan",
      "countryCode": "MX",
      "stateCode": "JAL",
      "latitude": "20.41836000",
      "longitude": "-103.60667000"
   },
   {
      "name": "El Platanar",
      "countryCode": "MX",
      "stateCode": "JAL",
      "latitude": "20.44387000",
      "longitude": "-103.05006000"
   },
   {
      "name": "El Pochote",
      "countryCode": "MX",
      "stateCode": "JAL",
      "latitude": "20.81778000",
      "longitude": "-102.80639000"
   },
   {
      "name": "El Popote",
      "countryCode": "MX",
      "stateCode": "JAL",
      "latitude": "21.91639000",
      "longitude": "-104.16972000"
   },
   {
      "name": "El Portezuelo",
      "countryCode": "MX",
      "stateCode": "JAL",
      "latitude": "20.60004000",
      "longitude": "-104.04624000"
   },
   {
      "name": "El Porvenir",
      "countryCode": "MX",
      "stateCode": "JAL",
      "latitude": "20.75379000",
      "longitude": "-105.24196000"
   },
   {
      "name": "El Pozo Santo",
      "countryCode": "MX",
      "stateCode": "JAL",
      "latitude": "19.32611000",
      "longitude": "-103.38611000"
   },
   {
      "name": "El Pueblito",
      "countryCode": "MX",
      "stateCode": "JAL",
      "latitude": "21.46250000",
      "longitude": "-102.46056000"
   },
   {
      "name": "El Puente",
      "countryCode": "MX",
      "stateCode": "JAL",
      "latitude": "21.76389000",
      "longitude": "-102.02306000"
   },
   {
      "name": "El Puerto",
      "countryCode": "MX",
      "stateCode": "JAL",
      "latitude": "20.49222000",
      "longitude": "-103.45944000"
   },
   {
      "name": "El Puerto de Amolero",
      "countryCode": "MX",
      "stateCode": "JAL",
      "latitude": "20.96639000",
      "longitude": "-102.12889000"
   },
   {
      "name": "El Puesto",
      "countryCode": "MX",
      "stateCode": "JAL",
      "latitude": "21.62448000",
      "longitude": "-101.96540000"
   },
   {
      "name": "El Quemado",
      "countryCode": "MX",
      "stateCode": "JAL",
      "latitude": "20.79639000",
      "longitude": "-103.42722000"
   },
   {
      "name": "El Quince",
      "countryCode": "MX",
      "stateCode": "JAL",
      "latitude": "20.54388000",
      "longitude": "-103.28467000"
   },
   {
      "name": "El Ranchito",
      "countryCode": "MX",
      "stateCode": "JAL",
      "latitude": "20.07806000",
      "longitude": "-103.86861000"
   },
   {
      "name": "El Rayo",
      "countryCode": "MX",
      "stateCode": "JAL",
      "latitude": "19.38083000",
      "longitude": "-103.16028000"
   },
   {
      "name": "El Rebalse",
      "countryCode": "MX",
      "stateCode": "JAL",
      "latitude": "19.18750000",
      "longitude": "-104.59352000"
   },
   {
      "name": "El Rebalsito de Apazulco",
      "countryCode": "MX",
      "stateCode": "JAL",
      "latitude": "19.30556000",
      "longitude": "-104.88667000"
   },
   {
      "name": "El Refugio",
      "countryCode": "MX",
      "stateCode": "JAL",
      "latitude": "20.12231000",
      "longitude": "-103.14516000"
   },
   {
      "name": "El Refugio Suchitlán",
      "countryCode": "MX",
      "stateCode": "JAL",
      "latitude": "20.44333000",
      "longitude": "-105.54583000"
   },
   {
      "name": "El Refugio de Vázquez",
      "countryCode": "MX",
      "stateCode": "JAL",
      "latitude": "20.39806000",
      "longitude": "-102.19306000"
   },
   {
      "name": "El Refugio de los Altos",
      "countryCode": "MX",
      "stateCode": "JAL",
      "latitude": "20.63083000",
      "longitude": "-102.57944000"
   },
   {
      "name": "El Refugio, Jalisco",
      "countryCode": "MX",
      "stateCode": "JAL",
      "latitude": "20.11670000",
      "longitude": "-103.13300000"
   },
   {
      "name": "El Reparo",
      "countryCode": "MX",
      "stateCode": "JAL",
      "latitude": "21.79028000",
      "longitude": "-102.04944000"
   },
   {
      "name": "El Rincón",
      "countryCode": "MX",
      "stateCode": "JAL",
      "latitude": "19.34083000",
      "longitude": "-103.08972000"
   },
   {
      "name": "El Rodeo",
      "countryCode": "MX",
      "stateCode": "JAL",
      "latitude": "19.58194000",
      "longitude": "-103.18611000"
   },
   {
      "name": "El Rodeo Viejo",
      "countryCode": "MX",
      "stateCode": "JAL",
      "latitude": "20.20417000",
      "longitude": "-103.86500000"
   },
   {
      "name": "El Romereño",
      "countryCode": "MX",
      "stateCode": "JAL",
      "latitude": "20.38083000",
      "longitude": "-102.94944000"
   },
   {
      "name": "El Rosario",
      "countryCode": "MX",
      "stateCode": "JAL",
      "latitude": "21.04528000",
      "longitude": "-102.58944000"
   },
   {
      "name": "El Sabino",
      "countryCode": "MX",
      "stateCode": "JAL",
      "latitude": "22.61528000",
      "longitude": "-103.90389000"
   },
   {
      "name": "El Sacrificio",
      "countryCode": "MX",
      "stateCode": "JAL",
      "latitude": "20.40806000",
      "longitude": "-103.19667000"
   },
   {
      "name": "El Salero",
      "countryCode": "MX",
      "stateCode": "JAL",
      "latitude": "20.76250000",
      "longitude": "-102.50917000"
   },
   {
      "name": "El Salitre",
      "countryCode": "MX",
      "stateCode": "JAL",
      "latitude": "20.51000000",
      "longitude": "-103.85800000"
   },
   {
      "name": "El Salto",
      "countryCode": "MX",
      "stateCode": "JAL",
      "latitude": "20.33333000",
      "longitude": "-104.50000000"
   },
   {
      "name": "El Salto Municipality",
      "countryCode": "MX",
      "stateCode": "JAL",
      "latitude": "20.51666667",
      "longitude": "-103.18333333"
   },
   {
      "name": "El Salto de San Antonio",
      "countryCode": "MX",
      "stateCode": "JAL",
      "latitude": "21.17833000",
      "longitude": "-101.82389000"
   },
   {
      "name": "El Salto de las Peñas",
      "countryCode": "MX",
      "stateCode": "JAL",
      "latitude": "20.65250000",
      "longitude": "-103.04222000"
   },
   {
      "name": "El Salvador",
      "countryCode": "MX",
      "stateCode": "JAL",
      "latitude": "21.01659000",
      "longitude": "-103.71568000"
   },
   {
      "name": "El Salvial",
      "countryCode": "MX",
      "stateCode": "JAL",
      "latitude": "20.83917000",
      "longitude": "-103.26306000"
   },
   {
      "name": "El Saucillo",
      "countryCode": "MX",
      "stateCode": "JAL",
      "latitude": "20.31389000",
      "longitude": "-103.91333000"
   },
   {
      "name": "El Saucillo de los Pérez",
      "countryCode": "MX",
      "stateCode": "JAL",
      "latitude": "22.02861000",
      "longitude": "-103.23444000"
   },
   {
      "name": "El Saucito",
      "countryCode": "MX",
      "stateCode": "JAL",
      "latitude": "20.73194000",
      "longitude": "-102.50889000"
   },
   {
      "name": "El Sauz de Ibarra",
      "countryCode": "MX",
      "stateCode": "JAL",
      "latitude": "21.33083000",
      "longitude": "-102.23222000"
   },
   {
      "name": "El Seminario",
      "countryCode": "MX",
      "stateCode": "JAL",
      "latitude": "21.27333000",
      "longitude": "-102.30806000"
   },
   {
      "name": "El Sitio",
      "countryCode": "MX",
      "stateCode": "JAL",
      "latitude": "21.33306000",
      "longitude": "-102.04056000"
   },
   {
      "name": "El Sopial",
      "countryCode": "MX",
      "stateCode": "JAL",
      "latitude": "20.58278000",
      "longitude": "-102.62806000"
   },
   {
      "name": "El Soyate",
      "countryCode": "MX",
      "stateCode": "JAL",
      "latitude": "21.50667000",
      "longitude": "-101.89250000"
   },
   {
      "name": "El Tablero",
      "countryCode": "MX",
      "stateCode": "JAL",
      "latitude": "21.47472000",
      "longitude": "-102.41639000"
   },
   {
      "name": "El Taray",
      "countryCode": "MX",
      "stateCode": "JAL",
      "latitude": "19.62361000",
      "longitude": "-103.26806000"
   },
   {
      "name": "El Tarengo Nuevo",
      "countryCode": "MX",
      "stateCode": "JAL",
      "latitude": "20.43121000",
      "longitude": "-102.49508000"
   },
   {
      "name": "El Tecolote",
      "countryCode": "MX",
      "stateCode": "JAL",
      "latitude": "21.20056000",
      "longitude": "-102.24583000"
   },
   {
      "name": "El Tecuán",
      "countryCode": "MX",
      "stateCode": "JAL",
      "latitude": "20.31389000",
      "longitude": "-103.73083000"
   },
   {
      "name": "El Tempisque",
      "countryCode": "MX",
      "stateCode": "JAL",
      "latitude": "20.77861000",
      "longitude": "-103.32667000"
   },
   {
      "name": "El Tepame",
      "countryCode": "MX",
      "stateCode": "JAL",
      "latitude": "20.56972000",
      "longitude": "-103.19444000"
   },
   {
      "name": "El Tepec",
      "countryCode": "MX",
      "stateCode": "JAL",
      "latitude": "21.84111000",
      "longitude": "-103.77389000"
   },
   {
      "name": "El Tepetate",
      "countryCode": "MX",
      "stateCode": "JAL",
      "latitude": "21.06472000",
      "longitude": "-103.77333000"
   },
   {
      "name": "El Tepozán",
      "countryCode": "MX",
      "stateCode": "JAL",
      "latitude": "20.79194000",
      "longitude": "-102.52917000"
   },
   {
      "name": "El Tequesquite",
      "countryCode": "MX",
      "stateCode": "JAL",
      "latitude": "20.06613000",
      "longitude": "-105.30064000"
   },
   {
      "name": "El Terrerito de Sevilla",
      "countryCode": "MX",
      "stateCode": "JAL",
      "latitude": "20.45417000",
      "longitude": "-102.08000000"
   },
   {
      "name": "El Terrero",
      "countryCode": "MX",
      "stateCode": "JAL",
      "latitude": "19.29917000",
      "longitude": "-102.87806000"
   },
   {
      "name": "El Torque",
      "countryCode": "MX",
      "stateCode": "JAL",
      "latitude": "21.37056000",
      "longitude": "-102.36667000"
   },
   {
      "name": "El Torreón",
      "countryCode": "MX",
      "stateCode": "JAL",
      "latitude": "21.78583000",
      "longitude": "-102.00139000"
   },
   {
      "name": "El Tuito",
      "countryCode": "MX",
      "stateCode": "JAL",
      "latitude": "20.32042000",
      "longitude": "-105.32469000"
   },
   {
      "name": "El Tule",
      "countryCode": "MX",
      "stateCode": "JAL",
      "latitude": "20.71667000",
      "longitude": "-102.44083000"
   },
   {
      "name": "El Tulillo",
      "countryCode": "MX",
      "stateCode": "JAL",
      "latitude": "21.20472000",
      "longitude": "-102.90222000"
   },
   {
      "name": "El Uvalano",
      "countryCode": "MX",
      "stateCode": "JAL",
      "latitude": "20.43861000",
      "longitude": "-102.79028000"
   },
   {
      "name": "El Verde",
      "countryCode": "MX",
      "stateCode": "JAL",
      "latitude": "20.55567000",
      "longitude": "-103.27901000"
   },
   {
      "name": "El Vergel",
      "countryCode": "MX",
      "stateCode": "JAL",
      "latitude": "21.62139000",
      "longitude": "-102.30639000"
   },
   {
      "name": "El Vigía",
      "countryCode": "MX",
      "stateCode": "JAL",
      "latitude": "19.50417000",
      "longitude": "-104.29639000"
   },
   {
      "name": "El Zancudo",
      "countryCode": "MX",
      "stateCode": "JAL",
      "latitude": "20.77972000",
      "longitude": "-105.15333000"
   },
   {
      "name": "El Zapatero",
      "countryCode": "MX",
      "stateCode": "JAL",
      "latitude": "19.86778000",
      "longitude": "-103.07556000"
   },
   {
      "name": "El Zapote",
      "countryCode": "MX",
      "stateCode": "JAL",
      "latitude": "21.11257000",
      "longitude": "-102.80555000"
   },
   {
      "name": "El Zapote de Chávez",
      "countryCode": "MX",
      "stateCode": "JAL",
      "latitude": "20.21972000",
      "longitude": "-104.32639000"
   },
   {
      "name": "El Zapotillo",
      "countryCode": "MX",
      "stateCode": "JAL",
      "latitude": "19.96611000",
      "longitude": "-104.39889000"
   },
   {
      "name": "Emiliano Zapata",
      "countryCode": "MX",
      "stateCode": "JAL",
      "latitude": "19.24278000",
      "longitude": "-104.71778000"
   },
   {
      "name": "Emiliano Zapata, Jalisco",
      "countryCode": "MX",
      "stateCode": "JAL",
      "latitude": "19.38305556",
      "longitude": "-104.96583333"
   },
   {
      "name": "Encarnación de Díaz",
      "countryCode": "MX",
      "stateCode": "JAL",
      "latitude": "21.51666667",
      "longitude": "-102.23333333"
   },
   {
      "name": "Epeche Chico",
      "countryCode": "MX",
      "stateCode": "JAL",
      "latitude": "19.93917000",
      "longitude": "-103.01972000"
   },
   {
      "name": "Epeche Grande",
      "countryCode": "MX",
      "stateCode": "JAL",
      "latitude": "19.92333000",
      "longitude": "-103.10667000"
   },
   {
      "name": "Estancia Vieja de Arriba",
      "countryCode": "MX",
      "stateCode": "JAL",
      "latitude": "21.16722000",
      "longitude": "-102.32389000"
   },
   {
      "name": "Estancia de San Nicolás",
      "countryCode": "MX",
      "stateCode": "JAL",
      "latitude": "20.38417000",
      "longitude": "-102.83750000"
   },
   {
      "name": "Estanzuela",
      "countryCode": "MX",
      "stateCode": "JAL",
      "latitude": "20.52306000",
      "longitude": "-104.34000000"
   },
   {
      "name": "Estipa",
      "countryCode": "MX",
      "stateCode": "JAL",
      "latitude": "20.36199000",
      "longitude": "-103.72345000"
   },
   {
      "name": "Etzatlán Municipality",
      "countryCode": "MX",
      "stateCode": "JAL",
      "latitude": "20.76666667",
      "longitude": "-104.08333333"
   },
   {
      "name": "Ferrería de Tula",
      "countryCode": "MX",
      "stateCode": "JAL",
      "latitude": "20.06529000",
      "longitude": "-103.72980000"
   },
   {
      "name": "Francisco I. Madero",
      "countryCode": "MX",
      "stateCode": "JAL",
      "latitude": "19.56000000",
      "longitude": "-104.55917000"
   },
   {
      "name": "Francisco Primo de Verdad",
      "countryCode": "MX",
      "stateCode": "JAL",
      "latitude": "21.74472000",
      "longitude": "-101.82611000"
   },
   {
      "name": "Galaxia Bonito Jalisco",
      "countryCode": "MX",
      "stateCode": "JAL",
      "latitude": "20.50500000",
      "longitude": "-103.20472000"
   },
   {
      "name": "Galaxia la Noria",
      "countryCode": "MX",
      "stateCode": "JAL",
      "latitude": "20.45722000",
      "longitude": "-103.41889000"
   },
   {
      "name": "Gargantillo",
      "countryCode": "MX",
      "stateCode": "JAL",
      "latitude": "20.01747000",
      "longitude": "-105.34619000"
   },
   {
      "name": "General Andrés Figueroa",
      "countryCode": "MX",
      "stateCode": "JAL",
      "latitude": "20.30396000",
      "longitude": "-103.60923000"
   },
   {
      "name": "General Gabriel Leyva",
      "countryCode": "MX",
      "stateCode": "JAL",
      "latitude": "20.42889000",
      "longitude": "-102.47111000"
   },
   {
      "name": "Geovillas Laureles del Campanario",
      "countryCode": "MX",
      "stateCode": "JAL",
      "latitude": "21.33056000",
      "longitude": "-101.92361000"
   },
   {
      "name": "Getsemaní",
      "countryCode": "MX",
      "stateCode": "JAL",
      "latitude": "20.72778000",
      "longitude": "-105.20639000"
   },
   {
      "name": "Granadillas",
      "countryCode": "MX",
      "stateCode": "JAL",
      "latitude": "21.37972000",
      "longitude": "-101.90139000"
   },
   {
      "name": "Guachinango",
      "countryCode": "MX",
      "stateCode": "JAL",
      "latitude": "20.56700000",
      "longitude": "-104.36700000"
   },
   {
      "name": "Guadalajara",
      "countryCode": "MX",
      "stateCode": "JAL",
      "latitude": "20.67666667",
      "longitude": "-103.34750000"
   },
   {
      "name": "Guadalupe Victoria",
      "countryCode": "MX",
      "stateCode": "JAL",
      "latitude": "21.70106000",
      "longitude": "-101.61778000"
   },
   {
      "name": "Guadalupe de Lerma",
      "countryCode": "MX",
      "stateCode": "JAL",
      "latitude": "20.34077000",
      "longitude": "-102.36090000"
   },
   {
      "name": "Guamuchilillo",
      "countryCode": "MX",
      "stateCode": "JAL",
      "latitude": "22.05028000",
      "longitude": "-104.31583000"
   },
   {
      "name": "Guayabitos",
      "countryCode": "MX",
      "stateCode": "JAL",
      "latitude": "20.42611000",
      "longitude": "-104.73111000"
   },
   {
      "name": "Gómez Farías Municipality",
      "countryCode": "MX",
      "stateCode": "JAL",
      "latitude": "19.80000000",
      "longitude": "-103.48333333"
   },
   {
      "name": "Hacienda Santa Fe",
      "countryCode": "MX",
      "stateCode": "JAL",
      "latitude": "20.51806000",
      "longitude": "-103.38056000"
   },
   {
      "name": "Hacienda Vieja",
      "countryCode": "MX",
      "stateCode": "JAL",
      "latitude": "19.60083000",
      "longitude": "-103.21444000"
   },
   {
      "name": "Hacienda Vieja del Castillo",
      "countryCode": "MX",
      "stateCode": "JAL",
      "latitude": "20.54000000",
      "longitude": "-103.24417000"
   },
   {
      "name": "Hacienda de la Labor",
      "countryCode": "MX",
      "stateCode": "JAL",
      "latitude": "20.31639000",
      "longitude": "-103.17333000"
   },
   {
      "name": "Hacienda los Fresnos",
      "countryCode": "MX",
      "stateCode": "JAL",
      "latitude": "20.51944000",
      "longitude": "-103.39306000"
   },
   {
      "name": "Haciendas la Herradura",
      "countryCode": "MX",
      "stateCode": "JAL",
      "latitude": "20.77250000",
      "longitude": "-103.60861000"
   },
   {
      "name": "Hierba de Matancillas",
      "countryCode": "MX",
      "stateCode": "JAL",
      "latitude": "21.86528000",
      "longitude": "-101.67333000"
   },
   {
      "name": "Higueras San Miguel",
      "countryCode": "MX",
      "stateCode": "JAL",
      "latitude": "19.59472000",
      "longitude": "-103.17944000"
   },
   {
      "name": "Higuerillas",
      "countryCode": "MX",
      "stateCode": "JAL",
      "latitude": "20.76083000",
      "longitude": "-102.47417000"
   },
   {
      "name": "Hostotipaquillo",
      "countryCode": "MX",
      "stateCode": "JAL",
      "latitude": "21.06035000",
      "longitude": "-104.05091000"
   },
   {
      "name": "Huajacatlán",
      "countryCode": "MX",
      "stateCode": "JAL",
      "latitude": "21.04444000",
      "longitude": "-103.95222000"
   },
   {
      "name": "Huascato",
      "countryCode": "MX",
      "stateCode": "JAL",
      "latitude": "20.47951000",
      "longitude": "-102.24806000"
   },
   {
      "name": "Huaxtla",
      "countryCode": "MX",
      "stateCode": "JAL",
      "latitude": "20.73179000",
      "longitude": "-103.66291000"
   },
   {
      "name": "Huejotitlán",
      "countryCode": "MX",
      "stateCode": "JAL",
      "latitude": "20.65694000",
      "longitude": "-103.04222000"
   },
   {
      "name": "Huejotitán",
      "countryCode": "MX",
      "stateCode": "JAL",
      "latitude": "20.35524000",
      "longitude": "-103.48742000"
   },
   {
      "name": "Huejuquilla El Alto Municipality",
      "countryCode": "MX",
      "stateCode": "JAL",
      "latitude": "22.61666667",
      "longitude": "-103.88333333"
   },
   {
      "name": "Huejúcar",
      "countryCode": "MX",
      "stateCode": "JAL",
      "latitude": "22.33409000",
      "longitude": "-103.25253000"
   },
   {
      "name": "Huertas Familiares San Pedro",
      "countryCode": "MX",
      "stateCode": "JAL",
      "latitude": "21.32750000",
      "longitude": "-101.97444000"
   },
   {
      "name": "Huisichi",
      "countryCode": "MX",
      "stateCode": "JAL",
      "latitude": "19.56611000",
      "longitude": "-103.86556000"
   },
   {
      "name": "Huitzometl",
      "countryCode": "MX",
      "stateCode": "JAL",
      "latitude": "19.51000000",
      "longitude": "-103.75250000"
   },
   {
      "name": "Huizaches",
      "countryCode": "MX",
      "stateCode": "JAL",
      "latitude": "19.17167000",
      "longitude": "-103.49000000"
   },
   {
      "name": "IPROVIPE I",
      "countryCode": "MX",
      "stateCode": "JAL",
      "latitude": "20.88639000",
      "longitude": "-103.82444000"
   },
   {
      "name": "Ipazoltic",
      "countryCode": "MX",
      "stateCode": "JAL",
      "latitude": "20.43330000",
      "longitude": "-103.98300000"
   },
   {
      "name": "Ixtapa",
      "countryCode": "MX",
      "stateCode": "JAL",
      "latitude": "20.71623000",
      "longitude": "-105.20408000"
   },
   {
      "name": "Ixtlahuacán de los Membrillos",
      "countryCode": "MX",
      "stateCode": "JAL",
      "latitude": "20.34666667",
      "longitude": "-103.19138889"
   },
   {
      "name": "Ixtlahuacán del Río",
      "countryCode": "MX",
      "stateCode": "JAL",
      "latitude": "20.86666667",
      "longitude": "-103.25000000"
   },
   {
      "name": "Izolta",
      "countryCode": "MX",
      "stateCode": "JAL",
      "latitude": "22.01000000",
      "longitude": "-103.74639000"
   },
   {
      "name": "J. Isabel Flores",
      "countryCode": "MX",
      "stateCode": "JAL",
      "latitude": "20.63750000",
      "longitude": "-103.07806000"
   },
   {
      "name": "Jalostotitlan",
      "countryCode": "MX",
      "stateCode": "JAL",
      "latitude": "21.16741000",
      "longitude": "-102.46386000"
   },
   {
      "name": "Jaluco",
      "countryCode": "MX",
      "stateCode": "JAL",
      "latitude": "19.23089000",
      "longitude": "-104.68527000"
   },
   {
      "name": "Jamay",
      "countryCode": "MX",
      "stateCode": "JAL",
      "latitude": "20.29444444",
      "longitude": "-102.70972222"
   },
   {
      "name": "Jardines de San Sebastián",
      "countryCode": "MX",
      "stateCode": "JAL",
      "latitude": "20.51889000",
      "longitude": "-103.42222000"
   },
   {
      "name": "Jardines del Edén",
      "countryCode": "MX",
      "stateCode": "JAL",
      "latitude": "20.53250000",
      "longitude": "-103.36278000"
   },
   {
      "name": "Jaritas",
      "countryCode": "MX",
      "stateCode": "JAL",
      "latitude": "21.31167000",
      "longitude": "-101.99750000"
   },
   {
      "name": "Jesús María",
      "countryCode": "MX",
      "stateCode": "JAL",
      "latitude": "20.66666667",
      "longitude": "-103.35027778"
   },
   {
      "name": "Jesús María, Nayarit",
      "countryCode": "MX",
      "stateCode": "JAL",
      "latitude": "20.66667000",
      "longitude": "-104.26670000"
   },
   {
      "name": "Jilotlán de los Dolores",
      "countryCode": "MX",
      "stateCode": "JAL",
      "latitude": "19.37083333",
      "longitude": "-103.01972222"
   },
   {
      "name": "Jiquilpan",
      "countryCode": "MX",
      "stateCode": "JAL",
      "latitude": "19.77889000",
      "longitude": "-103.77895000"
   },
   {
      "name": "Joconoxtle",
      "countryCode": "MX",
      "stateCode": "JAL",
      "latitude": "20.45222000",
      "longitude": "-102.67639000"
   },
   {
      "name": "Jocotepec",
      "countryCode": "MX",
      "stateCode": "JAL",
      "latitude": "20.16666667",
      "longitude": "-103.28333333"
   },
   {
      "name": "Josefa Ortíz de Domínguez",
      "countryCode": "MX",
      "stateCode": "JAL",
      "latitude": "20.90000000",
      "longitude": "-103.83306000"
   },
   {
      "name": "José María Pino Suárez",
      "countryCode": "MX",
      "stateCode": "JAL",
      "latitude": "19.94889000",
      "longitude": "-105.32778000"
   },
   {
      "name": "José de Jesús Aguirre, Teocaltiche",
      "countryCode": "MX",
      "stateCode": "JAL",
      "latitude": "21.52167000",
      "longitude": "-102.47139000"
   },
   {
      "name": "Juan Gil Preciado",
      "countryCode": "MX",
      "stateCode": "JAL",
      "latitude": "20.37269000",
      "longitude": "-103.72752000"
   },
   {
      "name": "Juanacatlán",
      "countryCode": "MX",
      "stateCode": "JAL",
      "latitude": "20.50000000",
      "longitude": "-103.16666667"
   },
   {
      "name": "La Alameda",
      "countryCode": "MX",
      "stateCode": "JAL",
      "latitude": "20.49528000",
      "longitude": "-103.24833000"
   },
   {
      "name": "La Aldaba",
      "countryCode": "MX",
      "stateCode": "JAL",
      "latitude": "19.74964000",
      "longitude": "-104.23306000"
   },
   {
      "name": "La Angostura de los Altos",
      "countryCode": "MX",
      "stateCode": "JAL",
      "latitude": "20.56194000",
      "longitude": "-102.43500000"
   },
   {
      "name": "La Arbolada Plus",
      "countryCode": "MX",
      "stateCode": "JAL",
      "latitude": "20.53694000",
      "longitude": "-103.36389000"
   },
   {
      "name": "La Barca",
      "countryCode": "MX",
      "stateCode": "JAL",
      "latitude": "20.28333333",
      "longitude": "-102.56666667"
   },
   {
      "name": "La Barranca",
      "countryCode": "MX",
      "stateCode": "JAL",
      "latitude": "20.51639000",
      "longitude": "-103.07306000"
   },
   {
      "name": "La Calera",
      "countryCode": "MX",
      "stateCode": "JAL",
      "latitude": "21.49694000",
      "longitude": "-102.58556000"
   },
   {
      "name": "La Calera Fraccionamiento",
      "countryCode": "MX",
      "stateCode": "JAL",
      "latitude": "21.26889000",
      "longitude": "-102.33778000"
   },
   {
      "name": "La Cantera",
      "countryCode": "MX",
      "stateCode": "JAL",
      "latitude": "21.34333000",
      "longitude": "-102.01972000"
   },
   {
      "name": "La Cañada",
      "countryCode": "MX",
      "stateCode": "JAL",
      "latitude": "20.48222000",
      "longitude": "-102.94306000"
   },
   {
      "name": "La Cañada Tezcaltilti",
      "countryCode": "MX",
      "stateCode": "JAL",
      "latitude": "20.01167000",
      "longitude": "-103.71278000"
   },
   {
      "name": "La Cebadilla",
      "countryCode": "MX",
      "stateCode": "JAL",
      "latitude": "20.89028000",
      "longitude": "-102.74250000"
   },
   {
      "name": "La Ceja de la Capilla",
      "countryCode": "MX",
      "stateCode": "JAL",
      "latitude": "20.73583000",
      "longitude": "-102.41833000"
   },
   {
      "name": "La Cerca Blanca",
      "countryCode": "MX",
      "stateCode": "JAL",
      "latitude": "21.15806000",
      "longitude": "-102.88361000"
   },
   {
      "name": "La Cieneguita",
      "countryCode": "MX",
      "stateCode": "JAL",
      "latitude": "20.75611000",
      "longitude": "-102.29944000"
   },
   {
      "name": "La Ciénega",
      "countryCode": "MX",
      "stateCode": "JAL",
      "latitude": "20.66056000",
      "longitude": "-102.71333000"
   },
   {
      "name": "La Ciénega de Huaistita",
      "countryCode": "MX",
      "stateCode": "JAL",
      "latitude": "22.06306000",
      "longitude": "-104.32583000"
   },
   {
      "name": "La Cofradía",
      "countryCode": "MX",
      "stateCode": "JAL",
      "latitude": "22.61361000",
      "longitude": "-103.92417000"
   },
   {
      "name": "La Cofradía del Rosario",
      "countryCode": "MX",
      "stateCode": "JAL",
      "latitude": "19.88861000",
      "longitude": "-103.72444000"
   },
   {
      "name": "La Colonia San Juanito",
      "countryCode": "MX",
      "stateCode": "JAL",
      "latitude": "21.19361000",
      "longitude": "-102.90472000"
   },
   {
      "name": "La Concepción",
      "countryCode": "MX",
      "stateCode": "JAL",
      "latitude": "20.35171000",
      "longitude": "-102.32959000"
   },
   {
      "name": "La Conchilla",
      "countryCode": "MX",
      "stateCode": "JAL",
      "latitude": "20.90528000",
      "longitude": "-103.73861000"
   },
   {
      "name": "La Conchita",
      "countryCode": "MX",
      "stateCode": "JAL",
      "latitude": "19.49972000",
      "longitude": "-104.56139000"
   },
   {
      "name": "La Constancia",
      "countryCode": "MX",
      "stateCode": "JAL",
      "latitude": "20.40333000",
      "longitude": "-102.98361000"
   },
   {
      "name": "La Cruz",
      "countryCode": "MX",
      "stateCode": "JAL",
      "latitude": "20.25083000",
      "longitude": "-103.59111000"
   },
   {
      "name": "La Cruz de Loreto",
      "countryCode": "MX",
      "stateCode": "JAL",
      "latitude": "20.00755000",
      "longitude": "-105.45508000"
   },
   {
      "name": "La Cuchilla",
      "countryCode": "MX",
      "stateCode": "JAL",
      "latitude": "20.78000000",
      "longitude": "-103.46222000"
   },
   {
      "name": "La Cuesta de Medina",
      "countryCode": "MX",
      "stateCode": "JAL",
      "latitude": "21.22583000",
      "longitude": "-102.33056000"
   },
   {
      "name": "La Cueva",
      "countryCode": "MX",
      "stateCode": "JAL",
      "latitude": "21.24056000",
      "longitude": "-102.59444000"
   },
   {
      "name": "La Estacada",
      "countryCode": "MX",
      "stateCode": "JAL",
      "latitude": "19.93528000",
      "longitude": "-103.03472000"
   },
   {
      "name": "La Estancia",
      "countryCode": "MX",
      "stateCode": "JAL",
      "latitude": "21.04694000",
      "longitude": "-102.84167000"
   },
   {
      "name": "La Estancia de Arriba",
      "countryCode": "MX",
      "stateCode": "JAL",
      "latitude": "22.61972000",
      "longitude": "-103.90861000"
   },
   {
      "name": "La Estancia de Ayones",
      "countryCode": "MX",
      "stateCode": "JAL",
      "latitude": "20.88220000",
      "longitude": "-104.08717000"
   },
   {
      "name": "La Estancia de Navarro",
      "countryCode": "MX",
      "stateCode": "JAL",
      "latitude": "20.54917000",
      "longitude": "-102.60944000"
   },
   {
      "name": "La Estancita",
      "countryCode": "MX",
      "stateCode": "JAL",
      "latitude": "20.56722000",
      "longitude": "-104.01083000"
   },
   {
      "name": "La Estanzuela",
      "countryCode": "MX",
      "stateCode": "JAL",
      "latitude": "20.66892000",
      "longitude": "-103.82609000"
   },
   {
      "name": "La Floreña",
      "countryCode": "MX",
      "stateCode": "JAL",
      "latitude": "20.46750000",
      "longitude": "-102.73500000"
   },
   {
      "name": "La Fortuna Fraccionamiento",
      "countryCode": "MX",
      "stateCode": "JAL",
      "latitude": "20.48472000",
      "longitude": "-103.39583000"
   },
   {
      "name": "La Frontera",
      "countryCode": "MX",
      "stateCode": "JAL",
      "latitude": "19.96083000",
      "longitude": "-103.71139000"
   },
   {
      "name": "La Garita, Jalisco",
      "countryCode": "MX",
      "stateCode": "JAL",
      "latitude": "19.76666667",
      "longitude": "-103.11666667"
   },
   {
      "name": "La Garruña",
      "countryCode": "MX",
      "stateCode": "JAL",
      "latitude": "20.95556000",
      "longitude": "-103.13944000"
   },
   {
      "name": "La Gila",
      "countryCode": "MX",
      "stateCode": "JAL",
      "latitude": "20.61444000",
      "longitude": "-102.20472000"
   },
   {
      "name": "La Gloria",
      "countryCode": "MX",
      "stateCode": "JAL",
      "latitude": "20.61222000",
      "longitude": "-102.38389000"
   },
   {
      "name": "La Granjena",
      "countryCode": "MX",
      "stateCode": "JAL",
      "latitude": "20.70694000",
      "longitude": "-102.44361000"
   },
   {
      "name": "La Guadalupe",
      "countryCode": "MX",
      "stateCode": "JAL",
      "latitude": "19.73556000",
      "longitude": "-103.78083000"
   },
   {
      "name": "La Guásima",
      "countryCode": "MX",
      "stateCode": "JAL",
      "latitude": "22.11889000",
      "longitude": "-103.74111000"
   },
   {
      "name": "La Hermosura",
      "countryCode": "MX",
      "stateCode": "JAL",
      "latitude": "20.11333000",
      "longitude": "-103.60139000"
   },
   {
      "name": "La Higuera",
      "countryCode": "MX",
      "stateCode": "JAL",
      "latitude": "19.42358000",
      "longitude": "-103.40955000"
   },
   {
      "name": "La Huerta",
      "countryCode": "MX",
      "stateCode": "JAL",
      "latitude": "19.48444444",
      "longitude": "-104.64388889"
   },
   {
      "name": "La Huevera",
      "countryCode": "MX",
      "stateCode": "JAL",
      "latitude": "19.88917000",
      "longitude": "-103.12000000"
   },
   {
      "name": "La Isla",
      "countryCode": "MX",
      "stateCode": "JAL",
      "latitude": "21.39472000",
      "longitude": "-101.92278000"
   },
   {
      "name": "La Jarrilla",
      "countryCode": "MX",
      "stateCode": "JAL",
      "latitude": "21.05444000",
      "longitude": "-102.95417000"
   },
   {
      "name": "La Joya",
      "countryCode": "MX",
      "stateCode": "JAL",
      "latitude": "19.94472000",
      "longitude": "-102.86944000"
   },
   {
      "name": "La Joya Chica",
      "countryCode": "MX",
      "stateCode": "JAL",
      "latitude": "20.71021000",
      "longitude": "-103.00250000"
   },
   {
      "name": "La Joya Grande",
      "countryCode": "MX",
      "stateCode": "JAL",
      "latitude": "20.70861000",
      "longitude": "-103.04444000"
   },
   {
      "name": "La Labor de la Concepción",
      "countryCode": "MX",
      "stateCode": "JAL",
      "latitude": "21.23306000",
      "longitude": "-102.78333000"
   },
   {
      "name": "La Labor de los Alba",
      "countryCode": "MX",
      "stateCode": "JAL",
      "latitude": "21.37722000",
      "longitude": "-102.31639000"
   },
   {
      "name": "La Ladera",
      "countryCode": "MX",
      "stateCode": "JAL",
      "latitude": "20.20722000",
      "longitude": "-104.15139000"
   },
   {
      "name": "La Ladera Grande",
      "countryCode": "MX",
      "stateCode": "JAL",
      "latitude": "20.52417000",
      "longitude": "-102.35167000"
   },
   {
      "name": "La Laguna",
      "countryCode": "MX",
      "stateCode": "JAL",
      "latitude": "22.25417000",
      "longitude": "-104.20667000"
   },
   {
      "name": "La Laguna Grande",
      "countryCode": "MX",
      "stateCode": "JAL",
      "latitude": "20.93611000",
      "longitude": "-103.06111000"
   },
   {
      "name": "La Laja",
      "countryCode": "MX",
      "stateCode": "JAL",
      "latitude": "19.85481000",
      "longitude": "-104.28520000"
   },
   {
      "name": "La Lobera",
      "countryCode": "MX",
      "stateCode": "JAL",
      "latitude": "21.08694000",
      "longitude": "-103.56583000"
   },
   {
      "name": "La Loma",
      "countryCode": "MX",
      "stateCode": "JAL",
      "latitude": "20.44139000",
      "longitude": "-102.08833000"
   },
   {
      "name": "La Loma de los Rizo",
      "countryCode": "MX",
      "stateCode": "JAL",
      "latitude": "20.72444000",
      "longitude": "-102.22222000"
   },
   {
      "name": "La Loma del Nopal",
      "countryCode": "MX",
      "stateCode": "JAL",
      "latitude": "20.73000000",
      "longitude": "-102.40167000"
   },
   {
      "name": "La Lomita",
      "countryCode": "MX",
      "stateCode": "JAL",
      "latitude": "21.44056000",
      "longitude": "-102.31278000"
   },
   {
      "name": "La Luz",
      "countryCode": "MX",
      "stateCode": "JAL",
      "latitude": "20.44917000",
      "longitude": "-102.71750000"
   },
   {
      "name": "La Manzanilla",
      "countryCode": "MX",
      "stateCode": "JAL",
      "latitude": "19.28111111",
      "longitude": "-104.78750000"
   },
   {
      "name": "La Manzanilla de La Paz",
      "countryCode": "MX",
      "stateCode": "JAL",
      "latitude": "19.91666667",
      "longitude": "-102.01666667"
   },
   {
      "name": "La Mata",
      "countryCode": "MX",
      "stateCode": "JAL",
      "latitude": "20.89528000",
      "longitude": "-103.74889000"
   },
   {
      "name": "La Merced",
      "countryCode": "MX",
      "stateCode": "JAL",
      "latitude": "21.48250000",
      "longitude": "-101.86722000"
   },
   {
      "name": "La Mesa",
      "countryCode": "MX",
      "stateCode": "JAL",
      "latitude": "20.54944000",
      "longitude": "-103.11918000"
   },
   {
      "name": "La Mesa del Guitarrero",
      "countryCode": "MX",
      "stateCode": "JAL",
      "latitude": "20.66972000",
      "longitude": "-102.76667000"
   },
   {
      "name": "La Mesita",
      "countryCode": "MX",
      "stateCode": "JAL",
      "latitude": "20.83889000",
      "longitude": "-103.50667000"
   },
   {
      "name": "La Mezcalilla",
      "countryCode": "MX",
      "stateCode": "JAL",
      "latitude": "20.45250000",
      "longitude": "-103.12306000"
   },
   {
      "name": "La Mezquitera",
      "countryCode": "MX",
      "stateCode": "JAL",
      "latitude": "20.55833000",
      "longitude": "-103.11250000"
   },
   {
      "name": "La Mial",
      "countryCode": "MX",
      "stateCode": "JAL",
      "latitude": "20.58639000",
      "longitude": "-103.27500000"
   },
   {
      "name": "La Mina",
      "countryCode": "MX",
      "stateCode": "JAL",
      "latitude": "20.94750000",
      "longitude": "-102.72250000"
   },
   {
      "name": "La Mojarra",
      "countryCode": "MX",
      "stateCode": "JAL",
      "latitude": "20.84944000",
      "longitude": "-103.04250000"
   },
   {
      "name": "La Mora",
      "countryCode": "MX",
      "stateCode": "JAL",
      "latitude": "20.70575000",
      "longitude": "-104.03409000"
   },
   {
      "name": "La Mota",
      "countryCode": "MX",
      "stateCode": "JAL",
      "latitude": "20.70556000",
      "longitude": "-102.69028000"
   },
   {
      "name": "La Nance",
      "countryCode": "MX",
      "stateCode": "JAL",
      "latitude": "19.48667000",
      "longitude": "-104.39639000"
   },
   {
      "name": "La Nopalera",
      "countryCode": "MX",
      "stateCode": "JAL",
      "latitude": "20.47750000",
      "longitude": "-102.40056000"
   },
   {
      "name": "La Noria",
      "countryCode": "MX",
      "stateCode": "JAL",
      "latitude": "21.10972000",
      "longitude": "-101.83750000"
   },
   {
      "name": "La Orilla de la Cerca",
      "countryCode": "MX",
      "stateCode": "JAL",
      "latitude": "20.36556000",
      "longitude": "-102.71667000"
   },
   {
      "name": "La Orilla del Agua",
      "countryCode": "MX",
      "stateCode": "JAL",
      "latitude": "21.38389000",
      "longitude": "-101.95250000"
   },
   {
      "name": "La Palma",
      "countryCode": "MX",
      "stateCode": "JAL",
      "latitude": "21.38778000",
      "longitude": "-101.92167000"
   },
   {
      "name": "La Palmita",
      "countryCode": "MX",
      "stateCode": "JAL",
      "latitude": "21.76833000",
      "longitude": "-101.91778000"
   },
   {
      "name": "La Parota",
      "countryCode": "MX",
      "stateCode": "JAL",
      "latitude": "19.55944000",
      "longitude": "-103.89028000"
   },
   {
      "name": "La Parrita",
      "countryCode": "MX",
      "stateCode": "JAL",
      "latitude": "21.54722000",
      "longitude": "-102.55056000"
   },
   {
      "name": "La Paz",
      "countryCode": "MX",
      "stateCode": "JAL",
      "latitude": "21.81608000",
      "longitude": "-101.76793000"
   },
   {
      "name": "La Paz de Ordaz",
      "countryCode": "MX",
      "stateCode": "JAL",
      "latitude": "20.34489000",
      "longitude": "-102.53059000"
   },
   {
      "name": "La Peña, Jalisco",
      "countryCode": "MX",
      "stateCode": "JAL",
      "latitude": "20.32722000",
      "longitude": "-102.97556000"
   },
   {
      "name": "La Playa",
      "countryCode": "MX",
      "stateCode": "JAL",
      "latitude": "21.82278000",
      "longitude": "-103.78861000"
   },
   {
      "name": "La Presa",
      "countryCode": "MX",
      "stateCode": "JAL",
      "latitude": "21.77589000",
      "longitude": "-101.81477000"
   },
   {
      "name": "La Primavera",
      "countryCode": "MX",
      "stateCode": "JAL",
      "latitude": "20.72302000",
      "longitude": "-103.56543000"
   },
   {
      "name": "La Providencia",
      "countryCode": "MX",
      "stateCode": "JAL",
      "latitude": "21.02556000",
      "longitude": "-102.60444000"
   },
   {
      "name": "La Puerta de San Pedro",
      "countryCode": "MX",
      "stateCode": "JAL",
      "latitude": "20.92778000",
      "longitude": "-103.84389000"
   },
   {
      "name": "La Puerta del Coche",
      "countryCode": "MX",
      "stateCode": "JAL",
      "latitude": "20.80400000",
      "longitude": "-104.22577000"
   },
   {
      "name": "La Punta",
      "countryCode": "MX",
      "stateCode": "JAL",
      "latitude": "20.57156000",
      "longitude": "-103.21147000"
   },
   {
      "name": "La Purísima",
      "countryCode": "MX",
      "stateCode": "JAL",
      "latitude": "19.49162000",
      "longitude": "-103.32896000"
   },
   {
      "name": "La Quemada",
      "countryCode": "MX",
      "stateCode": "JAL",
      "latitude": "20.97127000",
      "longitude": "-104.04914000"
   },
   {
      "name": "La Rana",
      "countryCode": "MX",
      "stateCode": "JAL",
      "latitude": "20.81056000",
      "longitude": "-102.42444000"
   },
   {
      "name": "La Raya",
      "countryCode": "MX",
      "stateCode": "JAL",
      "latitude": "20.53639000",
      "longitude": "-102.51944000"
   },
   {
      "name": "La Red",
      "countryCode": "MX",
      "stateCode": "JAL",
      "latitude": "20.71861000",
      "longitude": "-102.81333000"
   },
   {
      "name": "La Resolana",
      "countryCode": "MX",
      "stateCode": "JAL",
      "latitude": "20.74139000",
      "longitude": "-102.92528000"
   },
   {
      "name": "La Ribera",
      "countryCode": "MX",
      "stateCode": "JAL",
      "latitude": "20.34908000",
      "longitude": "-102.28273000"
   },
   {
      "name": "La Roca",
      "countryCode": "MX",
      "stateCode": "JAL",
      "latitude": "20.51278000",
      "longitude": "-103.42639000"
   },
   {
      "name": "La Rosa",
      "countryCode": "MX",
      "stateCode": "JAL",
      "latitude": "19.46278000",
      "longitude": "-104.31556000"
   },
   {
      "name": "La Rosa Amarilla",
      "countryCode": "MX",
      "stateCode": "JAL",
      "latitude": "20.08404000",
      "longitude": "-103.10903000"
   },
   {
      "name": "La Rosa de Castilla",
      "countryCode": "MX",
      "stateCode": "JAL",
      "latitude": "20.70806000",
      "longitude": "-102.25083000"
   },
   {
      "name": "La Rueda",
      "countryCode": "MX",
      "stateCode": "JAL",
      "latitude": "20.10167000",
      "longitude": "-103.26250000"
   },
   {
      "name": "La Sanguijuela",
      "countryCode": "MX",
      "stateCode": "JAL",
      "latitude": "20.49222000",
      "longitude": "-102.04417000"
   },
   {
      "name": "La Sauceda",
      "countryCode": "MX",
      "stateCode": "JAL",
      "latitude": "20.45251000",
      "longitude": "-103.80681000"
   },
   {
      "name": "La Soledad",
      "countryCode": "MX",
      "stateCode": "JAL",
      "latitude": "20.63528000",
      "longitude": "-102.55444000"
   },
   {
      "name": "La Teja",
      "countryCode": "MX",
      "stateCode": "JAL",
      "latitude": "20.44611000",
      "longitude": "-103.48306000"
   },
   {
      "name": "La Tijera",
      "countryCode": "MX",
      "stateCode": "JAL",
      "latitude": "20.58167000",
      "longitude": "-103.44056000"
   },
   {
      "name": "La Tinajera",
      "countryCode": "MX",
      "stateCode": "JAL",
      "latitude": "20.46972000",
      "longitude": "-102.18778000"
   },
   {
      "name": "La Tiricia",
      "countryCode": "MX",
      "stateCode": "JAL",
      "latitude": "20.47833000",
      "longitude": "-102.72306000"
   },
   {
      "name": "La Tortuga",
      "countryCode": "MX",
      "stateCode": "JAL",
      "latitude": "20.90139000",
      "longitude": "-104.61583000"
   },
   {
      "name": "La Trinidad",
      "countryCode": "MX",
      "stateCode": "JAL",
      "latitude": "21.27389000",
      "longitude": "-101.99250000"
   },
   {
      "name": "La Unión del Cuatro",
      "countryCode": "MX",
      "stateCode": "JAL",
      "latitude": "20.53148000",
      "longitude": "-103.36812000"
   },
   {
      "name": "La Vaquera",
      "countryCode": "MX",
      "stateCode": "JAL",
      "latitude": "20.85611000",
      "longitude": "-102.22056000"
   },
   {
      "name": "La Vega",
      "countryCode": "MX",
      "stateCode": "JAL",
      "latitude": "20.58331000",
      "longitude": "-103.85830000"
   },
   {
      "name": "La Venta del Astillero",
      "countryCode": "MX",
      "stateCode": "JAL",
      "latitude": "20.72795000",
      "longitude": "-103.54509000"
   },
   {
      "name": "La Verdolaga",
      "countryCode": "MX",
      "stateCode": "JAL",
      "latitude": "21.68917000",
      "longitude": "-102.03778000"
   },
   {
      "name": "La Villa",
      "countryCode": "MX",
      "stateCode": "JAL",
      "latitude": "20.62806000",
      "longitude": "-102.94667000"
   },
   {
      "name": "La Virgencita",
      "countryCode": "MX",
      "stateCode": "JAL",
      "latitude": "20.72889000",
      "longitude": "-102.53389000"
   },
   {
      "name": "La Yerbabuena",
      "countryCode": "MX",
      "stateCode": "JAL",
      "latitude": "20.53722000",
      "longitude": "-103.09722000"
   },
   {
      "name": "La Zapotera",
      "countryCode": "MX",
      "stateCode": "JAL",
      "latitude": "20.30611000",
      "longitude": "-102.89778000"
   },
   {
      "name": "Labor de Medina",
      "countryCode": "MX",
      "stateCode": "JAL",
      "latitude": "20.46666667",
      "longitude": "-103.91666667"
   },
   {
      "name": "Labor de Montoya",
      "countryCode": "MX",
      "stateCode": "JAL",
      "latitude": "21.36722000",
      "longitude": "-102.21917000"
   },
   {
      "name": "Ladera Chica",
      "countryCode": "MX",
      "stateCode": "JAL",
      "latitude": "20.52167000",
      "longitude": "-102.34694000"
   },
   {
      "name": "Lagos de Moreno",
      "countryCode": "MX",
      "stateCode": "JAL",
      "latitude": "21.35638889",
      "longitude": "-101.92916667"
   },
   {
      "name": "Laguna Colorada",
      "countryCode": "MX",
      "stateCode": "JAL",
      "latitude": "20.75917000",
      "longitude": "-102.83111000"
   },
   {
      "name": "Laguna de Piedra",
      "countryCode": "MX",
      "stateCode": "JAL",
      "latitude": "20.82028000",
      "longitude": "-102.13778000"
   },
   {
      "name": "Lagunillas, Jalisco",
      "countryCode": "MX",
      "stateCode": "JAL",
      "latitude": "20.33972222",
      "longitude": "-103.99583333"
   },
   {
      "name": "Las Alfalfas",
      "countryCode": "MX",
      "stateCode": "JAL",
      "latitude": "21.32861000",
      "longitude": "-101.91056000"
   },
   {
      "name": "Las Amarillas",
      "countryCode": "MX",
      "stateCode": "JAL",
      "latitude": "21.58918000",
      "longitude": "-101.65548000"
   },
   {
      "name": "Las Asturias Fraccionamiento",
      "countryCode": "MX",
      "stateCode": "JAL",
      "latitude": "20.52222000",
      "longitude": "-103.29083000"
   },
   {
      "name": "Las Azules",
      "countryCode": "MX",
      "stateCode": "JAL",
      "latitude": "20.89194000",
      "longitude": "-102.79167000"
   },
   {
      "name": "Las Calaveras",
      "countryCode": "MX",
      "stateCode": "JAL",
      "latitude": "20.19944000",
      "longitude": "-104.02250000"
   },
   {
      "name": "Las Canoas",
      "countryCode": "MX",
      "stateCode": "JAL",
      "latitude": "19.61028000",
      "longitude": "-103.47389000"
   },
   {
      "name": "Las Carretas",
      "countryCode": "MX",
      "stateCode": "JAL",
      "latitude": "20.44861000",
      "longitude": "-103.24639000"
   },
   {
      "name": "Las Cañadas",
      "countryCode": "MX",
      "stateCode": "JAL",
      "latitude": "21.14000000",
      "longitude": "-102.46167000"
   },
   {
      "name": "Las Golondrinas [Fraccionamiento]",
      "countryCode": "MX",
      "stateCode": "JAL",
      "latitude": "22.10528000",
      "longitude": "-103.25417000"
   },
   {
      "name": "Las Juntas",
      "countryCode": "MX",
      "stateCode": "JAL",
      "latitude": "19.43061000",
      "longitude": "-104.70646000"
   },
   {
      "name": "Las Pintas de Arriba",
      "countryCode": "MX",
      "stateCode": "JAL",
      "latitude": "20.57376000",
      "longitude": "-103.32345000"
   },
   {
      "name": "Las Pintitas",
      "countryCode": "MX",
      "stateCode": "JAL",
      "latitude": "20.56444000",
      "longitude": "-103.30222000"
   },
   {
      "name": "Las Primaveras [Invernadero]",
      "countryCode": "MX",
      "stateCode": "JAL",
      "latitude": "19.69472000",
      "longitude": "-103.83333000"
   },
   {
      "name": "Lo Arado",
      "countryCode": "MX",
      "stateCode": "JAL",
      "latitude": "19.62139000",
      "longitude": "-104.53444000"
   },
   {
      "name": "Lomas de San Agustín",
      "countryCode": "MX",
      "stateCode": "JAL",
      "latitude": "20.52750000",
      "longitude": "-103.46778000"
   },
   {
      "name": "Lomas de Tejeda",
      "countryCode": "MX",
      "stateCode": "JAL",
      "latitude": "20.46658000",
      "longitude": "-103.40202000"
   },
   {
      "name": "Lomas del Sur",
      "countryCode": "MX",
      "stateCode": "JAL",
      "latitude": "20.49250000",
      "longitude": "-103.41750000"
   },
   {
      "name": "Los Azulitos",
      "countryCode": "MX",
      "stateCode": "JAL",
      "latitude": "21.84610000",
      "longitude": "-101.96527000"
   },
   {
      "name": "Los Cedros",
      "countryCode": "MX",
      "stateCode": "JAL",
      "latitude": "20.38980000",
      "longitude": "-103.23250000"
   },
   {
      "name": "Los Gavilanes",
      "countryCode": "MX",
      "stateCode": "JAL",
      "latitude": "20.57456000",
      "longitude": "-103.44881000"
   },
   {
      "name": "Los Guerrero",
      "countryCode": "MX",
      "stateCode": "JAL",
      "latitude": "20.43333333",
      "longitude": "-103.88333333"
   },
   {
      "name": "Los Mazos",
      "countryCode": "MX",
      "stateCode": "JAL",
      "latitude": "19.57000000",
      "longitude": "-103.50000000"
   },
   {
      "name": "Los Olivos",
      "countryCode": "MX",
      "stateCode": "JAL",
      "latitude": "20.43917000",
      "longitude": "-103.23778000"
   },
   {
      "name": "Los Pocitos",
      "countryCode": "MX",
      "stateCode": "JAL",
      "latitude": "20.53724000",
      "longitude": "-103.93721000"
   },
   {
      "name": "Los Ruiseñores",
      "countryCode": "MX",
      "stateCode": "JAL",
      "latitude": "20.71083000",
      "longitude": "-103.69139000"
   },