[
   {
      "name": "Garango",
      "countryCode": "BF",
      "stateCode": "04",
      "latitude": "11.80000000",
      "longitude": "-0.55056000"
   },
   {
      "name": "Koupéla",
      "countryCode": "BF",
      "stateCode": "04",
      "latitude": "12.17864000",
      "longitude": "-0.35103000"
   },
   {
      "name": "Kouritenga Province",
      "countryCode": "BF",
      "stateCode": "04",
      "latitude": "12.20000000",
      "longitude": "-0.30000000"
   },
   {
      "name": "Ouargaye",
      "countryCode": "BF",
      "stateCode": "04",
      "latitude": "11.50202000",
      "longitude": "0.05886000"
   },
   {
      "name": "Province du Boulgou",
      "countryCode": "BF",
      "stateCode": "04",
      "latitude": "11.50000000",
      "longitude": "-0.41667000"
   },
   {
      "name": "Province du Koulpélogo",
      "countryCode": "BF",
      "stateCode": "04",
      "latitude": "11.41667000",
      "longitude": "0.16667000"
   },
   {
      "name": "Tenkodogo",
      "countryCode": "BF",
      "stateCode": "04",
      "latitude": "11.78000000",
      "longitude": "-0.36972000"
   }
]