[
   {
      "name": "Amphoe Kapong",
      "countryCode": "TH",
      "stateCode": "82",
      "latitude": "8.74139000",
      "longitude": "98.47542000"
   },
   {
      "name": "Amphoe Khura Buri",
      "countryCode": "TH",
      "stateCode": "82",
      "latitude": "9.18972000",
      "longitude": "98.40806000"
   },
   {
      "name": "Amphoe Ko Yao",
      "countryCode": "TH",
      "stateCode": "82",
      "latitude": "8.06549000",
      "longitude": "98.57851000"
   },
   {
      "name": "Amphoe Mueang Phangnga",
      "countryCode": "TH",
      "stateCode": "82",
      "latitude": "8.49350000",
      "longitude": "98.50775000"
   },
   {
      "name": "Amphoe Takua Pa",
      "countryCode": "TH",
      "stateCode": "82",
      "latitude": "8.86883000",
      "longitude": "98.33892000"
   },
   {
      "name": "Amphoe Takua Thung",
      "countryCode": "TH",
      "stateCode": "82",
      "latitude": "8.28433000",
      "longitude": "98.38950000"
   },
   {
      "name": "Amphoe Thai Mueang",
      "countryCode": "TH",
      "stateCode": "82",
      "latitude": "8.48995000",
      "longitude": "98.31292000"
   },
   {
      "name": "Amphoe Thap Put",
      "countryCode": "TH",
      "stateCode": "82",
      "latitude": "8.53768000",
      "longitude": "98.63208000"
   },
   {
      "name": "Ban Ao Nang",
      "countryCode": "TH",
      "stateCode": "82",
      "latitude": "8.04580000",
      "longitude": "98.81035000"
   },
   {
      "name": "Ban Khao Lak",
      "countryCode": "TH",
      "stateCode": "82",
      "latitude": "8.61501000",
      "longitude": "98.23994000"
   },
   {
      "name": "Ban Phru Nai",
      "countryCode": "TH",
      "stateCode": "82",
      "latitude": "7.95458000",
      "longitude": "98.58989000"
   },
   {
      "name": "Phang Nga",
      "countryCode": "TH",
      "stateCode": "82",
      "latitude": "8.45091000",
      "longitude": "98.52985000"
   }
]