[
   {
      "name": "Aowin",
      "countryCode": "GH",
      "stateCode": "WN",
      "latitude": "5.75309280",
      "longitude": "-3.07518870"
   },
   {
      "name": "Bia East",
      "countryCode": "GH",
      "stateCode": "WN",
      "latitude": "6.76860400",
      "longitude": "-3.33302410"
   },
   {
      "name": "Bia West",
      "countryCode": "GH",
      "stateCode": "WN",
      "latitude": "6.76860400",
      "longitude": "-3.33302410"
   },
   {
      "name": "Bibiani-Anhwiaso-Bekwai",
      "countryCode": "GH",
      "stateCode": "WN",
      "latitude": "6.30210040",
      "longitude": "-2.35675070"
   },
   {
      "name": "Bodi",
      "countryCode": "GH",
      "stateCode": "WN",
      "latitude": "6.22240910",
      "longitude": "-2.76615150"
   },
   {
      "name": "Juaboso",
      "countryCode": "GH",
      "stateCode": "WN",
      "latitude": "6.33331570",
      "longitude": "-2.84206140"
   },
   {
      "name": "Sefwi-Akontombra",
      "countryCode": "GH",
      "stateCode": "WN",
      "latitude": "6.04285480",
      "longitude": "-2.88133620"
   },
   {
      "name": "Sefwi-Wiawso",
      "countryCode": "GH",
      "stateCode": "WN",
      "latitude": "6.21965670",
      "longitude": "-2.50059150"
   },
   {
      "name": "Suaman",
      "countryCode": "GH",
      "stateCode": "WN",
      "latitude": "5.75309280",
      "longitude": "-3.07518870"
   }
]