[
   {
      "name": "Reykhólahreppur",
      "countryCode": "IS",
      "stateCode": "4",
      "latitude": "65.60990000",
      "longitude": "-22.33324000"
   },
   {
      "name": "Strandabyggð",
      "countryCode": "IS",
      "stateCode": "4",
      "latitude": "65.77455000",
      "longitude": "-21.95725000"
   },
   {
      "name": "Tálknafjarðarhreppur",
      "countryCode": "IS",
      "stateCode": "4",
      "latitude": "65.61667000",
      "longitude": "-23.88333000"
   },
   {
      "name": "Ísafjarðarbær",
      "countryCode": "IS",
      "stateCode": "4",
      "latitude": "66.07586000",
      "longitude": "-23.12794000"
   },
   {
      "name": "Ísafjörður",
      "countryCode": "IS",
      "stateCode": "4",
      "latitude": "66.07475000",
      "longitude": "-23.13498000"
   }
]