[
   {
      "name": "Bagrationovsk",
      "countryCode": "RU",
      "stateCode": "KGD",
      "latitude": "54.38714000",
      "longitude": "20.64372000"
   },
   {
      "name": "Baltiysk",
      "countryCode": "RU",
      "stateCode": "KGD",
      "latitude": "54.65455000",
      "longitude": "19.90929000"
   },
   {
      "name": "Bol'shoe Isakovo",
      "countryCode": "RU",
      "stateCode": "KGD",
      "latitude": "54.71774000",
      "longitude": "20.60284000"
   },
   {
      "name": "Chernyakhovsk",
      "countryCode": "RU",
      "stateCode": "KGD",
      "latitude": "54.63345000",
      "longitude": "21.81557000"
   },
   {
      "name": "Donskoye",
      "countryCode": "RU",
      "stateCode": "KGD",
      "latitude": "54.93842000",
      "longitude": "19.96821000"
   },
   {
      "name": "Gur’yevsk",
      "countryCode": "RU",
      "stateCode": "KGD",
      "latitude": "54.77323000",
      "longitude": "20.60521000"
   },
   {
      "name": "Gusev",
      "countryCode": "RU",
      "stateCode": "KGD",
      "latitude": "54.59222000",
      "longitude": "22.19972000"
   },
   {
      "name": "Gvardeysk",
      "countryCode": "RU",
      "stateCode": "KGD",
      "latitude": "54.64772000",
      "longitude": "21.06513000"
   },
   {
      "name": "Kaliningrad",
      "countryCode": "RU",
      "stateCode": "KGD",
      "latitude": "54.70649000",
      "longitude": "20.51095000"
   },
   {
      "name": "Khrabrovo",
      "countryCode": "RU",
      "stateCode": "KGD",
      "latitude": "54.89709000",
      "longitude": "20.58035000"
   },
   {
      "name": "Krasnoznamensk",
      "countryCode": "RU",
      "stateCode": "KGD",
      "latitude": "54.94222000",
      "longitude": "22.48972000"
   },
   {
      "name": "Ladushkin",
      "countryCode": "RU",
      "stateCode": "KGD",
      "latitude": "54.57025000",
      "longitude": "20.17099000"
   },
   {
      "name": "Maloye Isakovo",
      "countryCode": "RU",
      "stateCode": "KGD",
      "latitude": "54.73269000",
      "longitude": "20.58413000"
   },
   {
      "name": "Mamonovo",
      "countryCode": "RU",
      "stateCode": "KGD",
      "latitude": "54.46427000",
      "longitude": "19.93801000"
   },
   {
      "name": "Neman",
      "countryCode": "RU",
      "stateCode": "KGD",
      "latitude": "55.03111000",
      "longitude": "22.02639000"
   },
   {
      "name": "Nemanskiy Rayon",
      "countryCode": "RU",
      "stateCode": "KGD",
      "latitude": "54.91667000",
      "longitude": "22.00000000"
   },
   {
      "name": "Nesterov",
      "countryCode": "RU",
      "stateCode": "KGD",
      "latitude": "54.63056000",
      "longitude": "22.57139000"
   },
   {
      "name": "Nesterovskiy Rayon",
      "countryCode": "RU",
      "stateCode": "KGD",
      "latitude": "54.58333000",
      "longitude": "22.58333000"
   },
   {
      "name": "Otradnoye",
      "countryCode": "RU",
      "stateCode": "KGD",
      "latitude": "54.94114000",
      "longitude": "20.11397000"
   },
   {
      "name": "Ozerskiy Rayon",
      "countryCode": "RU",
      "stateCode": "KGD",
      "latitude": "54.41667000",
      "longitude": "22.00000000"
   },
   {
      "name": "Ozërsk",
      "countryCode": "RU",
      "stateCode": "KGD",
      "latitude": "54.41056000",
      "longitude": "22.01167000"
   },
   {
      "name": "Pionerskiy",
      "countryCode": "RU",
      "stateCode": "KGD",
      "latitude": "54.95083000",
      "longitude": "20.22748000"
   },
   {
      "name": "Polessk",
      "countryCode": "RU",
      "stateCode": "KGD",
      "latitude": "54.86205000",
      "longitude": "21.10279000"
   },
   {
      "name": "Pravdinsk",
      "countryCode": "RU",
      "stateCode": "KGD",
      "latitude": "54.44289000",
      "longitude": "21.01785000"
   },
   {
      "name": "Primorsk",
      "countryCode": "RU",
      "stateCode": "KGD",
      "latitude": "54.73905000",
      "longitude": "20.00553000"
   },
   {
      "name": "Slavsk",
      "countryCode": "RU",
      "stateCode": "KGD",
      "latitude": "55.04250000",
      "longitude": "21.67704000"
   },
   {
      "name": "Slavskiy Rayon",
      "countryCode": "RU",
      "stateCode": "KGD",
      "latitude": "55.00000000",
      "longitude": "21.66667000"
   },
   {
      "name": "Sovetsk",
      "countryCode": "RU",
      "stateCode": "KGD",
      "latitude": "55.08392000",
      "longitude": "21.87851000"
   },
   {
      "name": "Svetlogorsk",
      "countryCode": "RU",
      "stateCode": "KGD",
      "latitude": "54.93987000",
      "longitude": "20.15479000"
   },
   {
      "name": "Svetlyy",
      "countryCode": "RU",
      "stateCode": "KGD",
      "latitude": "54.67501000",
      "longitude": "20.13473000"
   },
   {
      "name": "Volochayevskoye",
      "countryCode": "RU",
      "stateCode": "KGD",
      "latitude": "54.70034000",
      "longitude": "20.21966000"
   },
   {
      "name": "Vzmorye",
      "countryCode": "RU",
      "stateCode": "KGD",
      "latitude": "54.69606000",
      "longitude": "20.23613000"
   },
   {
      "name": "Yantarnyy",
      "countryCode": "RU",
      "stateCode": "KGD",
      "latitude": "54.87102000",
      "longitude": "19.94016000"
   },
   {
      "name": "Yuzhnyy",
      "countryCode": "RU",
      "stateCode": "KGD",
      "latitude": "54.54837000",
      "longitude": "20.59843000"
   },
   {
      "name": "Zelenogradsk",
      "countryCode": "RU",
      "stateCode": "KGD",
      "latitude": "54.95893000",
      "longitude": "20.47668000"
   },
   {
      "name": "Zheleznodorozhnyy",
      "countryCode": "RU",
      "stateCode": "KGD",
      "latitude": "54.36013000",
      "longitude": "21.30597000"
   },
   {
      "name": "Znamensk",
      "countryCode": "RU",
      "stateCode": "KGD",
      "latitude": "54.61403000",
      "longitude": "21.22722000"
   }
]