[
   {
      "name": "Batrina",
      "countryCode": "HR",
      "stateCode": "12",
      "latitude": "45.18944000",
      "longitude": "17.66639000"
   },
   {
      "name": "Brodski Varoš",
      "countryCode": "HR",
      "stateCode": "12",
      "latitude": "45.18111000",
      "longitude": "17.97861000"
   },
   {
      "name": "Bukovlje",
      "countryCode": "HR",
      "stateCode": "12",
      "latitude": "45.18528000",
      "longitude": "18.07000000"
   },
   {
      "name": "Cernik",
      "countryCode": "HR",
      "stateCode": "12",
      "latitude": "45.28861000",
      "longitude": "17.38194000"
   },
   {
      "name": "Davor",
      "countryCode": "HR",
      "stateCode": "12",
      "latitude": "45.11528000",
      "longitude": "17.51639000"
   },
   {
      "name": "Donji Andrijevci",
      "countryCode": "HR",
      "stateCode": "12",
      "latitude": "45.18833000",
      "longitude": "18.29972000"
   },
   {
      "name": "Garčin",
      "countryCode": "HR",
      "stateCode": "12",
      "latitude": "45.18278000",
      "longitude": "18.18306000"
   },
   {
      "name": "Gornji Bogićevci",
      "countryCode": "HR",
      "stateCode": "12",
      "latitude": "45.25572000",
      "longitude": "17.23454000"
   },
   {
      "name": "Grad Nova Gradiška",
      "countryCode": "HR",
      "stateCode": "12",
      "latitude": "45.26667000",
      "longitude": "17.40000000"
   },
   {
      "name": "Grad Slavonski Brod",
      "countryCode": "HR",
      "stateCode": "12",
      "latitude": "45.16267000",
      "longitude": "18.03062000"
   },
   {
      "name": "Gundinci",
      "countryCode": "HR",
      "stateCode": "12",
      "latitude": "45.15833000",
      "longitude": "18.49139000"
   },
   {
      "name": "Korenica",
      "countryCode": "HR",
      "stateCode": "12",
      "latitude": "45.22472000",
      "longitude": "18.16556000"
   },
   {
      "name": "Kruševica",
      "countryCode": "HR",
      "stateCode": "12",
      "latitude": "45.07750000",
      "longitude": "18.48278000"
   },
   {
      "name": "Lužani",
      "countryCode": "HR",
      "stateCode": "12",
      "latitude": "45.16806000",
      "longitude": "17.70694000"
   },
   {
      "name": "Nova Gradiška",
      "countryCode": "HR",
      "stateCode": "12",
      "latitude": "45.25500000",
      "longitude": "17.38306000"
   },
   {
      "name": "Okučani",
      "countryCode": "HR",
      "stateCode": "12",
      "latitude": "45.26034000",
      "longitude": "17.19925000"
   },
   {
      "name": "Oprisavci",
      "countryCode": "HR",
      "stateCode": "12",
      "latitude": "45.15111000",
      "longitude": "18.22972000"
   },
   {
      "name": "Oriovac",
      "countryCode": "HR",
      "stateCode": "12",
      "latitude": "45.16611000",
      "longitude": "17.76000000"
   },
   {
      "name": "Podvinje",
      "countryCode": "HR",
      "stateCode": "12",
      "latitude": "45.19028000",
      "longitude": "18.02694000"
   },
   {
      "name": "Rešetari",
      "countryCode": "HR",
      "stateCode": "12",
      "latitude": "45.26232000",
      "longitude": "17.42346000"
   },
   {
      "name": "Ruščica",
      "countryCode": "HR",
      "stateCode": "12",
      "latitude": "45.14667000",
      "longitude": "18.07944000"
   },
   {
      "name": "Sibinj",
      "countryCode": "HR",
      "stateCode": "12",
      "latitude": "45.19167000",
      "longitude": "17.90806000"
   },
   {
      "name": "Sikirevci",
      "countryCode": "HR",
      "stateCode": "12",
      "latitude": "45.10889000",
      "longitude": "18.46444000"
   },
   {
      "name": "Slavonski Brod",
      "countryCode": "HR",
      "stateCode": "12",
      "latitude": "45.16028000",
      "longitude": "18.01556000"
   },
   {
      "name": "Slobodnica",
      "countryCode": "HR",
      "stateCode": "12",
      "latitude": "45.16222000",
      "longitude": "17.93278000"
   },
   {
      "name": "Stari Perkovci",
      "countryCode": "HR",
      "stateCode": "12",
      "latitude": "45.21750000",
      "longitude": "18.34861000"
   },
   {
      "name": "Velika Kopanica",
      "countryCode": "HR",
      "stateCode": "12",
      "latitude": "45.15611000",
      "longitude": "18.39306000"
   },
   {
      "name": "Vrpolje",
      "countryCode": "HR",
      "stateCode": "12",
      "latitude": "45.21056000",
      "longitude": "18.40556000"
   }
]