[
   {
      "name": "Huyện Bình Lục",
      "countryCode": "VN",
      "stateCode": "63",
      "latitude": "20.50126000",
      "longitude": "106.02959000"
   },
   {
      "name": "Huyện Duy Tiên",
      "countryCode": "VN",
      "stateCode": "63",
      "latitude": "20.62803000",
      "longitude": "105.96193000"
   },
   {
      "name": "Huyện Kim Bảng",
      "countryCode": "VN",
      "stateCode": "63",
      "latitude": "20.57254000",
      "longitude": "105.85043000"
   },
   {
      "name": "Huyện Lý Nhân",
      "countryCode": "VN",
      "stateCode": "63",
      "latitude": "20.56422000",
      "longitude": "106.09455000"
   },
   {
      "name": "Huyện Thanh Liêm",
      "countryCode": "VN",
      "stateCode": "63",
      "latitude": "20.46249000",
      "longitude": "105.92100000"
   },
   {
      "name": "Phủ Lý",
      "countryCode": "VN",
      "stateCode": "63",
      "latitude": "20.54531000",
      "longitude": "105.91221000"
   }
]