[
   {
      "name": "Ambarita",
      "countryCode": "ID",
      "stateCode": "SU",
      "latitude": "2.68140000",
      "longitude": "98.83110000"
   },
   {
      "name": "Bandar",
      "countryCode": "ID",
      "stateCode": "SU",
      "latitude": "2.05000000",
      "longitude": "99.75000000"
   },
   {
      "name": "Belawan",
      "countryCode": "ID",
      "stateCode": "SU",
      "latitude": "3.77550000",
      "longitude": "98.68320000"
   },
   {
      "name": "Berastagi",
      "countryCode": "ID",
      "stateCode": "SU",
      "latitude": "3.19468000",
      "longitude": "98.50889000"
   },
   {
      "name": "Binjai",
      "countryCode": "ID",
      "stateCode": "SU",
      "latitude": "3.60010000",
      "longitude": "98.48540000"
   },
   {
      "name": "Deli Tua",
      "countryCode": "ID",
      "stateCode": "SU",
      "latitude": "3.50780000",
      "longitude": "98.68390000"
   },
   {
      "name": "Gunungsitoli",
      "countryCode": "ID",
      "stateCode": "SU",
      "latitude": "1.28880000",
      "longitude": "97.61430000"
   },
   {
      "name": "Kabanjahe",
      "countryCode": "ID",
      "stateCode": "SU",
      "latitude": "3.10010000",
      "longitude": "98.49080000"
   },
   {
      "name": "Kabupaten Asahan",
      "countryCode": "ID",
      "stateCode": "SU",
      "latitude": "2.78333000",
      "longitude": "99.55000000"
   },
   {
      "name": "Kabupaten Batu Bara",
      "countryCode": "ID",
      "stateCode": "SU",
      "latitude": "3.16166000",
      "longitude": "99.52652000"
   },
   {
      "name": "Kabupaten Dairi",
      "countryCode": "ID",
      "stateCode": "SU",
      "latitude": "2.86667000",
      "longitude": "98.23333000"
   },
   {
      "name": "Kabupaten Deli Serdang",
      "countryCode": "ID",
      "stateCode": "SU",
      "latitude": "3.41667000",
      "longitude": "98.66667000"
   },
   {
      "name": "Kabupaten Humbang Hasundutan",
      "countryCode": "ID",
      "stateCode": "SU",
      "latitude": "2.26551000",
      "longitude": "98.50376000"
   },
   {
      "name": "Kabupaten Karo",
      "countryCode": "ID",
      "stateCode": "SU",
      "latitude": "3.11667000",
      "longitude": "98.30000000"
   },
   {
      "name": "Kabupaten Labuhan Batu",
      "countryCode": "ID",
      "stateCode": "SU",
      "latitude": "2.26667000",
      "longitude": "100.10000000"
   },
   {
      "name": "Kabupaten Labuhan Batu Selatan",
      "countryCode": "ID",
      "stateCode": "SU",
      "latitude": "1.98300000",
      "longitude": "100.09760000"
   },
   {
      "name": "Kabupaten Labuhan Batu Utara",
      "countryCode": "ID",
      "stateCode": "SU",
      "latitude": "2.33349000",
      "longitude": "99.63776000"
   },
   {
      "name": "Kabupaten Langkat",
      "countryCode": "ID",
      "stateCode": "SU",
      "latitude": "3.71667000",
      "longitude": "98.21667000"
   },
   {
      "name": "Kabupaten Mandailing Natal",
      "countryCode": "ID",
      "stateCode": "SU",
      "latitude": "0.78378000",
      "longitude": "99.25495000"
   },
   {
      "name": "Kabupaten Nias",
      "countryCode": "ID",
      "stateCode": "SU",
      "latitude": "1.03333000",
      "longitude": "97.76667000"
   },
   {
      "name": "Kabupaten Nias Barat",
      "countryCode": "ID",
      "stateCode": "SU",
      "latitude": "1.05966000",
      "longitude": "97.58606000"
   },
   {
      "name": "Kabupaten Nias Utara",
      "countryCode": "ID",
      "stateCode": "SU",
      "latitude": "1.33037000",
      "longitude": "97.31964000"
   },
   {
      "name": "Kabupaten Padang Lawas",
      "countryCode": "ID",
      "stateCode": "SU",
      "latitude": "1.44684000",
      "longitude": "99.99207000"
   },
   {
      "name": "Kabupaten Padang Lawas Utara",
      "countryCode": "ID",
      "stateCode": "SU",
      "latitude": "1.46011000",
      "longitude": "99.67346000"
   },
   {
      "name": "Kabupaten Pakpak Bharat",
      "countryCode": "ID",
      "stateCode": "SU",
      "latitude": "2.56667000",
      "longitude": "98.28333000"
   },
   {
      "name": "Kabupaten Samosir",
      "countryCode": "ID",
      "stateCode": "SU",
      "latitude": "2.64025000",
      "longitude": "98.71525000"
   },
   {
      "name": "Kabupaten Serdang Bedagai",
      "countryCode": "ID",
      "stateCode": "SU",
      "latitude": "3.36667000",
      "longitude": "99.03333000"
   },
   {
      "name": "Kabupaten Simalungun",
      "countryCode": "ID",
      "stateCode": "SU",
      "latitude": "2.90000000",
      "longitude": "99.00000000"
   },
   {
      "name": "Kabupaten Tapanuli Selatan",
      "countryCode": "ID",
      "stateCode": "SU",
      "latitude": "1.51667000",
      "longitude": "99.25000000"
   },
   {
      "name": "Kabupaten Tapanuli Tengah",
      "countryCode": "ID",
      "stateCode": "SU",
      "latitude": "1.90000000",
      "longitude": "98.66667000"
   },
   {
      "name": "Kabupaten Tapanuli Utara",
      "countryCode": "ID",
      "stateCode": "SU",
      "latitude": "2.00280000",
      "longitude": "99.07070000"
   },
   {
      "name": "Kisaran",
      "countryCode": "ID",
      "stateCode": "SU",
      "latitude": "2.98450000",
      "longitude": "99.61580000"
   },
   {
      "name": "Kota Binjai",
      "countryCode": "ID",
      "stateCode": "SU",
      "latitude": "3.80000000",
      "longitude": "108.23333000"
   },
   {
      "name": "Kota Gunungsitoli",
      "countryCode": "ID",
      "stateCode": "SU",
      "latitude": "1.32731000",
      "longitude": "97.55018000"
   },
   {
      "name": "Kota Medan",
      "countryCode": "ID",
      "stateCode": "SU",
      "latitude": "3.65000000",
      "longitude": "98.66667000"
   },
   {
      "name": "Kota Padangsidimpuan",
      "countryCode": "ID",
      "stateCode": "SU",
      "latitude": "1.37375000",
      "longitude": "99.26843000"
   },
   {
      "name": "Kota Pematang Siantar",
      "countryCode": "ID",
      "stateCode": "SU",
      "latitude": "2.96667000",
      "longitude": "99.05000000"
   },
   {
      "name": "Kota Sibolga",
      "countryCode": "ID",
      "stateCode": "SU",
      "latitude": "1.73333000",
      "longitude": "98.80000000"
   },
   {
      "name": "Kota Tanjung Balai",
      "countryCode": "ID",
      "stateCode": "SU",
      "latitude": "2.95833000",
      "longitude": "99.79167000"
   },
   {
      "name": "Kota Tebing Tinggi",
      "countryCode": "ID",
      "stateCode": "SU",
      "latitude": "3.32500000",
      "longitude": "99.14167000"
   },
   {
      "name": "Labuhan Deli",
      "countryCode": "ID",
      "stateCode": "SU",
      "latitude": "3.72780000",
      "longitude": "98.67380000"
   },
   {
      "name": "Medan",
      "countryCode": "ID",
      "stateCode": "SU",
      "latitude": "3.58333000",
      "longitude": "98.66667000"
   },
   {
      "name": "Padangsidempuan",
      "countryCode": "ID",
      "stateCode": "SU",
      "latitude": "1.37952000",
      "longitude": "99.27146000"
   },
   {
      "name": "Pangkalan Brandan",
      "countryCode": "ID",
      "stateCode": "SU",
      "latitude": "4.02380000",
      "longitude": "98.27820000"
   },
   {
      "name": "Parapat",
      "countryCode": "ID",
      "stateCode": "SU",
      "latitude": "2.66300000",
      "longitude": "98.93490000"
   },
   {
      "name": "Pekan Bahapal",
      "countryCode": "ID",
      "stateCode": "SU",
      "latitude": "3.11313000",
      "longitude": "99.17352000"
   },
   {
      "name": "Pematangsiantar",
      "countryCode": "ID",
      "stateCode": "SU",
      "latitude": "2.95950000",
      "longitude": "99.06870000"
   },
   {
      "name": "Perbaungan",
      "countryCode": "ID",
      "stateCode": "SU",
      "latitude": "3.56790000",
      "longitude": "98.95600000"
   },
   {
      "name": "Percut",
      "countryCode": "ID",
      "stateCode": "SU",
      "latitude": "3.62530000",
      "longitude": "98.86400000"
   },
   {
      "name": "Rantauprapat",
      "countryCode": "ID",
      "stateCode": "SU",
      "latitude": "2.10000000",
      "longitude": "99.83333000"
   },
   {
      "name": "Sibolga",
      "countryCode": "ID",
      "stateCode": "SU",
      "latitude": "1.74016000",
      "longitude": "98.78117000"
   },
   {
      "name": "Stabat",
      "countryCode": "ID",
      "stateCode": "SU",
      "latitude": "3.73335000",
      "longitude": "98.45025000"
   },
   {
      "name": "Sunggal",
      "countryCode": "ID",
      "stateCode": "SU",
      "latitude": "3.57650000",
      "longitude": "98.61510000"
   },
   {
      "name": "Tanjungbalai",
      "countryCode": "ID",
      "stateCode": "SU",
      "latitude": "2.96667000",
      "longitude": "99.80000000"
   },
   {
      "name": "Tanjungtiram",
      "countryCode": "ID",
      "stateCode": "SU",
      "latitude": "4.06130000",
      "longitude": "98.36990000"
   },
   {
      "name": "Tebingtinggi",
      "countryCode": "ID",
      "stateCode": "SU",
      "latitude": "3.32850000",
      "longitude": "99.16250000"
   },
   {
      "name": "Teluk Nibung",
      "countryCode": "ID",
      "stateCode": "SU",
      "latitude": "3.00100000",
      "longitude": "99.81640000"
   },
   {
      "name": "Tomok Bolon",
      "countryCode": "ID",
      "stateCode": "SU",
      "latitude": "2.65210000",
      "longitude": "98.86080000"
   },
   {
      "name": "Tongging",
      "countryCode": "ID",
      "stateCode": "SU",
      "latitude": "2.89850000",
      "longitude": "98.52310000"
   },
   {
      "name": "Tuktuk Sonak",
      "countryCode": "ID",
      "stateCode": "SU",
      "latitude": "2.66890000",
      "longitude": "98.85760000"
   }
]