[
   {
      "name": "Beaufort",
      "countryCode": "LU",
      "stateCode": "EC",
      "latitude": "49.83583000",
      "longitude": "6.29167000"
   },
   {
      "name": "Bech",
      "countryCode": "LU",
      "stateCode": "EC",
      "latitude": "49.75260000",
      "longitude": "6.36379000"
   },
   {
      "name": "Berdorf",
      "countryCode": "LU",
      "stateCode": "EC",
      "latitude": "49.82051000",
      "longitude": "6.34945000"
   },
   {
      "name": "Consdorf",
      "countryCode": "LU",
      "stateCode": "EC",
      "latitude": "49.78018000",
      "longitude": "6.33950000"
   },
   {
      "name": "Echternach",
      "countryCode": "LU",
      "stateCode": "EC",
      "latitude": "49.81212000",
      "longitude": "6.41846000"
   },
   {
      "name": "Mompach",
      "countryCode": "LU",
      "stateCode": "EC",
      "latitude": "49.74611000",
      "longitude": "6.46500000"
   },
   {
      "name": "Rosport",
      "countryCode": "LU",
      "stateCode": "EC",
      "latitude": "49.80470000",
      "longitude": "6.50532000"
   },
   {
      "name": "Waldbillig",
      "countryCode": "LU",
      "stateCode": "EC",
      "latitude": "49.79636000",
      "longitude": "6.28431000"
   }
]