[
   {
      "name": "Asan",
      "countryCode": "KR",
      "stateCode": "44",
      "latitude": "36.78361000",
      "longitude": "127.00417000"
   },
   {
      "name": "Asan-si",
      "countryCode": "KR",
      "stateCode": "44",
      "latitude": "36.80791000",
      "longitude": "126.97769000"
   },
   {
      "name": "Boryeong",
      "countryCode": "KR",
      "stateCode": "44",
      "latitude": "36.34931000",
      "longitude": "126.59772000"
   },
   {
      "name": "Boryeong-si",
      "countryCode": "KR",
      "stateCode": "44",
      "latitude": "36.35649000",
      "longitude": "126.59444000"
   },
   {
      "name": "Buyeo",
      "countryCode": "KR",
      "stateCode": "44",
      "latitude": "36.27472000",
      "longitude": "126.90906000"
   },
   {
      "name": "Buyeo-gun",
      "countryCode": "KR",
      "stateCode": "44",
      "latitude": "36.26257000",
      "longitude": "126.85802000"
   },
   {
      "name": "Cheonan",
      "countryCode": "KR",
      "stateCode": "44",
      "latitude": "36.80650000",
      "longitude": "127.15220000"
   },
   {
      "name": "Cheonan-si",
      "countryCode": "KR",
      "stateCode": "44",
      "latitude": "36.80488000",
      "longitude": "127.19431000"
   },
   {
      "name": "Cheongyang-gun",
      "countryCode": "KR",
      "stateCode": "44",
      "latitude": "36.41676000",
      "longitude": "126.79419000"
   },
   {
      "name": "Geumsan-gun",
      "countryCode": "KR",
      "stateCode": "44",
      "latitude": "36.13381000",
      "longitude": "127.48062000"
   },
   {
      "name": "Gongju",
      "countryCode": "KR",
      "stateCode": "44",
      "latitude": "36.45556000",
      "longitude": "127.12472000"
   },
   {
      "name": "Gongju-si",
      "countryCode": "KR",
      "stateCode": "44",
      "latitude": "36.50000000",
      "longitude": "127.08333000"
   },
   {
      "name": "Gyeryong-si",
      "countryCode": "KR",
      "stateCode": "44",
      "latitude": "36.29304000",
      "longitude": "127.22575000"
   },
   {
      "name": "Hongseong",
      "countryCode": "KR",
      "stateCode": "44",
      "latitude": "36.60090000",
      "longitude": "126.66500000"
   },
   {
      "name": "Hongseong-gun",
      "countryCode": "KR",
      "stateCode": "44",
      "latitude": "36.56705000",
      "longitude": "126.62626000"
   },
   {
      "name": "Kinzan",
      "countryCode": "KR",
      "stateCode": "44",
      "latitude": "36.10306000",
      "longitude": "127.48889000"
   },
   {
      "name": "Nonsan",
      "countryCode": "KR",
      "stateCode": "44",
      "latitude": "36.20389000",
      "longitude": "127.08472000"
   },
   {
      "name": "Nonsan-si",
      "countryCode": "KR",
      "stateCode": "44",
      "latitude": "36.19774000",
      "longitude": "127.12143000"
   },
   {
      "name": "Seocheon-gun",
      "countryCode": "KR",
      "stateCode": "44",
      "latitude": "36.10600000",
      "longitude": "126.69716000"
   },
   {
      "name": "Seonghwan",
      "countryCode": "KR",
      "stateCode": "44",
      "latitude": "36.91556000",
      "longitude": "127.13139000"
   },
   {
      "name": "Seosan",
      "countryCode": "KR",
      "stateCode": "44",
      "latitude": "36.78167000",
      "longitude": "126.45222000"
   },
   {
      "name": "Seosan-si",
      "countryCode": "KR",
      "stateCode": "44",
      "latitude": "36.78518000",
      "longitude": "126.46568000"
   },
   {
      "name": "Taean-gun",
      "countryCode": "KR",
      "stateCode": "44",
      "latitude": "36.70036000",
      "longitude": "126.28391000"
   },
   {
      "name": "Taesal-li",
      "countryCode": "KR",
      "stateCode": "44",
      "latitude": "36.97140000",
      "longitude": "126.45420000"
   },
   {
      "name": "Tangjin",
      "countryCode": "KR",
      "stateCode": "44",
      "latitude": "36.89444000",
      "longitude": "126.62972000"
   },
   {
      "name": "Yesan",
      "countryCode": "KR",
      "stateCode": "44",
      "latitude": "36.67756000",
      "longitude": "126.84272000"
   },
   {
      "name": "Yesan-gun",
      "countryCode": "KR",
      "stateCode": "44",
      "latitude": "36.68218000",
      "longitude": "126.79592000"
   },
   {
      "name": "Y≈ènmu",
      "countryCode": "KR",
      "stateCode": "44",
      "latitude": "36.12944000",
      "longitude": "127.10000000"
   }
]