[
   {
      "name": "Al Bājūr",
      "countryCode": "EG",
      "stateCode": "MNF",
      "latitude": "30.43046000",
      "longitude": "31.03679000"
   },
   {
      "name": "Ash Shuhadā’",
      "countryCode": "EG",
      "stateCode": "MNF",
      "latitude": "30.59683000",
      "longitude": "30.89931000"
   },
   {
      "name": "Ashmūn",
      "countryCode": "EG",
      "stateCode": "MNF",
      "latitude": "30.29735000",
      "longitude": "30.97641000"
   },
   {
      "name": "Munūf",
      "countryCode": "EG",
      "stateCode": "MNF",
      "latitude": "30.46597000",
      "longitude": "30.93199000"
   },
   {
      "name": "Quwaysinā",
      "countryCode": "EG",
      "stateCode": "MNF",
      "latitude": "30.56482000",
      "longitude": "31.15777000"
   },
   {
      "name": "Shibīn al Kawm",
      "countryCode": "EG",
      "stateCode": "MNF",
      "latitude": "30.55258000",
      "longitude": "31.00904000"
   },
   {
      "name": "Talā",
      "countryCode": "EG",
      "stateCode": "MNF",
      "latitude": "30.67980000",
      "longitude": "30.94364000"
   }
]