[
   {
      "name": "Akaltara",
      "countryCode": "IN",
      "stateCode": "CT",
      "latitude": "22.02463000",
      "longitude": "82.42641000"
   },
   {
      "name": "Ambagarh Chauki",
      "countryCode": "IN",
      "stateCode": "CT",
      "latitude": "20.77644000",
      "longitude": "80.74608000"
   },
   {
      "name": "Ambikapur",
      "countryCode": "IN",
      "stateCode": "CT",
      "latitude": "23.11892000",
      "longitude": "83.19537000"
   },
   {
      "name": "Arang",
      "countryCode": "IN",
      "stateCode": "CT",
      "latitude": "21.19639000",
      "longitude": "81.96912000"
   },
   {
      "name": "Baikunthpur",
      "countryCode": "IN",
      "stateCode": "CT",
      "latitude": "23.26206000",
      "longitude": "82.56051000"
   },
   {
      "name": "Balod",
      "countryCode": "IN",
      "stateCode": "CT",
      "latitude": "20.73081000",
      "longitude": "81.20578000"
   },
   {
      "name": "Baloda",
      "countryCode": "IN",
      "stateCode": "CT",
      "latitude": "22.13890000",
      "longitude": "82.48171000"
   },
   {
      "name": "Baloda Bazar",
      "countryCode": "IN",
      "stateCode": "CT",
      "latitude": "21.65678000",
      "longitude": "82.16062000"
   },
   {
      "name": "Basna",
      "countryCode": "IN",
      "stateCode": "CT",
      "latitude": "21.27885000",
      "longitude": "82.82670000"
   },
   {
      "name": "Bastar",
      "countryCode": "IN",
      "stateCode": "CT",
      "latitude": "19.26794000",
      "longitude": "81.73828000"
   },
   {
      "name": "Bemetara",
      "countryCode": "IN",
      "stateCode": "CT",
      "latitude": "21.71556000",
      "longitude": "81.53423000"
   },
   {
      "name": "Bhanpuri",
      "countryCode": "IN",
      "stateCode": "CT",
      "latitude": "21.09190000",
      "longitude": "80.93218000"
   },
   {
      "name": "Bhatapara",
      "countryCode": "IN",
      "stateCode": "CT",
      "latitude": "21.73500000",
      "longitude": "81.94711000"
   },
   {
      "name": "Bhatgaon",
      "countryCode": "IN",
      "stateCode": "CT",
      "latitude": "21.15000000",
      "longitude": "81.70000000"
   },
   {
      "name": "Bhilai",
      "countryCode": "IN",
      "stateCode": "CT",
      "latitude": "21.20919000",
      "longitude": "81.42850000"
   },
   {
      "name": "Bijapur",
      "countryCode": "IN",
      "stateCode": "CT",
      "latitude": "18.84322000",
      "longitude": "80.77610000"
   },
   {
      "name": "Bilaspur",
      "countryCode": "IN",
      "stateCode": "CT",
      "latitude": "22.38333000",
      "longitude": "82.13333000"
   },
   {
      "name": "Champa",
      "countryCode": "IN",
      "stateCode": "CT",
      "latitude": "22.03532000",
      "longitude": "82.64234000"
   },
   {
      "name": "Chhuikhadan",
      "countryCode": "IN",
      "stateCode": "CT",
      "latitude": "21.52316000",
      "longitude": "80.99788000"
   },
   {
      "name": "Deori",
      "countryCode": "IN",
      "stateCode": "CT",
      "latitude": "21.45000000",
      "longitude": "82.61667000"
   },
   {
      "name": "Dhamtari",
      "countryCode": "IN",
      "stateCode": "CT",
      "latitude": "20.70718000",
      "longitude": "81.54874000"
   },
   {
      "name": "Dongargaon",
      "countryCode": "IN",
      "stateCode": "CT",
      "latitude": "20.97172000",
      "longitude": "80.85077000"
   },
   {
      "name": "Dongargarh",
      "countryCode": "IN",
      "stateCode": "CT",
      "latitude": "21.18893000",
      "longitude": "80.75459000"
   },
   {
      "name": "Durg",
      "countryCode": "IN",
      "stateCode": "CT",
      "latitude": "21.15000000",
      "longitude": "81.40000000"
   },
   {
      "name": "Gandai",
      "countryCode": "IN",
      "stateCode": "CT",
      "latitude": "21.66667000",
      "longitude": "81.10013000"
   },
   {
      "name": "Gariaband",
      "countryCode": "IN",
      "stateCode": "CT",
      "latitude": "20.63323000",
      "longitude": "82.06221000"
   },
   {
      "name": "Gaurela",
      "countryCode": "IN",
      "stateCode": "CT",
      "latitude": "22.75449000",
      "longitude": "81.90107000"
   },
   {
      "name": "Gharghoda",
      "countryCode": "IN",
      "stateCode": "CT",
      "latitude": "22.17427000",
      "longitude": "83.35170000"
   },
   {
      "name": "Gidam",
      "countryCode": "IN",
      "stateCode": "CT",
      "latitude": "18.97431000",
      "longitude": "81.39894000"
   },
   {
      "name": "Jagdalpur",
      "countryCode": "IN",
      "stateCode": "CT",
      "latitude": "19.08136000",
      "longitude": "82.02131000"
   },
   {
      "name": "Janjgir",
      "countryCode": "IN",
      "stateCode": "CT",
      "latitude": "22.00922000",
      "longitude": "82.57780000"
   },
   {
      "name": "Janjgir-Champa",
      "countryCode": "IN",
      "stateCode": "CT",
      "latitude": "21.90000000",
      "longitude": "82.70000000"
   },
   {
      "name": "Jashpur",
      "countryCode": "IN",
      "stateCode": "CT",
      "latitude": "22.78495000",
      "longitude": "83.84573000"
   },
   {
      "name": "Jashpurnagar",
      "countryCode": "IN",
      "stateCode": "CT",
      "latitude": "22.88783000",
      "longitude": "84.13864000"
   },
   {
      "name": "Junagarh",
      "countryCode": "IN",
      "stateCode": "CT",
      "latitude": "19.85993000",
      "longitude": "82.93385000"
   },
   {
      "name": "Kabeerdham",
      "countryCode": "IN",
      "stateCode": "CT",
      "latitude": "22.10000000",
      "longitude": "81.20000000"
   },
   {
      "name": "Kanker",
      "countryCode": "IN",
      "stateCode": "CT",
      "latitude": "20.27193000",
      "longitude": "81.49177000"
   },
   {
      "name": "Katghora",
      "countryCode": "IN",
      "stateCode": "CT",
      "latitude": "22.50247000",
      "longitude": "82.54279000"
   },
   {
      "name": "Kawardha",
      "countryCode": "IN",
      "stateCode": "CT",
      "latitude": "22.00853000",
      "longitude": "81.23148000"
   },
   {
      "name": "Khairagarh",
      "countryCode": "IN",
      "stateCode": "CT",
      "latitude": "21.41859000",
      "longitude": "80.97942000"
   },
   {
      "name": "Khamharia",
      "countryCode": "IN",
      "stateCode": "CT",
      "latitude": "20.97600000",
      "longitude": "82.25116000"
   },
   {
      "name": "Kharod",
      "countryCode": "IN",
      "stateCode": "CT",
      "latitude": "21.74420000",
      "longitude": "82.57880000"
   },
   {
      "name": "Kharsia",
      "countryCode": "IN",
      "stateCode": "CT",
      "latitude": "21.98953000",
      "longitude": "83.10476000"
   },
   {
      "name": "Kirandul",
      "countryCode": "IN",
      "stateCode": "CT",
      "latitude": "18.63649000",
      "longitude": "81.25827000"
   },
   {
      "name": "Kondagaon",
      "countryCode": "IN",
      "stateCode": "CT",
      "latitude": "19.59083000",
      "longitude": "81.66400000"
   },
   {
      "name": "Korba",
      "countryCode": "IN",
      "stateCode": "CT",
      "latitude": "22.50000000",
      "longitude": "82.60000000"
   },
   {
      "name": "Koriya",
      "countryCode": "IN",
      "stateCode": "CT",
      "latitude": "23.48326000",
      "longitude": "82.15037000"
   },
   {
      "name": "Kota",
      "countryCode": "IN",
      "stateCode": "CT",
      "latitude": "22.29507000",
      "longitude": "82.02366000"
   },
   {
      "name": "Kotaparh",
      "countryCode": "IN",
      "stateCode": "CT",
      "latitude": "19.14256000",
      "longitude": "82.32536000"
   },
   {
      "name": "Kumhari",
      "countryCode": "IN",
      "stateCode": "CT",
      "latitude": "21.26667000",
      "longitude": "81.51667000"
   },
   {
      "name": "Kurud",
      "countryCode": "IN",
      "stateCode": "CT",
      "latitude": "20.83073000",
      "longitude": "81.72212000"
   },
   {
      "name": "Lormi",
      "countryCode": "IN",
      "stateCode": "CT",
      "latitude": "22.27434000",
      "longitude": "81.70181000"
   },
   {
      "name": "Mahasamund",
      "countryCode": "IN",
      "stateCode": "CT",
      "latitude": "21.20000000",
      "longitude": "82.50000000"
   },
   {
      "name": "Mungeli",
      "countryCode": "IN",
      "stateCode": "CT",
      "latitude": "22.06566000",
      "longitude": "81.68543000"
   },
   {
      "name": "Narayanpur",
      "countryCode": "IN",
      "stateCode": "CT",
      "latitude": "19.60426000",
      "longitude": "81.08119000"
   },
   {
      "name": "Narharpur",
      "countryCode": "IN",
      "stateCode": "CT",
      "latitude": "20.44892000",
      "longitude": "81.62004000"
   },
   {
      "name": "Pandaria",
      "countryCode": "IN",
      "stateCode": "CT",
      "latitude": "22.22495000",
      "longitude": "81.40994000"
   },
   {
      "name": "Pandatarai",
      "countryCode": "IN",
      "stateCode": "CT",
      "latitude": "22.18714000",
      "longitude": "81.32815000"
   },
   {
      "name": "Pasan",
      "countryCode": "IN",
      "stateCode": "CT",
      "latitude": "22.84412000",
      "longitude": "82.19823000"
   },
   {
      "name": "Patan",
      "countryCode": "IN",
      "stateCode": "CT",
      "latitude": "21.03333000",
      "longitude": "81.53333000"
   },
   {
      "name": "Pathalgaon",
      "countryCode": "IN",
      "stateCode": "CT",
      "latitude": "22.55656000",
      "longitude": "83.46355000"
   },
   {
      "name": "Pendra",
      "countryCode": "IN",
      "stateCode": "CT",
      "latitude": "22.77548000",
      "longitude": "81.95968000"
   },
   {
      "name": "Pithora",
      "countryCode": "IN",
      "stateCode": "CT",
      "latitude": "21.25021000",
      "longitude": "82.51707000"
   },
   {
      "name": "Raigarh",
      "countryCode": "IN",
      "stateCode": "CT",
      "latitude": "22.08582000",
      "longitude": "83.30603000"
   },
   {
      "name": "Raipur",
      "countryCode": "IN",
      "stateCode": "CT",
      "latitude": "21.25621000",
      "longitude": "81.69022000"
   },
   {
      "name": "Raj Nandgaon",
      "countryCode": "IN",
      "stateCode": "CT",
      "latitude": "21.16667000",
      "longitude": "81.00000000"
   },
   {
      "name": "Raj-Nandgaon",
      "countryCode": "IN",
      "stateCode": "CT",
      "latitude": "21.09687000",
      "longitude": "81.02890000"
   },
   {
      "name": "Ramanuj Ganj",
      "countryCode": "IN",
      "stateCode": "CT",
      "latitude": "23.80637000",
      "longitude": "83.69981000"
   },
   {
      "name": "Ratanpur",
      "countryCode": "IN",
      "stateCode": "CT",
      "latitude": "22.28660000",
      "longitude": "82.16823000"
   },
   {
      "name": "Sakti",
      "countryCode": "IN",
      "stateCode": "CT",
      "latitude": "22.02662000",
      "longitude": "82.96091000"
   },
   {
      "name": "Saraipali",
      "countryCode": "IN",
      "stateCode": "CT",
      "latitude": "21.31530000",
      "longitude": "83.00629000"
   },
   {
      "name": "Sarangarh",
      "countryCode": "IN",
      "stateCode": "CT",
      "latitude": "21.58614000",
      "longitude": "83.07850000"
   },
   {
      "name": "Seorinarayan",
      "countryCode": "IN",
      "stateCode": "CT",
      "latitude": "21.72055000",
      "longitude": "82.59344000"
   },
   {
      "name": "Simga",
      "countryCode": "IN",
      "stateCode": "CT",
      "latitude": "21.62810000",
      "longitude": "81.70376000"
   },
   {
      "name": "Surguja",
      "countryCode": "IN",
      "stateCode": "CT",
      "latitude": "22.89624000",
      "longitude": "83.09631000"
   },
   {
      "name": "Takhatpur",
      "countryCode": "IN",
      "stateCode": "CT",
      "latitude": "22.12915000",
      "longitude": "81.86959000"
   },
   {
      "name": "Umarkot",
      "countryCode": "IN",
      "stateCode": "CT",
      "latitude": "19.66529000",
      "longitude": "82.20629000"
   },
   {
      "name": "Uttar Bastar Kanker",
      "countryCode": "IN",
      "stateCode": "CT",
      "latitude": "20.20000000",
      "longitude": "81.10000000"
   }
]