[
   {
      "name": "Abinsk",
      "countryCode": "RU",
      "stateCode": "KDA",
      "latitude": "44.86803000",
      "longitude": "38.15728000"
   },
   {
      "name": "Abinskiy Rayon",
      "countryCode": "RU",
      "stateCode": "KDA",
      "latitude": "44.83402000",
      "longitude": "38.27891000"
   },
   {
      "name": "Abrau-Dyurso",
      "countryCode": "RU",
      "stateCode": "KDA",
      "latitude": "44.69973000",
      "longitude": "37.60098000"
   },
   {
      "name": "Adler",
      "countryCode": "RU",
      "stateCode": "KDA",
      "latitude": "43.42896000",
      "longitude": "39.92391000"
   },
   {
      "name": "Afipskiy",
      "countryCode": "RU",
      "stateCode": "KDA",
      "latitude": "44.90005000",
      "longitude": "38.84265000"
   },
   {
      "name": "Agoy",
      "countryCode": "RU",
      "stateCode": "KDA",
      "latitude": "44.14660000",
      "longitude": "39.03730000"
   },
   {
      "name": "Agronom",
      "countryCode": "RU",
      "stateCode": "KDA",
      "latitude": "45.14021000",
      "longitude": "39.19484000"
   },
   {
      "name": "Akhtanizovskaya",
      "countryCode": "RU",
      "stateCode": "KDA",
      "latitude": "45.32128000",
      "longitude": "37.10071000"
   },
   {
      "name": "Akhtyrskiy",
      "countryCode": "RU",
      "stateCode": "KDA",
      "latitude": "44.85460000",
      "longitude": "38.30310000"
   },
   {
      "name": "Alekseyevskaya",
      "countryCode": "RU",
      "stateCode": "KDA",
      "latitude": "45.77167000",
      "longitude": "40.15528000"
   },
   {
      "name": "Anapa",
      "countryCode": "RU",
      "stateCode": "KDA",
      "latitude": "44.89084000",
      "longitude": "37.32390000"
   },
   {
      "name": "Anapskaya",
      "countryCode": "RU",
      "stateCode": "KDA",
      "latitude": "44.89671000",
      "longitude": "37.38600000"
   },
   {
      "name": "Anastasiyevskaya",
      "countryCode": "RU",
      "stateCode": "KDA",
      "latitude": "45.21576000",
      "longitude": "37.89258000"
   },
   {
      "name": "Apsheronsk",
      "countryCode": "RU",
      "stateCode": "KDA",
      "latitude": "44.46472000",
      "longitude": "39.73417000"
   },
   {
      "name": "Arkhipo-Osipovka",
      "countryCode": "RU",
      "stateCode": "KDA",
      "latitude": "44.37194000",
      "longitude": "38.52972000"
   },
   {
      "name": "Armavir",
      "countryCode": "RU",
      "stateCode": "KDA",
      "latitude": "44.98920000",
      "longitude": "41.12340000"
   },
   {
      "name": "Atamanskaya",
      "countryCode": "RU",
      "stateCode": "KDA",
      "latitude": "46.17730000",
      "longitude": "39.63580000"
   },
   {
      "name": "Azovskaya",
      "countryCode": "RU",
      "stateCode": "KDA",
      "latitude": "44.79083000",
      "longitude": "38.62639000"
   },
   {
      "name": "Baturinskaya",
      "countryCode": "RU",
      "stateCode": "KDA",
      "latitude": "45.79267000",
      "longitude": "39.37065000"
   },
   {
      "name": "Belaya Glina",
      "countryCode": "RU",
      "stateCode": "KDA",
      "latitude": "46.07802000",
      "longitude": "40.86651000"
   },
   {
      "name": "Belorechensk",
      "countryCode": "RU",
      "stateCode": "KDA",
      "latitude": "44.77127000",
      "longitude": "39.87879000"
   },
   {
      "name": "Belorechenskiy Rayon",
      "countryCode": "RU",
      "stateCode": "KDA",
      "latitude": "44.79923000",
      "longitude": "39.72061000"
   },
   {
      "name": "Belozërnyy",
      "countryCode": "RU",
      "stateCode": "KDA",
      "latitude": "45.06433000",
      "longitude": "38.67901000"
   },
   {
      "name": "Berezanskaya",
      "countryCode": "RU",
      "stateCode": "KDA",
      "latitude": "45.70562000",
      "longitude": "39.59324000"
   },
   {
      "name": "Besleneyevskaya",
      "countryCode": "RU",
      "stateCode": "KDA",
      "latitude": "44.23100000",
      "longitude": "40.72500000"
   },
   {
      "name": "Besskorbnaya",
      "countryCode": "RU",
      "stateCode": "KDA",
      "latitude": "44.64470000",
      "longitude": "41.31100000"
   },
   {
      "name": "Blagovetschenskaya",
      "countryCode": "RU",
      "stateCode": "KDA",
      "latitude": "45.05530000",
      "longitude": "37.13276000"
   },
   {
      "name": "Bryukhovetskaya",
      "countryCode": "RU",
      "stateCode": "KDA",
      "latitude": "45.80603000",
      "longitude": "38.99959000"
   },
   {
      "name": "Chamlykskaya",
      "countryCode": "RU",
      "stateCode": "KDA",
      "latitude": "44.71583000",
      "longitude": "40.87861000"
   },
   {
      "name": "Chelbasskaya",
      "countryCode": "RU",
      "stateCode": "KDA",
      "latitude": "45.97924000",
      "longitude": "39.37186000"
   },
   {
      "name": "Chernomorskiy",
      "countryCode": "RU",
      "stateCode": "KDA",
      "latitude": "44.85056000",
      "longitude": "38.49361000"
   },
   {
      "name": "Chernoyerkovskaya",
      "countryCode": "RU",
      "stateCode": "KDA",
      "latitude": "45.43306000",
      "longitude": "37.76861000"
   },
   {
      "name": "Dagomys",
      "countryCode": "RU",
      "stateCode": "KDA",
      "latitude": "43.66974000",
      "longitude": "39.66863000"
   },
   {
      "name": "Dinskaya",
      "countryCode": "RU",
      "stateCode": "KDA",
      "latitude": "45.21516000",
      "longitude": "39.22650000"
   },
   {
      "name": "Divnomorskoye",
      "countryCode": "RU",
      "stateCode": "KDA",
      "latitude": "44.50170000",
      "longitude": "38.13420000"
   },
   {
      "name": "Dmitriyevskaya",
      "countryCode": "RU",
      "stateCode": "KDA",
      "latitude": "45.65639000",
      "longitude": "40.76528000"
   },
   {
      "name": "Dneprovskaya",
      "countryCode": "RU",
      "stateCode": "KDA",
      "latitude": "45.62359000",
      "longitude": "38.80807000"
   },
   {
      "name": "Dolzhanskaya",
      "countryCode": "RU",
      "stateCode": "KDA",
      "latitude": "46.63369000",
      "longitude": "37.80246000"
   },
   {
      "name": "Dvubratskiy",
      "countryCode": "RU",
      "stateCode": "KDA",
      "latitude": "45.23888000",
      "longitude": "39.80499000"
   },
   {
      "name": "Dzhiginka",
      "countryCode": "RU",
      "stateCode": "KDA",
      "latitude": "45.13300000",
      "longitude": "37.33825000"
   },
   {
      "name": "Dzhubga",
      "countryCode": "RU",
      "stateCode": "KDA",
      "latitude": "44.32110000",
      "longitude": "38.70730000"
   },
   {
      "name": "Fastovetskaya",
      "countryCode": "RU",
      "stateCode": "KDA",
      "latitude": "45.91889000",
      "longitude": "40.15889000"
   },
   {
      "name": "Gayduk",
      "countryCode": "RU",
      "stateCode": "KDA",
      "latitude": "44.78489000",
      "longitude": "37.70050000"
   },
   {
      "name": "Gelendzhik",
      "countryCode": "RU",
      "stateCode": "KDA",
      "latitude": "44.56220000",
      "longitude": "38.08480000"
   },
   {
      "name": "Girey",
      "countryCode": "RU",
      "stateCode": "KDA",
      "latitude": "45.40120000",
      "longitude": "40.65870000"
   },
   {
      "name": "Glafirovka",
      "countryCode": "RU",
      "stateCode": "KDA",
      "latitude": "46.76378000",
      "longitude": "38.40785000"
   },
   {
      "name": "Glubokiy",
      "countryCode": "RU",
      "stateCode": "KDA",
      "latitude": "44.94673000",
      "longitude": "41.01845000"
   },
   {
      "name": "Golubitskaya",
      "countryCode": "RU",
      "stateCode": "KDA",
      "latitude": "45.32566000",
      "longitude": "37.27020000"
   },
   {
      "name": "Gornoye Loo",
      "countryCode": "RU",
      "stateCode": "KDA",
      "latitude": "43.71294000",
      "longitude": "39.60492000"
   },
   {
      "name": "Goryachiy Klyuch",
      "countryCode": "RU",
      "stateCode": "KDA",
      "latitude": "44.63083000",
      "longitude": "39.13000000"
   },
   {
      "name": "Gostagayevskaya",
      "countryCode": "RU",
      "stateCode": "KDA",
      "latitude": "45.02284000",
      "longitude": "37.50511000"
   },
   {
      "name": "Grivenskaya",
      "countryCode": "RU",
      "stateCode": "KDA",
      "latitude": "45.64730000",
      "longitude": "38.17597000"
   },
   {
      "name": "Gubskaya",
      "countryCode": "RU",
      "stateCode": "KDA",
      "latitude": "44.31639000",
      "longitude": "40.63583000"
   },
   {
      "name": "Gul’kevichi",
      "countryCode": "RU",
      "stateCode": "KDA",
      "latitude": "45.35383000",
      "longitude": "40.69465000"
   },
   {
      "name": "Il’ich",
      "countryCode": "RU",
      "stateCode": "KDA",
      "latitude": "45.42488000",
      "longitude": "36.77402000"
   },
   {
      "name": "Il’skiy",
      "countryCode": "RU",
      "stateCode": "KDA",
      "latitude": "44.84222000",
      "longitude": "38.56686000"
   },
   {
      "name": "Irkliyevskaya",
      "countryCode": "RU",
      "stateCode": "KDA",
      "latitude": "45.85635000",
      "longitude": "39.65381000"
   },
   {
      "name": "Kabardinka",
      "countryCode": "RU",
      "stateCode": "KDA",
      "latitude": "44.65139000",
      "longitude": "37.94278000"
   },
   {
      "name": "Kalininskaya",
      "countryCode": "RU",
      "stateCode": "KDA",
      "latitude": "45.48440000",
      "longitude": "38.66221000"
   },
   {
      "name": "Kalnibolotskaya",
      "countryCode": "RU",
      "stateCode": "KDA",
      "latitude": "46.00583000",
      "longitude": "40.45682000"
   },
   {
      "name": "Kamyshevatskaya",
      "countryCode": "RU",
      "stateCode": "KDA",
      "latitude": "46.41316000",
      "longitude": "37.95632000"
   },
   {
      "name": "Kanelovskaya",
      "countryCode": "RU",
      "stateCode": "KDA",
      "latitude": "46.58960000",
      "longitude": "39.19440000"
   },
   {
      "name": "Kanevskaya",
      "countryCode": "RU",
      "stateCode": "KDA",
      "latitude": "46.08490000",
      "longitude": "38.95960000"
   },
   {
      "name": "Kavkazskaya",
      "countryCode": "RU",
      "stateCode": "KDA",
      "latitude": "45.44530000",
      "longitude": "40.67650000"
   },
   {
      "name": "Kazanskaya",
      "countryCode": "RU",
      "stateCode": "KDA",
      "latitude": "45.41060000",
      "longitude": "40.43610000"
   },
   {
      "name": "Khadyzhensk",
      "countryCode": "RU",
      "stateCode": "KDA",
      "latitude": "44.42580000",
      "longitude": "39.53620000"
   },
   {
      "name": "Kholmskiy",
      "countryCode": "RU",
      "stateCode": "KDA",
      "latitude": "44.84694000",
      "longitude": "38.38500000"
   },
   {
      "name": "Khosta",
      "countryCode": "RU",
      "stateCode": "KDA",
      "latitude": "43.51484000",
      "longitude": "39.86825000"
   },
   {
      "name": "Kislyakovskaya",
      "countryCode": "RU",
      "stateCode": "KDA",
      "latitude": "46.44170000",
      "longitude": "39.67500000"
   },
   {
      "name": "Kiyevskoye",
      "countryCode": "RU",
      "stateCode": "KDA",
      "latitude": "45.03829000",
      "longitude": "37.88829000"
   },
   {
      "name": "Konokovo",
      "countryCode": "RU",
      "stateCode": "KDA",
      "latitude": "44.86160000",
      "longitude": "41.32660000"
   },
   {
      "name": "Konstantinovskaya",
      "countryCode": "RU",
      "stateCode": "KDA",
      "latitude": "44.83528000",
      "longitude": "40.72694000"
   },
   {
      "name": "Kontenko",
      "countryCode": "RU",
      "stateCode": "KDA",
      "latitude": "45.35806000",
      "longitude": "36.83222000"
   },
   {
      "name": "Kopanskaya",
      "countryCode": "RU",
      "stateCode": "KDA",
      "latitude": "46.27785000",
      "longitude": "38.47955000"
   },
   {
      "name": "Korenovsk",
      "countryCode": "RU",
      "stateCode": "KDA",
      "latitude": "45.46899000",
      "longitude": "39.45136000"
   },
   {
      "name": "Korzhevskiy",
      "countryCode": "RU",
      "stateCode": "KDA",
      "latitude": "45.19414000",
      "longitude": "37.71949000"
   },
   {
      "name": "Kovalevskoye",
      "countryCode": "RU",
      "stateCode": "KDA",
      "latitude": "45.19417000",
      "longitude": "40.97611000"
   },
   {
      "name": "Krasnaya Polyana",
      "countryCode": "RU",
      "stateCode": "KDA",
      "latitude": "43.67952000",
      "longitude": "40.20403000"
   },
   {
      "name": "Krasnoarmeyskaya",
      "countryCode": "RU",
      "stateCode": "KDA",
      "latitude": "45.36614000",
      "longitude": "38.21171000"
   },
   {
      "name": "Krasnodar",
      "countryCode": "RU",
      "stateCode": "KDA",
      "latitude": "45.04484000",
      "longitude": "38.97603000"
   },
   {
      "name": "Krasnoye",
      "countryCode": "RU",
      "stateCode": "KDA",
      "latitude": "46.73730000",
      "longitude": "39.56450000"
   },
   {
      "name": "Kropotkin",
      "countryCode": "RU",
      "stateCode": "KDA",
      "latitude": "45.43750000",
      "longitude": "40.57556000"
   },
   {
      "name": "Krylovskaya",
      "countryCode": "RU",
      "stateCode": "KDA",
      "latitude": "46.31944000",
      "longitude": "39.97111000"
   },
   {
      "name": "Krylovskiy Rayon",
      "countryCode": "RU",
      "stateCode": "KDA",
      "latitude": "46.33333000",
      "longitude": "39.96667000"
   },
   {
      "name": "Krymsk",
      "countryCode": "RU",
      "stateCode": "KDA",
      "latitude": "44.92934000",
      "longitude": "37.99117000"
   },
   {
      "name": "Krymskiy Rayon",
      "countryCode": "RU",
      "stateCode": "KDA",
      "latitude": "44.90532000",
      "longitude": "37.80526000"
   },
   {
      "name": "Kubanskiy",
      "countryCode": "RU",
      "stateCode": "KDA",
      "latitude": "45.92917000",
      "longitude": "40.58056000"
   },
   {
      "name": "Kuchugury",
      "countryCode": "RU",
      "stateCode": "KDA",
      "latitude": "45.40702000",
      "longitude": "36.95586000"
   },
   {
      "name": "Kudepsta",
      "countryCode": "RU",
      "stateCode": "KDA",
      "latitude": "43.49547000",
      "longitude": "39.89294000"
   },
   {
      "name": "Kurganinsk",
      "countryCode": "RU",
      "stateCode": "KDA",
      "latitude": "44.88000000",
      "longitude": "40.59861000"
   },
   {
      "name": "Kushchëvskaya",
      "countryCode": "RU",
      "stateCode": "KDA",
      "latitude": "46.55990000",
      "longitude": "39.63210000"
   },
   {
      "name": "Labinsk",
      "countryCode": "RU",
      "stateCode": "KDA",
      "latitude": "44.63417000",
      "longitude": "40.73556000"
   },
   {
      "name": "Ladozhskaya",
      "countryCode": "RU",
      "stateCode": "KDA",
      "latitude": "45.30902000",
      "longitude": "39.93803000"
   },
   {
      "name": "Lazarevskoye",
      "countryCode": "RU",
      "stateCode": "KDA",
      "latitude": "43.90886000",
      "longitude": "39.33137000"
   },
   {
      "name": "Lenina",
      "countryCode": "RU",
      "stateCode": "KDA",
      "latitude": "46.06667000",
      "longitude": "39.78333000"
   },
   {
      "name": "Leningradskaya",
      "countryCode": "RU",
      "stateCode": "KDA",
      "latitude": "46.32140000",
      "longitude": "39.38770000"
   },
   {
      "name": "Lermontovo",
      "countryCode": "RU",
      "stateCode": "KDA",
      "latitude": "44.30380000",
      "longitude": "38.75720000"
   },
   {
      "name": "Lovlinskaya",
      "countryCode": "RU",
      "stateCode": "KDA",
      "latitude": "45.51611000",
      "longitude": "40.24000000"
   },
   {
      "name": "Maykopskoye",
      "countryCode": "RU",
      "stateCode": "KDA",
      "latitude": "45.39361000",
      "longitude": "40.76583000"
   },
   {
      "name": "Medvedovskaya",
      "countryCode": "RU",
      "stateCode": "KDA",
      "latitude": "45.45151000",
      "longitude": "39.02485000"
   },
   {
      "name": "Mikhaylovskaya",
      "countryCode": "RU",
      "stateCode": "KDA",
      "latitude": "44.99472000",
      "longitude": "40.59639000"
   },
   {
      "name": "Mirskoy",
      "countryCode": "RU",
      "stateCode": "KDA",
      "latitude": "45.54390000",
      "longitude": "40.39980000"
   },
   {
      "name": "Mostovskiy Rayon",
      "countryCode": "RU",
      "stateCode": "KDA",
      "latitude": "44.27503000",
      "longitude": "40.64588000"
   },
   {
      "name": "Mostovskoy",
      "countryCode": "RU",
      "stateCode": "KDA",
      "latitude": "44.41222000",
      "longitude": "40.79361000"
   },
   {
      "name": "Myskhako",
      "countryCode": "RU",
      "stateCode": "KDA",
      "latitude": "44.65917000",
      "longitude": "37.76611000"
   },
   {
      "name": "Nebug",
      "countryCode": "RU",
      "stateCode": "KDA",
      "latitude": "44.17170000",
      "longitude": "39.00260000"
   },
   {
      "name": "Neftegorsk",
      "countryCode": "RU",
      "stateCode": "KDA",
      "latitude": "44.36580000",
      "longitude": "39.70780000"
   },
   {
      "name": "Nekrasovskaya",
      "countryCode": "RU",
      "stateCode": "KDA",
      "latitude": "45.14468000",
      "longitude": "39.74868000"
   },
   {
      "name": "Novoalekseyevskaya",
      "countryCode": "RU",
      "stateCode": "KDA",
      "latitude": "44.81889000",
      "longitude": "40.93389000"
   },
   {
      "name": "Novobeysugskaya",
      "countryCode": "RU",
      "stateCode": "KDA",
      "latitude": "45.47195000",
      "longitude": "39.88614000"
   },
   {
      "name": "Novoderevyankovskaya",
      "countryCode": "RU",
      "stateCode": "KDA",
      "latitude": "46.32312000",
      "longitude": "38.74724000"
   },
   {
      "name": "Novodmitriyevskaya",
      "countryCode": "RU",
      "stateCode": "KDA",
      "latitude": "44.83276000",
      "longitude": "38.87847000"
   },
   {
      "name": "Novodzhereliyevskaya",
      "countryCode": "RU",
      "stateCode": "KDA",
      "latitude": "45.77373000",
      "longitude": "38.67227000"
   },
   {
      "name": "Novokorsunskaya",
      "countryCode": "RU",
      "stateCode": "KDA",
      "latitude": "45.64080000",
      "longitude": "39.14641000"
   },
   {
      "name": "Novokubansk",
      "countryCode": "RU",
      "stateCode": "KDA",
      "latitude": "45.11700000",
      "longitude": "41.02670000"
   },
   {
      "name": "Novokubanskiy Rayon",
      "countryCode": "RU",
      "stateCode": "KDA",
      "latitude": "45.08798000",
      "longitude": "41.04466000"
   },
   {
      "name": "Novolabinskaya",
      "countryCode": "RU",
      "stateCode": "KDA",
      "latitude": "45.10956000",
      "longitude": "39.89399000"
   },
   {
      "name": "Novoleushkovskaya",
      "countryCode": "RU",
      "stateCode": "KDA",
      "latitude": "45.99560000",
      "longitude": "39.99210000"
   },
   {
      "name": "Novomalorossiyskaya",
      "countryCode": "RU",
      "stateCode": "KDA",
      "latitude": "45.63483000",
      "longitude": "39.89481000"
   },
   {
      "name": "Novomikhaylovskiy",
      "countryCode": "RU",
      "stateCode": "KDA",
      "latitude": "44.26260000",
      "longitude": "38.85850000"
   },
   {
      "name": "Novominskaya",
      "countryCode": "RU",
      "stateCode": "KDA",
      "latitude": "46.31630000",
      "longitude": "38.95860000"
   },
   {
      "name": "Novomyshastovskaya",
      "countryCode": "RU",
      "stateCode": "KDA",
      "latitude": "45.19909000",
      "longitude": "38.58272000"
   },
   {
      "name": "Novoplatnirovskaya",
      "countryCode": "RU",
      "stateCode": "KDA",
      "latitude": "46.10650000",
      "longitude": "39.41910000"
   },
   {
      "name": "Novopokrovskaya",
      "countryCode": "RU",
      "stateCode": "KDA",
      "latitude": "45.95139000",
      "longitude": "40.70056000"
   },
   {
      "name": "Novorossiysk",
      "countryCode": "RU",
      "stateCode": "KDA",
      "latitude": "44.72439000",
      "longitude": "37.76752000"
   },
   {
      "name": "Novorozhdestvenskaya",
      "countryCode": "RU",
      "stateCode": "KDA",
      "latitude": "45.86057000",
      "longitude": "39.94968000"
   },
   {
      "name": "Novoshcherbinovskaya",
      "countryCode": "RU",
      "stateCode": "KDA",
      "latitude": "46.47669000",
      "longitude": "38.64757000"
   },
   {
      "name": "Novotitarovskaya",
      "countryCode": "RU",
      "stateCode": "KDA",
      "latitude": "45.23756000",
      "longitude": "38.98059000"
   },
   {
      "name": "Novoukrainskiy",
      "countryCode": "RU",
      "stateCode": "KDA",
      "latitude": "44.89420000",
      "longitude": "38.04886000"
   },
   {
      "name": "Novoukrainskoye",
      "countryCode": "RU",
      "stateCode": "KDA",
      "latitude": "45.37833000",
      "longitude": "40.52972000"
   },
   {
      "name": "Novovelichkovskaya",
      "countryCode": "RU",
      "stateCode": "KDA",
      "latitude": "45.27638000",
      "longitude": "38.84165000"
   },
   {
      "name": "Ol’ginka",
      "countryCode": "RU",
      "stateCode": "KDA",
      "latitude": "44.20750000",
      "longitude": "38.89111000"
   },
   {
      "name": "Ol’ginskaya",
      "countryCode": "RU",
      "stateCode": "KDA",
      "latitude": "45.94610000",
      "longitude": "38.54864000"
   },
   {
      "name": "Orël-Izumrud",
      "countryCode": "RU",
      "stateCode": "KDA",
      "latitude": "43.46005000",
      "longitude": "39.92377000"
   },
   {
      "name": "Otradnaya",
      "countryCode": "RU",
      "stateCode": "KDA",
      "latitude": "44.39333000",
      "longitude": "41.52056000"
   },
   {
      "name": "Otrado-Kubanskoye",
      "countryCode": "RU",
      "stateCode": "KDA",
      "latitude": "45.24417000",
      "longitude": "40.84083000"
   },
   {
      "name": "Parkovyy",
      "countryCode": "RU",
      "stateCode": "KDA",
      "latitude": "45.83306000",
      "longitude": "40.14556000"
   },
   {
      "name": "Pashkovskiy",
      "countryCode": "RU",
      "stateCode": "KDA",
      "latitude": "45.02366000",
      "longitude": "39.10436000"
   },
   {
      "name": "Pavlovskaya",
      "countryCode": "RU",
      "stateCode": "KDA",
      "latitude": "46.13770000",
      "longitude": "39.78320000"
   },
   {
      "name": "Pavlovskiy Rayon",
      "countryCode": "RU",
      "stateCode": "KDA",
      "latitude": "46.08978000",
      "longitude": "39.73150000"
   },
   {
      "name": "Peredovaya",
      "countryCode": "RU",
      "stateCode": "KDA",
      "latitude": "44.11722000",
      "longitude": "41.47556000"
   },
   {
      "name": "Perepravnaya",
      "countryCode": "RU",
      "stateCode": "KDA",
      "latitude": "44.33660000",
      "longitude": "40.78490000"
   },
   {
      "name": "Pereyaslovskaya",
      "countryCode": "RU",
      "stateCode": "KDA",
      "latitude": "45.84121000",
      "longitude": "39.02379000"
   },
   {
      "name": "Petropavlovskaya",
      "countryCode": "RU",
      "stateCode": "KDA",
      "latitude": "45.08189000",
      "longitude": "40.45125000"
   },
   {
      "name": "Petrovskaya",
      "countryCode": "RU",
      "stateCode": "KDA",
      "latitude": "45.43139000",
      "longitude": "37.95500000"
   },
   {
      "name": "Plastunovskaya",
      "countryCode": "RU",
      "stateCode": "KDA",
      "latitude": "45.29432000",
      "longitude": "39.26505000"
   },
   {
      "name": "Platnirovskaya",
      "countryCode": "RU",
      "stateCode": "KDA",
      "latitude": "45.39531000",
      "longitude": "39.38420000"
   },
   {
      "name": "Poputnaya",
      "countryCode": "RU",
      "stateCode": "KDA",
      "latitude": "44.51250000",
      "longitude": "41.43920000"
   },
   {
      "name": "Prikubanskiy",
      "countryCode": "RU",
      "stateCode": "KDA",
      "latitude": "45.00150000",
      "longitude": "41.17950000"
   },
   {
      "name": "Primorsko-Akhtarsk",
      "countryCode": "RU",
      "stateCode": "KDA",
      "latitude": "46.04970000",
      "longitude": "38.17470000"
   },
   {
      "name": "Prochnookopskaya",
      "countryCode": "RU",
      "stateCode": "KDA",
      "latitude": "45.06660000",
      "longitude": "41.11750000"
   },
   {
      "name": "Psebay",
      "countryCode": "RU",
      "stateCode": "KDA",
      "latitude": "44.12340000",
      "longitude": "40.81070000"
   },
   {
      "name": "Pshada",
      "countryCode": "RU",
      "stateCode": "KDA",
      "latitude": "44.47000000",
      "longitude": "38.39960000"
   },
   {
      "name": "Pshekhskaya",
      "countryCode": "RU",
      "stateCode": "KDA",
      "latitude": "44.69597000",
      "longitude": "39.79665000"
   },
   {
      "name": "Rayevskaya",
      "countryCode": "RU",
      "stateCode": "KDA",
      "latitude": "44.83571000",
      "longitude": "37.55577000"
   },
   {
      "name": "Rodnikovskaya",
      "countryCode": "RU",
      "stateCode": "KDA",
      "latitude": "44.76444000",
      "longitude": "40.66556000"
   },
   {
      "name": "Rogovskaya",
      "countryCode": "RU",
      "stateCode": "KDA",
      "latitude": "45.73117000",
      "longitude": "38.73960000"
   },
   {
      "name": "Ryazanskaya",
      "countryCode": "RU",
      "stateCode": "KDA",
      "latitude": "44.95528000",
      "longitude": "39.58894000"
   },
   {
      "name": "Saratovskaya",
      "countryCode": "RU",
      "stateCode": "KDA",
      "latitude": "44.70752000",
      "longitude": "39.22156000"
   },
   {
      "name": "Severskaya",
      "countryCode": "RU",
      "stateCode": "KDA",
      "latitude": "44.85407000",
      "longitude": "38.67686000"
   },
   {
      "name": "Shabel’skoye",
      "countryCode": "RU",
      "stateCode": "KDA",
      "latitude": "46.85275000",
      "longitude": "38.47278000"
   },
   {
      "name": "Shedok",
      "countryCode": "RU",
      "stateCode": "KDA",
      "latitude": "44.21790000",
      "longitude": "40.84870000"
   },
   {
      "name": "Shepsi",
      "countryCode": "RU",
      "stateCode": "KDA",
      "latitude": "44.03550000",
      "longitude": "39.14740000"
   },
   {
      "name": "Shirochanka",
      "countryCode": "RU",
      "stateCode": "KDA",
      "latitude": "46.64968000",
      "longitude": "38.39782000"
   },
   {
      "name": "Shkurinskaya",
      "countryCode": "RU",
      "stateCode": "KDA",
      "latitude": "46.58580000",
      "longitude": "39.35990000"
   },
   {
      "name": "Slavyansk-na-Kubani",
      "countryCode": "RU",
      "stateCode": "KDA",
      "latitude": "45.25580000",
      "longitude": "38.12560000"
   },
   {
      "name": "Slavyansky rayon",
      "countryCode": "RU",
      "stateCode": "KDA",
      "latitude": "45.41667000",
      "longitude": "37.75000000"
   },
   {
      "name": "Smolenskaya",
      "countryCode": "RU",
      "stateCode": "KDA",
      "latitude": "44.78636000",
      "longitude": "38.80333000"
   },
   {
      "name": "Sochi",
      "countryCode": "RU",
      "stateCode": "KDA",
      "latitude": "43.59917000",
      "longitude": "39.72569000"
   },
   {
      "name": "Sokolovskoye",
      "countryCode": "RU",
      "stateCode": "KDA",
      "latitude": "45.25833000",
      "longitude": "40.67972000"
   },
   {
      "name": "Sovetskaya",
      "countryCode": "RU",
      "stateCode": "KDA",
      "latitude": "44.77694000",
      "longitude": "41.17222000"
   },
   {
      "name": "Sovkhoznyy",
      "countryCode": "RU",
      "stateCode": "KDA",
      "latitude": "45.29462000",
      "longitude": "38.11384000"
   },
   {
      "name": "Spokoynaya",
      "countryCode": "RU",
      "stateCode": "KDA",
      "latitude": "44.24680000",
      "longitude": "41.40150000"
   },
   {
      "name": "Staraya Stanitsa",
      "countryCode": "RU",
      "stateCode": "KDA",
      "latitude": "45.00980000",
      "longitude": "41.15120000"
   },
   {
      "name": "Staroderevyankovskaya",
      "countryCode": "RU",
      "stateCode": "KDA",
      "latitude": "46.12760000",
      "longitude": "38.96740000"
   },
   {
      "name": "Starodzhereliyevskaya",
      "countryCode": "RU",
      "stateCode": "KDA",
      "latitude": "45.47599000",
      "longitude": "38.29680000"
   },
   {
      "name": "Starokorsunskaya",
      "countryCode": "RU",
      "stateCode": "KDA",
      "latitude": "45.05727000",
      "longitude": "39.31611000"
   },
   {
      "name": "Staroleushkovskaya",
      "countryCode": "RU",
      "stateCode": "KDA",
      "latitude": "45.98666000",
      "longitude": "39.75987000"
   },
   {
      "name": "Starominskaya",
      "countryCode": "RU",
      "stateCode": "KDA",
      "latitude": "46.53000000",
      "longitude": "39.04972000"
   },
   {
      "name": "Staromyshastovskaya",
      "countryCode": "RU",
      "stateCode": "KDA",
      "latitude": "45.34329000",
      "longitude": "39.07608000"
   },
   {
      "name": "Staronizhestebliyevskaya",
      "countryCode": "RU",
      "stateCode": "KDA",
      "latitude": "45.38315000",
      "longitude": "38.44304000"
   },
   {
      "name": "Staroshcherbinovskaya",
      "countryCode": "RU",
      "stateCode": "KDA",
      "latitude": "46.63110000",
      "longitude": "38.67420000"
   },
   {
      "name": "Starotitarovskaya",
      "countryCode": "RU",
      "stateCode": "KDA",
      "latitude": "45.21938000",
      "longitude": "37.15476000"
   },
   {
      "name": "Starovelichkovskaya",
      "countryCode": "RU",
      "stateCode": "KDA",
      "latitude": "45.42884000",
      "longitude": "38.73261000"
   },
   {
      "name": "Strelka",
      "countryCode": "RU",
      "stateCode": "KDA",
      "latitude": "45.20633000",
      "longitude": "37.28650000"
   },
   {
      "name": "Sukko",
      "countryCode": "RU",
      "stateCode": "KDA",
      "latitude": "44.79945000",
      "longitude": "37.42145000"
   },
   {
      "name": "Taman’",
      "countryCode": "RU",
      "stateCode": "KDA",
      "latitude": "45.21170000",
      "longitude": "36.71609000"
   },
   {
      "name": "Tbilisskaya",
      "countryCode": "RU",
      "stateCode": "KDA",
      "latitude": "45.36333000",
      "longitude": "40.19000000"
   },
   {
      "name": "Temirgoyevskaya",
      "countryCode": "RU",
      "stateCode": "KDA",
      "latitude": "45.11414000",
      "longitude": "40.28027000"
   },
   {
      "name": "Temizhbekskaya",
      "countryCode": "RU",
      "stateCode": "KDA",
      "latitude": "45.44556000",
      "longitude": "40.84500000"
   },
   {
      "name": "Temruksky rayon",
      "countryCode": "RU",
      "stateCode": "KDA",
      "latitude": "45.25000000",
      "longitude": "37.25000000"
   },
   {
      "name": "Temryuk",
      "countryCode": "RU",
      "stateCode": "KDA",
      "latitude": "45.27055000",
      "longitude": "37.38716000"
   },
   {
      "name": "Ternevskaya",
      "countryCode": "RU",
      "stateCode": "KDA",
      "latitude": "45.85130000",
      "longitude": "40.41250000"
   },
   {
      "name": "Tikhoretsk",
      "countryCode": "RU",
      "stateCode": "KDA",
      "latitude": "45.85472000",
      "longitude": "40.12528000"
   },
   {
      "name": "Tikhoretskiy Rayon",
      "countryCode": "RU",
      "stateCode": "KDA",
      "latitude": "45.73846000",
      "longitude": "40.27549000"
   },
   {
      "name": "Timashëvsk",
      "countryCode": "RU",
      "stateCode": "KDA",
      "latitude": "45.61694000",
      "longitude": "38.94528000"
   },
   {
      "name": "Troitskaya",
      "countryCode": "RU",
      "stateCode": "KDA",
      "latitude": "45.13493000",
      "longitude": "38.12544000"
   },
   {
      "name": "Trudobelikovskiy",
      "countryCode": "RU",
      "stateCode": "KDA",
      "latitude": "45.26853000",
      "longitude": "38.15376000"
   },
   {
      "name": "Tsibanobalka",
      "countryCode": "RU",
      "stateCode": "KDA",
      "latitude": "44.98034000",
      "longitude": "37.34384000"
   },
   {
      "name": "Tuapse",
      "countryCode": "RU",
      "stateCode": "KDA",
      "latitude": "44.10530000",
      "longitude": "39.08020000"
   },
   {
      "name": "Tuapsinskiy Rayon",
      "countryCode": "RU",
      "stateCode": "KDA",
      "latitude": "44.25000000",
      "longitude": "39.08333000"
   },
   {
      "name": "Udobnaya",
      "countryCode": "RU",
      "stateCode": "KDA",
      "latitude": "44.19320000",
      "longitude": "41.55290000"
   },
   {
      "name": "Upornaya",
      "countryCode": "RU",
      "stateCode": "KDA",
      "latitude": "44.39140000",
      "longitude": "41.01960000"
   },
   {
      "name": "Uspenskaya",
      "countryCode": "RU",
      "stateCode": "KDA",
      "latitude": "45.76448000",
      "longitude": "41.06696000"
   },
   {
      "name": "Uspenskoye",
      "countryCode": "RU",
      "stateCode": "KDA",
      "latitude": "44.83110000",
      "longitude": "41.39270000"
   },
   {
      "name": "Ust’-Labinsk",
      "countryCode": "RU",
      "stateCode": "KDA",
      "latitude": "45.21077000",
      "longitude": "39.68914000"
   },
   {
      "name": "Vardane",
      "countryCode": "RU",
      "stateCode": "KDA",
      "latitude": "43.73179000",
      "longitude": "39.55428000"
   },
   {
      "name": "Varenikovskaya",
      "countryCode": "RU",
      "stateCode": "KDA",
      "latitude": "45.12085000",
      "longitude": "37.64171000"
   },
   {
      "name": "Vasyurinskaya",
      "countryCode": "RU",
      "stateCode": "KDA",
      "latitude": "45.11809000",
      "longitude": "39.42399000"
   },
   {
      "name": "Velikovechnoye",
      "countryCode": "RU",
      "stateCode": "KDA",
      "latitude": "44.93402000",
      "longitude": "39.75499000"
   },
   {
      "name": "Ventsy",
      "countryCode": "RU",
      "stateCode": "KDA",
      "latitude": "45.37639000",
      "longitude": "40.83583000"
   },
   {
      "name": "Verkhnebakanskiy",
      "countryCode": "RU",
      "stateCode": "KDA",
      "latitude": "44.84917000",
      "longitude": "37.65722000"
   },
   {
      "name": "Vinogradnyy",
      "countryCode": "RU",
      "stateCode": "KDA",
      "latitude": "45.05610000",
      "longitude": "37.32125000"
   },
   {
      "name": "Vityazevo",
      "countryCode": "RU",
      "stateCode": "KDA",
      "latitude": "45.00130000",
      "longitude": "37.28211000"
   },
   {
      "name": "Vladimirskaya",
      "countryCode": "RU",
      "stateCode": "KDA",
      "latitude": "44.54550000",
      "longitude": "40.79330000"
   },
   {
      "name": "Vorontsovka",
      "countryCode": "RU",
      "stateCode": "KDA",
      "latitude": "46.65290000",
      "longitude": "38.07870000"
   },
   {
      "name": "Voznesenskaya",
      "countryCode": "RU",
      "stateCode": "KDA",
      "latitude": "44.55270000",
      "longitude": "41.03180000"
   },
   {
      "name": "Vyselki",
      "countryCode": "RU",
      "stateCode": "KDA",
      "latitude": "45.58128000",
      "longitude": "39.66409000"
   },
   {
      "name": "Vyselkovskiy Rayon",
      "countryCode": "RU",
      "stateCode": "KDA",
      "latitude": "45.66667000",
      "longitude": "39.75000000"
   },
   {
      "name": "Vyshestebliyevskaya",
      "countryCode": "RU",
      "stateCode": "KDA",
      "latitude": "45.19611000",
      "longitude": "37.01806000"
   },
   {
      "name": "Vysokoye",
      "countryCode": "RU",
      "stateCode": "KDA",
      "latitude": "43.46304000",
      "longitude": "39.96701000"
   },
   {
      "name": "Yaroslavskaya",
      "countryCode": "RU",
      "stateCode": "KDA",
      "latitude": "44.61056000",
      "longitude": "40.46417000"
   },
   {
      "name": "Yasenskaya",
      "countryCode": "RU",
      "stateCode": "KDA",
      "latitude": "46.35920000",
      "longitude": "38.26900000"
   },
   {
      "name": "Yelizavetinskaya",
      "countryCode": "RU",
      "stateCode": "KDA",
      "latitude": "45.04616000",
      "longitude": "38.79491000"
   },
   {
      "name": "Yeysk",
      "countryCode": "RU",
      "stateCode": "KDA",
      "latitude": "46.70550000",
      "longitude": "38.27390000"
   },
   {
      "name": "Yeyskoye Ukrepleniye",
      "countryCode": "RU",
      "stateCode": "KDA",
      "latitude": "46.70630000",
      "longitude": "38.61210000"
   },
   {
      "name": "Yurovka",
      "countryCode": "RU",
      "stateCode": "KDA",
      "latitude": "45.11470000",
      "longitude": "37.41882000"
   },
   {
      "name": "Yuzhnyy",
      "countryCode": "RU",
      "stateCode": "KDA",
      "latitude": "45.00250000",
      "longitude": "40.47472000"
   },
   {
      "name": "Zavetnyy",
      "countryCode": "RU",
      "stateCode": "KDA",
      "latitude": "44.93160000",
      "longitude": "41.13730000"
   }
]