[
   {
      "name": "Huyện Bình Xuyên",
      "countryCode": "VN",
      "stateCode": "70",
      "latitude": "21.30561000",
      "longitude": "105.66225000"
   },
   {
      "name": "Huyện Tam Dương",
      "countryCode": "VN",
      "stateCode": "70",
      "latitude": "21.36189000",
      "longitude": "105.55690000"
   },
   {
      "name": "Huyện Tam Đảo",
      "countryCode": "VN",
      "stateCode": "70",
      "latitude": "21.45690000",
      "longitude": "105.59460000"
   },
   {
      "name": "Huyện Yên Lạc",
      "countryCode": "VN",
      "stateCode": "70",
      "latitude": "21.21845000",
      "longitude": "105.57586000"
   },
   {
      "name": "Vĩnh Yên",
      "countryCode": "VN",
      "stateCode": "70",
      "latitude": "21.30891000",
      "longitude": "105.60489000"
   }
]