[
   {
      "name": "Al Jubayhah",
      "countryCode": "JO",
      "stateCode": "AM",
      "latitude": "32.01071000",
      "longitude": "35.89802000"
   },
   {
      "name": "Al Jīzah",
      "countryCode": "JO",
      "stateCode": "AM",
      "latitude": "31.69893000",
      "longitude": "35.95530000"
   },
   {
      "name": "Amman",
      "countryCode": "JO",
      "stateCode": "AM",
      "latitude": "31.95522000",
      "longitude": "35.94503000"
   },
   {
      "name": "Jāwā",
      "countryCode": "JO",
      "stateCode": "AM",
      "latitude": "31.85247000",
      "longitude": "35.93928000"
   },
   {
      "name": "Saḩāb",
      "countryCode": "JO",
      "stateCode": "AM",
      "latitude": "31.87032000",
      "longitude": "36.00479000"
   },
   {
      "name": "Umm as Summāq",
      "countryCode": "JO",
      "stateCode": "AM",
      "latitude": "31.88542000",
      "longitude": "35.85430000"
   },
   {
      "name": "Wādī as Sīr",
      "countryCode": "JO",
      "stateCode": "AM",
      "latitude": "31.95450000",
      "longitude": "35.81831000"
   },
   {
      "name": "Ḩayy al Bunayyāt",
      "countryCode": "JO",
      "stateCode": "AM",
      "latitude": "31.89603000",
      "longitude": "35.88465000"
   },
   {
      "name": "Ḩayy al Quwaysimah",
      "countryCode": "JO",
      "stateCode": "AM",
      "latitude": "31.91037000",
      "longitude": "35.94975000"
   }
]