[
   {
      "name": "Amphoe Kathu",
      "countryCode": "TH",
      "stateCode": "83",
      "latitude": "7.91456000",
      "longitude": "98.33330000"
   },
   {
      "name": "Amphoe Mueang Phuket",
      "countryCode": "TH",
      "stateCode": "83",
      "latitude": "7.85609000",
      "longitude": "98.37183000"
   },
   {
      "name": "Amphoe Thalang",
      "countryCode": "TH",
      "stateCode": "83",
      "latitude": "8.03407000",
      "longitude": "98.33399000"
   },
   {
      "name": "Ban Chalong",
      "countryCode": "TH",
      "stateCode": "83",
      "latitude": "7.84468000",
      "longitude": "98.33897000"
   },
   {
      "name": "Ban Karon",
      "countryCode": "TH",
      "stateCode": "83",
      "latitude": "7.84769000",
      "longitude": "98.29850000"
   },
   {
      "name": "Ban Kata",
      "countryCode": "TH",
      "stateCode": "83",
      "latitude": "7.82125000",
      "longitude": "98.30703000"
   },
   {
      "name": "Ban Ko Kaeo",
      "countryCode": "TH",
      "stateCode": "83",
      "latitude": "7.93599000",
      "longitude": "98.39664000"
   },
   {
      "name": "Ban Mai Khao",
      "countryCode": "TH",
      "stateCode": "83",
      "latitude": "8.12713000",
      "longitude": "98.30738000"
   },
   {
      "name": "Ban Ratsada",
      "countryCode": "TH",
      "stateCode": "83",
      "latitude": "7.90963000",
      "longitude": "98.40248000"
   },
   {
      "name": "Ban Talat Nua",
      "countryCode": "TH",
      "stateCode": "83",
      "latitude": "7.88489000",
      "longitude": "98.38557000"
   },
   {
      "name": "Ban Talat Yai",
      "countryCode": "TH",
      "stateCode": "83",
      "latitude": "7.88481000",
      "longitude": "98.40008000"
   },
   {
      "name": "Kathu",
      "countryCode": "TH",
      "stateCode": "83",
      "latitude": "7.91779000",
      "longitude": "98.33322000"
   },
   {
      "name": "Nai Harn",
      "countryCode": "TH",
      "stateCode": "83",
      "latitude": "7.77859000",
      "longitude": "98.30661000"
   },
   {
      "name": "Patong",
      "countryCode": "TH",
      "stateCode": "83",
      "latitude": "7.89607000",
      "longitude": "98.29661000"
   },
   {
      "name": "Phuket",
      "countryCode": "TH",
      "stateCode": "83",
      "latitude": "7.89059000",
      "longitude": "98.39810000"
   },
   {
      "name": "Rawai",
      "countryCode": "TH",
      "stateCode": "83",
      "latitude": "7.77965000",
      "longitude": "98.32532000"
   },
   {
      "name": "Wichit",
      "countryCode": "TH",
      "stateCode": "83",
      "latitude": "7.88940000",
      "longitude": "98.38523000"
   }
]