[
   {
      "name": "Agua Santa del Yuna",
      "countryCode": "DO",
      "stateCode": "06",
      "latitude": "19.15072000",
      "longitude": "-69.80069000"
   },
   {
      "name": "Arenoso",
      "countryCode": "DO",
      "stateCode": "06",
      "latitude": "19.18732000",
      "longitude": "-69.85917000"
   },
   {
      "name": "Castillo",
      "countryCode": "DO",
      "stateCode": "06",
      "latitude": "19.25000000",
      "longitude": "-70.00000000"
   },
   {
      "name": "Hostos",
      "countryCode": "DO",
      "stateCode": "06",
      "latitude": "19.18043000",
      "longitude": "-70.02046000"
   },
   {
      "name": "Las Guáranas",
      "countryCode": "DO",
      "stateCode": "06",
      "latitude": "19.19310000",
      "longitude": "-70.20835000"
   },
   {
      "name": "Pimentel",
      "countryCode": "DO",
      "stateCode": "06",
      "latitude": "19.21667000",
      "longitude": "-70.16667000"
   },
   {
      "name": "San Francisco de Macorís",
      "countryCode": "DO",
      "stateCode": "06",
      "latitude": "19.30099000",
      "longitude": "-70.25259000"
   },
   {
      "name": "Villa Riva",
      "countryCode": "DO",
      "stateCode": "06",
      "latitude": "19.15051000",
      "longitude": "-69.88370000"
   }
]