[
   {
      "name": "Bengkulu",
      "countryCode": "ID",
      "stateCode": "BE",
      "latitude": "-3.80044000",
      "longitude": "102.26554000"
   },
   {
      "name": "Curup",
      "countryCode": "ID",
      "stateCode": "BE",
      "latitude": "-3.47030000",
      "longitude": "102.52070000"
   },
   {
      "name": "Kabupaten Bengkulu Selatan",
      "countryCode": "ID",
      "stateCode": "BE",
      "latitude": "-4.35000000",
      "longitude": "103.03333000"
   },
   {
      "name": "Kabupaten Bengkulu Tengah",
      "countryCode": "ID",
      "stateCode": "BE",
      "latitude": "-3.20679000",
      "longitude": "102.12616000"
   },
   {
      "name": "Kabupaten Bengkulu Utara",
      "countryCode": "ID",
      "stateCode": "BE",
      "latitude": "-3.33333000",
      "longitude": "102.05000000"
   },
   {
      "name": "Kabupaten Kaur",
      "countryCode": "ID",
      "stateCode": "BE",
      "latitude": "-4.78179000",
      "longitude": "103.36109000"
   },
   {
      "name": "Kabupaten Kepahiang",
      "countryCode": "ID",
      "stateCode": "BE",
      "latitude": "-3.60194000",
      "longitude": "102.56424000"
   },
   {
      "name": "Kabupaten Lebong",
      "countryCode": "ID",
      "stateCode": "BE",
      "latitude": "-3.24278000",
      "longitude": "102.33490000"
   },
   {
      "name": "Kabupaten Mukomuko",
      "countryCode": "ID",
      "stateCode": "BE",
      "latitude": "-3.07438000",
      "longitude": "101.54766000"
   },
   {
      "name": "Kabupaten Rejang Lebong",
      "countryCode": "ID",
      "stateCode": "BE",
      "latitude": "-3.43333000",
      "longitude": "102.71667000"
   },
   {
      "name": "Kabupaten Seluma",
      "countryCode": "ID",
      "stateCode": "BE",
      "latitude": "-3.96644000",
      "longitude": "102.47429000"
   },
   {
      "name": "Kota Bengkulu",
      "countryCode": "ID",
      "stateCode": "BE",
      "latitude": "-3.81667000",
      "longitude": "102.31667000"
   }
]