[
   {
      "name": "Daru",
      "countryCode": "PG",
      "stateCode": "WPD",
      "latitude": "-9.07786000",
      "longitude": "143.20893000"
   },
   {
      "name": "Kiunga",
      "countryCode": "PG",
      "stateCode": "WPD",
      "latitude": "-6.12193000",
      "longitude": "141.29061000"
   },
   {
      "name": "Middle Fly",
      "countryCode": "PG",
      "stateCode": "WPD",
      "latitude": "-7.16667000",
      "longitude": "142.03333000"
   },
   {
      "name": "Morehead",
      "countryCode": "PG",
      "stateCode": "WPD",
      "latitude": "-8.71065000",
      "longitude": "141.63668000"
   },
   {
      "name": "North Fly",
      "countryCode": "PG",
      "stateCode": "WPD",
      "latitude": "-5.72896000",
      "longitude": "141.37482000"
   },
   {
      "name": "South Fly",
      "countryCode": "PG",
      "stateCode": "WPD",
      "latitude": "-8.61667000",
      "longitude": "142.11667000"
   }
]