[
   {
      "name": "Ashikaga",
      "countryCode": "JP",
      "stateCode": "09",
      "latitude": "36.33333000",
      "longitude": "139.45000000"
   },
   {
      "name": "Fujioka",
      "countryCode": "JP",
      "stateCode": "09",
      "latitude": "36.25000000",
      "longitude": "139.65000000"
   },
   {
      "name": "Imaichi",
      "countryCode": "JP",
      "stateCode": "09",
      "latitude": "36.71667000",
      "longitude": "139.68333000"
   },
   {
      "name": "Kaminokawa",
      "countryCode": "JP",
      "stateCode": "09",
      "latitude": "36.43333000",
      "longitude": "139.91667000"
   },
   {
      "name": "Kanuma",
      "countryCode": "JP",
      "stateCode": "09",
      "latitude": "36.55000000",
      "longitude": "139.73333000"
   },
   {
      "name": "Kanuma-shi",
      "countryCode": "JP",
      "stateCode": "09",
      "latitude": "36.57550000",
      "longitude": "139.64149000"
   },
   {
      "name": "Karasuyama",
      "countryCode": "JP",
      "stateCode": "09",
      "latitude": "36.65000000",
      "longitude": "140.15000000"
   },
   {
      "name": "Kuroiso",
      "countryCode": "JP",
      "stateCode": "09",
      "latitude": "36.96667000",
      "longitude": "140.05000000"
   },
   {
      "name": "Mashiko",
      "countryCode": "JP",
      "stateCode": "09",
      "latitude": "36.46667000",
      "longitude": "140.10000000"
   },
   {
      "name": "Mibu",
      "countryCode": "JP",
      "stateCode": "09",
      "latitude": "36.41667000",
      "longitude": "139.80000000"
   },
   {
      "name": "Mooka",
      "countryCode": "JP",
      "stateCode": "09",
      "latitude": "36.43333000",
      "longitude": "140.01667000"
   },
   {
      "name": "Mooka-shi",
      "countryCode": "JP",
      "stateCode": "09",
      "latitude": "36.45000000",
      "longitude": "140.05000000"
   },
   {
      "name": "Motegi",
      "countryCode": "JP",
      "stateCode": "09",
      "latitude": "36.51667000",
      "longitude": "140.18333000"
   },
   {
      "name": "Nasukarasuyama",
      "countryCode": "JP",
      "stateCode": "09",
      "latitude": "36.65233000",
      "longitude": "140.16084000"
   },
   {
      "name": "Nasukarasuyama-shi",
      "countryCode": "JP",
      "stateCode": "09",
      "latitude": "36.66270000",
      "longitude": "140.13405000"
   },
   {
      "name": "Nasushiobara-shi",
      "countryCode": "JP",
      "stateCode": "09",
      "latitude": "36.99085000",
      "longitude": "139.91052000"
   },
   {
      "name": "Nikko-shi",
      "countryCode": "JP",
      "stateCode": "09",
      "latitude": "36.75000000",
      "longitude": "139.70000000"
   },
   {
      "name": "Nikkō",
      "countryCode": "JP",
      "stateCode": "09",
      "latitude": "36.75000000",
      "longitude": "139.61667000"
   },
   {
      "name": "Oyama",
      "countryCode": "JP",
      "stateCode": "09",
      "latitude": "36.30000000",
      "longitude": "139.80000000"
   },
   {
      "name": "Oyama-shi",
      "countryCode": "JP",
      "stateCode": "09",
      "latitude": "36.30800000",
      "longitude": "139.80195000"
   },
   {
      "name": "Sakura-shi",
      "countryCode": "JP",
      "stateCode": "09",
      "latitude": "36.72362000",
      "longitude": "140.00289000"
   },
   {
      "name": "Sano",
      "countryCode": "JP",
      "stateCode": "09",
      "latitude": "36.31667000",
      "longitude": "139.58333000"
   },
   {
      "name": "Sano-shi",
      "countryCode": "JP",
      "stateCode": "09",
      "latitude": "36.42406000",
      "longitude": "139.53578000"
   },
   {
      "name": "Shimotsuke-shi",
      "countryCode": "JP",
      "stateCode": "09",
      "latitude": "36.40291000",
      "longitude": "139.86111000"
   },
   {
      "name": "Tanuma",
      "countryCode": "JP",
      "stateCode": "09",
      "latitude": "36.36667000",
      "longitude": "139.58333000"
   },
   {
      "name": "Tochigi-shi",
      "countryCode": "JP",
      "stateCode": "09",
      "latitude": "36.41128000",
      "longitude": "139.69357000"
   },
   {
      "name": "Ujiie",
      "countryCode": "JP",
      "stateCode": "09",
      "latitude": "36.68333000",
      "longitude": "139.96667000"
   },
   {
      "name": "Utsunomiya",
      "countryCode": "JP",
      "stateCode": "09",
      "latitude": "36.56667000",
      "longitude": "139.88333000"
   },
   {
      "name": "Utsunomiya-shi",
      "countryCode": "JP",
      "stateCode": "09",
      "latitude": "36.59688000",
      "longitude": "139.88657000"
   },
   {
      "name": "Yaita",
      "countryCode": "JP",
      "stateCode": "09",
      "latitude": "36.80000000",
      "longitude": "139.93333000"
   },
   {
      "name": "Yaita-shi",
      "countryCode": "JP",
      "stateCode": "09",
      "latitude": "36.82746000",
      "longitude": "139.89809000"
   },
   {
      "name": "Ōtawara",
      "countryCode": "JP",
      "stateCode": "09",
      "latitude": "36.86667000",
      "longitude": "140.03333000"
   },
   {
      "name": "Ōtawara-shi",
      "countryCode": "JP",
      "stateCode": "09",
      "latitude": "36.86129000",
      "longitude": "140.11915000"
   }
]