[
   {
      "name": "Balzers",
      "isoCode": "01",
      "countryCode": "LI",
      "latitude": "42.05283570",
      "longitude": "-88.03668480"
   },
   {
      "name": "Eschen",
      "isoCode": "02",
      "countryCode": "LI",
      "latitude": "40.76695740",
      "longitude": "-73.95228210"
   },
   {
      "name": "Gamprin",
      "isoCode": "03",
      "countryCode": "LI",
      "latitude": "47.21324900",
      "longitude": "9.50251950"
   },
   {
      "name": "Mauren",
      "isoCode": "04",
      "countryCode": "LI",
      "latitude": "47.21892850",
      "longitude": "9.54173500"
   },
   {
      "name": "Planken",
      "isoCode": "05",
      "countryCode": "LI",
      "latitude": "40.66505760",
      "longitude": "-73.50479800"
   },
   {
      "name": "Ruggell",
      "isoCode": "06",
      "countryCode": "LI",
      "latitude": "47.25292220",
      "longitude": "9.54021270"
   },
   {
      "name": "Schaan",
      "isoCode": "07",
      "countryCode": "LI",
      "latitude": "47.12043400",
      "longitude": "9.59416020"
   },
   {
      "name": "Schellenberg",
      "isoCode": "08",
      "countryCode": "LI",
      "latitude": "47.23096600",
      "longitude": "9.54678430"
   },
   {
      "name": "Triesen",
      "isoCode": "09",
      "countryCode": "LI",
      "latitude": "47.10979880",
      "longitude": "9.52482960"
   },
   {
      "name": "Triesenberg",
      "isoCode": "10",
      "countryCode": "LI",
      "latitude": "47.12245110",
      "longitude": "9.57019850"
   },
   {
      "name": "Vaduz",
      "isoCode": "11",
      "countryCode": "LI",
      "latitude": "47.14103030",
      "longitude": "9.52092770"
   }
]