[
   {
      "name": "Amakusa Gun",
      "countryCode": "JP",
      "stateCode": "43",
      "latitude": "32.48513000",
      "longitude": "130.07240000"
   },
   {
      "name": "Amakusa Shi",
      "countryCode": "JP",
      "stateCode": "43",
      "latitude": "32.38515000",
      "longitude": "130.15014000"
   },
   {
      "name": "Arao Shi",
      "countryCode": "JP",
      "stateCode": "43",
      "latitude": "32.97619000",
      "longitude": "130.47562000"
   },
   {
      "name": "Aso-shi",
      "countryCode": "JP",
      "stateCode": "43",
      "latitude": "32.95608000",
      "longitude": "131.09458000"
   },
   {
      "name": "Hitoyoshi",
      "countryCode": "JP",
      "stateCode": "43",
      "latitude": "32.21667000",
      "longitude": "130.75000000"
   },
   {
      "name": "Hitoyoshi Shi",
      "countryCode": "JP",
      "stateCode": "43",
      "latitude": "32.17298000",
      "longitude": "130.74013000"
   },
   {
      "name": "Hondomachi-hondo",
      "countryCode": "JP",
      "stateCode": "43",
      "latitude": "32.45993000",
      "longitude": "130.16713000"
   },
   {
      "name": "Honmachi",
      "countryCode": "JP",
      "stateCode": "43",
      "latitude": "32.50439000",
      "longitude": "130.59952000"
   },
   {
      "name": "Kamiamakusa Shi",
      "countryCode": "JP",
      "stateCode": "43",
      "latitude": "32.49550000",
      "longitude": "130.40816000"
   },
   {
      "name": "Kikuchi",
      "countryCode": "JP",
      "stateCode": "43",
      "latitude": "32.98333000",
      "longitude": "130.81667000"
   },
   {
      "name": "Kikuchi Shi",
      "countryCode": "JP",
      "stateCode": "43",
      "latitude": "32.99107000",
      "longitude": "130.85523000"
   },
   {
      "name": "Kumamoto",
      "countryCode": "JP",
      "stateCode": "43",
      "latitude": "32.80589000",
      "longitude": "130.69181000"
   },
   {
      "name": "Kumamoto Shi",
      "countryCode": "JP",
      "stateCode": "43",
      "latitude": "32.79733000",
      "longitude": "130.69171000"
   },
   {
      "name": "Kōshi Shi",
      "countryCode": "JP",
      "stateCode": "43",
      "latitude": "32.89305000",
      "longitude": "130.76867000"
   },
   {
      "name": "Matsubase",
      "countryCode": "JP",
      "stateCode": "43",
      "latitude": "32.65000000",
      "longitude": "130.66667000"
   },
   {
      "name": "Minamata",
      "countryCode": "JP",
      "stateCode": "43",
      "latitude": "32.21667000",
      "longitude": "130.40000000"
   },
   {
      "name": "Minamata Shi",
      "countryCode": "JP",
      "stateCode": "43",
      "latitude": "32.17055000",
      "longitude": "130.46211000"
   },
   {
      "name": "Tamana",
      "countryCode": "JP",
      "stateCode": "43",
      "latitude": "32.94716000",
      "longitude": "130.57446000"
   },
   {
      "name": "Tamana Shi",
      "countryCode": "JP",
      "stateCode": "43",
      "latitude": "32.91550000",
      "longitude": "130.56018000"
   },
   {
      "name": "Uekimachi-mōno",
      "countryCode": "JP",
      "stateCode": "43",
      "latitude": "32.89964000",
      "longitude": "130.68898000"
   },
   {
      "name": "Uki Shi",
      "countryCode": "JP",
      "stateCode": "43",
      "latitude": "32.62669000",
      "longitude": "130.65491000"
   },
   {
      "name": "Ushibukamachi",
      "countryCode": "JP",
      "stateCode": "43",
      "latitude": "32.20142000",
      "longitude": "130.02171000"
   },
   {
      "name": "Uto",
      "countryCode": "JP",
      "stateCode": "43",
      "latitude": "32.68333000",
      "longitude": "130.66667000"
   },
   {
      "name": "Uto Shi",
      "countryCode": "JP",
      "stateCode": "43",
      "latitude": "32.68092000",
      "longitude": "130.61308000"
   },
   {
      "name": "Yamaga Shi",
      "countryCode": "JP",
      "stateCode": "43",
      "latitude": "33.05587000",
      "longitude": "130.72309000"
   },
   {
      "name": "Yatsushiro Shi",
      "countryCode": "JP",
      "stateCode": "43",
      "latitude": "32.49063000",
      "longitude": "130.74972000"
   },
   {
      "name": "Ōzu",
      "countryCode": "JP",
      "stateCode": "43",
      "latitude": "32.88040000",
      "longitude": "130.87161000"
   }
]