[
   {
      "name": "Bay Roberts",
      "countryCode": "CA",
      "stateCode": "NL",
      "latitude": "47.59989000",
      "longitude": "-53.26478000"
   },
   {
      "name": "Bay St. George South",
      "countryCode": "CA",
      "stateCode": "NL",
      "latitude": "48.22781000",
      "longitude": "-58.84162000"
   },
   {
      "name": "Bonavista",
      "countryCode": "CA",
      "stateCode": "NL",
      "latitude": "48.64989000",
      "longitude": "-53.11474000"
   },
   {
      "name": "Botwood",
      "countryCode": "CA",
      "stateCode": "NL",
      "latitude": "49.14994000",
      "longitude": "-55.34819000"
   },
   {
      "name": "Burgeo",
      "countryCode": "CA",
      "stateCode": "NL",
      "latitude": "47.61668000",
      "longitude": "-57.61516000"
   },
   {
      "name": "Carbonear",
      "countryCode": "CA",
      "stateCode": "NL",
      "latitude": "47.73319000",
      "longitude": "-53.21478000"
   },
   {
      "name": "Catalina",
      "countryCode": "CA",
      "stateCode": "NL",
      "latitude": "48.51659000",
      "longitude": "-53.08135000"
   },
   {
      "name": "Channel-Port aux Basques",
      "countryCode": "CA",
      "stateCode": "NL",
      "latitude": "47.57286000",
      "longitude": "-59.13808000"
   },
   {
      "name": "Clarenville-Shoal Harbour",
      "countryCode": "CA",
      "stateCode": "NL",
      "latitude": "48.18050000",
      "longitude": "-53.96982000"
   },
   {
      "name": "Conception Bay South",
      "countryCode": "CA",
      "stateCode": "NL",
      "latitude": "47.49989000",
      "longitude": "-52.99806000"
   },
   {
      "name": "Corner Brook",
      "countryCode": "CA",
      "stateCode": "NL",
      "latitude": "48.95001000",
      "longitude": "-57.95202000"
   },
   {
      "name": "Deer Lake",
      "countryCode": "CA",
      "stateCode": "NL",
      "latitude": "49.16671000",
      "longitude": "-57.43163000"
   },
   {
      "name": "Fogo Island",
      "countryCode": "CA",
      "stateCode": "NL",
      "latitude": "49.71649000",
      "longitude": "-54.16981000"
   },
   {
      "name": "Gambo",
      "countryCode": "CA",
      "stateCode": "NL",
      "latitude": "48.78320000",
      "longitude": "-54.21482000"
   },
   {
      "name": "Goulds",
      "countryCode": "CA",
      "stateCode": "NL",
      "latitude": "47.45532000",
      "longitude": "-52.77552000"
   },
   {
      "name": "Grand Bank",
      "countryCode": "CA",
      "stateCode": "NL",
      "latitude": "47.09995000",
      "longitude": "-55.76504000"
   },
   {
      "name": "Grand Falls-Windsor",
      "countryCode": "CA",
      "stateCode": "NL",
      "latitude": "48.93324000",
      "longitude": "-55.66492000"
   },
   {
      "name": "Happy Valley-Goose Bay",
      "countryCode": "CA",
      "stateCode": "NL",
      "latitude": "53.30380000",
      "longitude": "-60.32576000"
   },
   {
      "name": "Harbour Breton",
      "countryCode": "CA",
      "stateCode": "NL",
      "latitude": "47.48325000",
      "longitude": "-55.79833000"
   },
   {
      "name": "Labrador City",
      "countryCode": "CA",
      "stateCode": "NL",
      "latitude": "52.94626000",
      "longitude": "-66.91137000"
   },
   {
      "name": "Lewisporte",
      "countryCode": "CA",
      "stateCode": "NL",
      "latitude": "49.24993000",
      "longitude": "-55.04816000"
   },
   {
      "name": "Marystown",
      "countryCode": "CA",
      "stateCode": "NL",
      "latitude": "47.16663000",
      "longitude": "-55.14829000"
   },
   {
      "name": "Mount Pearl",
      "countryCode": "CA",
      "stateCode": "NL",
      "latitude": "47.51659000",
      "longitude": "-52.78135000"
   },
   {
      "name": "Pasadena",
      "countryCode": "CA",
      "stateCode": "NL",
      "latitude": "49.01671000",
      "longitude": "-57.59837000"
   },
   {
      "name": "Springdale",
      "countryCode": "CA",
      "stateCode": "NL",
      "latitude": "49.49995000",
      "longitude": "-56.06492000"
   },
   {
      "name": "St. Anthony",
      "countryCode": "CA",
      "stateCode": "NL",
      "latitude": "51.37039000",
      "longitude": "-55.59743000"
   },
   {
      "name": "St. John's",
      "countryCode": "CA",
      "stateCode": "NL",
      "latitude": "47.56494000",
      "longitude": "-52.70931000"
   },
   {
      "name": "Stephenville",
      "countryCode": "CA",
      "stateCode": "NL",
      "latitude": "48.55001000",
      "longitude": "-58.58180000"
   },
   {
      "name": "Stephenville Crossing",
      "countryCode": "CA",
      "stateCode": "NL",
      "latitude": "48.50001000",
      "longitude": "-58.43180000"
   },
   {
      "name": "Torbay",
      "countryCode": "CA",
      "stateCode": "NL",
      "latitude": "47.66659000",
      "longitude": "-52.73135000"
   },
   {
      "name": "Upper Island Cove",
      "countryCode": "CA",
      "stateCode": "NL",
      "latitude": "47.64989000",
      "longitude": "-53.21478000"
   },
   {
      "name": "Wabana",
      "countryCode": "CA",
      "stateCode": "NL",
      "latitude": "47.63319000",
      "longitude": "-52.94806000"
   }
]