[
   {
      "name": "Azare",
      "countryCode": "NG",
      "stateCode": "BA",
      "latitude": "11.67478000",
      "longitude": "10.19069000"
   },
   {
      "name": "Bauchi",
      "countryCode": "NG",
      "stateCode": "BA",
      "latitude": "10.31032000",
      "longitude": "9.84388000"
   },
   {
      "name": "Boi",
      "countryCode": "NG",
      "stateCode": "BA",
      "latitude": "9.56109000",
      "longitude": "9.50154000"
   },
   {
      "name": "Bununu",
      "countryCode": "NG",
      "stateCode": "BA",
      "latitude": "9.88224000",
      "longitude": "9.68058000"
   },
   {
      "name": "Darazo",
      "countryCode": "NG",
      "stateCode": "BA",
      "latitude": "10.99920000",
      "longitude": "10.41062000"
   },
   {
      "name": "Dass",
      "countryCode": "NG",
      "stateCode": "BA",
      "latitude": "10.00065000",
      "longitude": "9.51596000"
   },
   {
      "name": "Dindima",
      "countryCode": "NG",
      "stateCode": "BA",
      "latitude": "10.22629000",
      "longitude": "10.15132000"
   },
   {
      "name": "Disina",
      "countryCode": "NG",
      "stateCode": "BA",
      "latitude": "11.48135000",
      "longitude": "9.91903000"
   },
   {
      "name": "Gabarin",
      "countryCode": "NG",
      "stateCode": "BA",
      "latitude": "11.10930000",
      "longitude": "10.44410000"
   },
   {
      "name": "Gwaram",
      "countryCode": "NG",
      "stateCode": "BA",
      "latitude": "10.23295000",
      "longitude": "10.28572000"
   },
   {
      "name": "Kari",
      "countryCode": "NG",
      "stateCode": "BA",
      "latitude": "11.24710000",
      "longitude": "10.56100000"
   },
   {
      "name": "Lame",
      "countryCode": "NG",
      "stateCode": "BA",
      "latitude": "10.44154000",
      "longitude": "9.23955000"
   },
   {
      "name": "Lere",
      "countryCode": "NG",
      "stateCode": "BA",
      "latitude": "9.71052000",
      "longitude": "9.34029000"
   },
   {
      "name": "Madara",
      "countryCode": "NG",
      "stateCode": "BA",
      "latitude": "11.77980000",
      "longitude": "10.44790000"
   },
   {
      "name": "Misau",
      "countryCode": "NG",
      "stateCode": "BA",
      "latitude": "11.31370000",
      "longitude": "10.46664000"
   },
   {
      "name": "Sade",
      "countryCode": "NG",
      "stateCode": "BA",
      "latitude": "11.35950000",
      "longitude": "10.67320000"
   },
   {
      "name": "Yamrat",
      "countryCode": "NG",
      "stateCode": "BA",
      "latitude": "10.11161000",
      "longitude": "9.82604000"
   },
   {
      "name": "Yanda Bayo",
      "countryCode": "NG",
      "stateCode": "BA",
      "latitude": "11.50710000",
      "longitude": "10.74590000"
   },
   {
      "name": "Yuli",
      "countryCode": "NG",
      "stateCode": "BA",
      "latitude": "9.69707000",
      "longitude": "10.27350000"
   },
   {
      "name": "Zadawa",
      "countryCode": "NG",
      "stateCode": "BA",
      "latitude": "11.44960000",
      "longitude": "10.36720000"
   },
   {
      "name": "Zalanga",
      "countryCode": "NG",
      "stateCode": "BA",
      "latitude": "10.61432000",
      "longitude": "10.17647000"
   }
]