[
   {
      "name": "Bishnupur",
      "countryCode": "IN",
      "stateCode": "MN",
      "latitude": "24.60769000",
      "longitude": "93.77998000"
   },
   {
      "name": "Churachandpur",
      "countryCode": "IN",
      "stateCode": "MN",
      "latitude": "24.33333000",
      "longitude": "93.68333000"
   },
   {
      "name": "Imphal",
      "countryCode": "IN",
      "stateCode": "MN",
      "latitude": "24.80805000",
      "longitude": "93.94420000"
   },
   {
      "name": "Kakching",
      "countryCode": "IN",
      "stateCode": "MN",
      "latitude": "24.49820000",
      "longitude": "93.98126000"
   },
   {
      "name": "Mayang Imphal",
      "countryCode": "IN",
      "stateCode": "MN",
      "latitude": "24.60998000",
      "longitude": "93.88873000"
   },
   {
      "name": "Moirang",
      "countryCode": "IN",
      "stateCode": "MN",
      "latitude": "24.49750000",
      "longitude": "93.77791000"
   },
   {
      "name": "Phek",
      "countryCode": "IN",
      "stateCode": "MN",
      "latitude": "25.66667000",
      "longitude": "94.50000000"
   },
   {
      "name": "Senapati",
      "countryCode": "IN",
      "stateCode": "MN",
      "latitude": "25.26705000",
      "longitude": "94.02237000"
   },
   {
      "name": "Tamenglong",
      "countryCode": "IN",
      "stateCode": "MN",
      "latitude": "24.97548000",
      "longitude": "93.51563000"
   },
   {
      "name": "Thoubal",
      "countryCode": "IN",
      "stateCode": "MN",
      "latitude": "24.62205000",
      "longitude": "94.01001000"
   },
   {
      "name": "Ukhrul",
      "countryCode": "IN",
      "stateCode": "MN",
      "latitude": "25.04828000",
      "longitude": "94.35883000"
   },
   {
      "name": "Wangjing",
      "countryCode": "IN",
      "stateCode": "MN",
      "latitude": "24.58921000",
      "longitude": "94.06386000"
   },
   {
      "name": "Yairipok",
      "countryCode": "IN",
      "stateCode": "MN",
      "latitude": "24.67792000",
      "longitude": "94.04767000"
   }
]