[
   {
      "name": "Bhaktapur",
      "countryCode": "NP",
      "stateCode": "3",
      "latitude": "27.67415710",
      "longitude": "85.28257720"
   },
   {
      "name": "Chitwan",
      "countryCode": "NP",
      "stateCode": "3",
      "latitude": "27.61892760",
      "longitude": "84.02795320"
   },
   {
      "name": "Dhading",
      "countryCode": "NP",
      "stateCode": "3",
      "latitude": "28.00722590",
      "longitude": "84.61451120"
   },
   {
      "name": "Dolakha",
      "countryCode": "NP",
      "stateCode": "3",
      "latitude": "27.82367930",
      "longitude": "85.88978890"
   },
   {
      "name": "Kathmandu",
      "countryCode": "NP",
      "stateCode": "3",
      "latitude": "27.69387950",
      "longitude": "85.21232000"
   },
   {
      "name": "Kavrepalanchok",
      "countryCode": "NP",
      "stateCode": "3",
      "latitude": "27.54508080",
      "longitude": "85.46903180"
   },
   {
      "name": "Lalitpur",
      "countryCode": "NP",
      "stateCode": "3",
      "latitude": "27.54811280",
      "longitude": "85.17258250"
   },
   {
      "name": "Makawanpur",
      "countryCode": "NP",
      "stateCode": "3",
      "latitude": "27.43659870",
      "longitude": "84.75782320"
   },
   {
      "name": "Nuwakot",
      "countryCode": "NP",
      "stateCode": "3",
      "latitude": "27.92579510",
      "longitude": "85.07787230"
   },
   {
      "name": "Ramechhap",
      "countryCode": "NP",
      "stateCode": "3",
      "latitude": "27.53688960",
      "longitude": "85.85537030"
   },
   {
      "name": "Rasuwa",
      "countryCode": "NP",
      "stateCode": "3",
      "latitude": "28.17525010",
      "longitude": "85.13156860"
   },
   {
      "name": "Sindhuli",
      "countryCode": "NP",
      "stateCode": "3",
      "latitude": "27.18462830",
      "longitude": "85.57424320"
   },
   {
      "name": "Sindhupalchok",
      "countryCode": "NP",
      "stateCode": "3",
      "latitude": "27.90651270",
      "longitude": "85.42362600"
   }
]
