[
   {
      "name": "Al Mawşil al Jadīdah",
      "countryCode": "IQ",
      "stateCode": "NI",
      "latitude": "36.33271000",
      "longitude": "43.10555000"
   },
   {
      "name": "Al-Hamdaniya",
      "countryCode": "IQ",
      "stateCode": "NI",
      "latitude": "36.27093000",
      "longitude": "43.37758000"
   },
   {
      "name": "Ash Shaykhān",
      "countryCode": "IQ",
      "stateCode": "NI",
      "latitude": "36.69595000",
      "longitude": "43.35202000"
   },
   {
      "name": "Mosul",
      "countryCode": "IQ",
      "stateCode": "NI",
      "latitude": "36.33500000",
      "longitude": "43.11889000"
   },
   {
      "name": "Sinjar",
      "countryCode": "IQ",
      "stateCode": "NI",
      "latitude": "36.29548000",
      "longitude": "41.89315000"
   },
   {
      "name": "Tall ‘Afar",
      "countryCode": "IQ",
      "stateCode": "NI",
      "latitude": "36.37913000",
      "longitude": "42.44806000"
   },
   {
      "name": "Tallkayf",
      "countryCode": "IQ",
      "stateCode": "NI",
      "latitude": "36.49118000",
      "longitude": "43.12114000"
   },
   {
      "name": "‘Aqrah",
      "countryCode": "IQ",
      "stateCode": "NI",
      "latitude": "36.76038000",
      "longitude": "43.89428000"
   }
]