[
   {
      "name": "Abbeville",
      "countryCode": "US",
      "stateCode": "AL",
      "latitude": "31.57184000",
      "longitude": "-85.25049000"
   },
   {
      "name": "Adamsville",
      "countryCode": "US",
      "stateCode": "AL",
      "latitude": "33.60094000",
      "longitude": "-86.95611000"
   },
   {
      "name": "Alabaster",
      "countryCode": "US",
      "stateCode": "AL",
      "latitude": "33.24428000",
      "longitude": "-86.81638000"
   },
   {
      "name": "Albertville",
      "countryCode": "US",
      "stateCode": "AL",
      "latitude": "34.26783000",
      "longitude": "-86.20878000"
   },
   {
      "name": "Alexander City",
      "countryCode": "US",
      "stateCode": "AL",
      "latitude": "32.94401000",
      "longitude": "-85.95385000"
   },
   {
      "name": "Alexandria",
      "countryCode": "US",
      "stateCode": "AL",
      "latitude": "33.77399000",
      "longitude": "-85.88552000"
   },
   {
      "name": "Aliceville",
      "countryCode": "US",
      "stateCode": "AL",
      "latitude": "33.12957000",
      "longitude": "-88.15142000"
   },
   {
      "name": "Andalusia",
      "countryCode": "US",
      "stateCode": "AL",
      "latitude": "31.30808000",
      "longitude": "-86.48243000"
   },
   {
      "name": "Anniston",
      "countryCode": "US",
      "stateCode": "AL",
      "latitude": "33.65983000",
      "longitude": "-85.83163000"
   },
   {
      "name": "Arab",
      "countryCode": "US",
      "stateCode": "AL",
      "latitude": "34.31815000",
      "longitude": "-86.49582000"
   },
   {
      "name": "Argo",
      "countryCode": "US",
      "stateCode": "AL",
      "latitude": "33.68778000",
      "longitude": "-86.50051000"
   },
   {
      "name": "Ashford",
      "countryCode": "US",
      "stateCode": "AL",
      "latitude": "31.18296000",
      "longitude": "-85.23632000"
   },
   {
      "name": "Ashland",
      "countryCode": "US",
      "stateCode": "AL",
      "latitude": "33.27373000",
      "longitude": "-85.83607000"
   },
   {
      "name": "Ashville",
      "countryCode": "US",
      "stateCode": "AL",
      "latitude": "33.83704000",
      "longitude": "-86.25442000"
   },
   {
      "name": "Athens",
      "countryCode": "US",
      "stateCode": "AL",
      "latitude": "34.80243000",
      "longitude": "-86.97219000"
   },
   {
      "name": "Atmore",
      "countryCode": "US",
      "stateCode": "AL",
      "latitude": "31.02379000",
      "longitude": "-87.49387000"
   },
   {
      "name": "Attalla",
      "countryCode": "US",
      "stateCode": "AL",
      "latitude": "34.02176000",
      "longitude": "-86.08859000"
   },
   {
      "name": "Auburn",
      "countryCode": "US",
      "stateCode": "AL",
      "latitude": "32.60986000",
      "longitude": "-85.48078000"
   },
   {
      "name": "Autauga County",
      "countryCode": "US",
      "stateCode": "AL",
      "latitude": "32.53492000",
      "longitude": "-86.64276000"
   },
   {
      "name": "Baldwin County",
      "countryCode": "US",
      "stateCode": "AL",
      "latitude": "30.66097000",
      "longitude": "-87.74984000"
   },
   {
      "name": "Ballplay",
      "countryCode": "US",
      "stateCode": "AL",
      "latitude": "34.05871000",
      "longitude": "-85.80802000"
   },
   {
      "name": "Barbour County",
      "countryCode": "US",
      "stateCode": "AL",
      "latitude": "31.86960000",
      "longitude": "-85.39320000"
   },
   {
      "name": "Bay Minette",
      "countryCode": "US",
      "stateCode": "AL",
      "latitude": "30.88296000",
      "longitude": "-87.77305000"
   },
   {
      "name": "Bayou La Batre",
      "countryCode": "US",
      "stateCode": "AL",
      "latitude": "30.40352000",
      "longitude": "-88.24852000"
   },
   {
      "name": "Bear Creek",
      "countryCode": "US",
      "stateCode": "AL",
      "latitude": "34.27482000",
      "longitude": "-87.70058000"
   },
   {
      "name": "Berry",
      "countryCode": "US",
      "stateCode": "AL",
      "latitude": "33.65983000",
      "longitude": "-87.60001000"
   },
   {
      "name": "Bessemer",
      "countryCode": "US",
      "stateCode": "AL",
      "latitude": "33.40178000",
      "longitude": "-86.95444000"
   },
   {
      "name": "Bibb County",
      "countryCode": "US",
      "stateCode": "AL",
      "latitude": "32.99864000",
      "longitude": "-87.12644000"
   },
   {
      "name": "Birmingham",
      "countryCode": "US",
      "stateCode": "AL",
      "latitude": "33.52066000",
      "longitude": "-86.80249000"
   },
   {
      "name": "Blount County",
      "countryCode": "US",
      "stateCode": "AL",
      "latitude": "33.98087000",
      "longitude": "-86.56737000"
   },
   {
      "name": "Blountsville",
      "countryCode": "US",
      "stateCode": "AL",
      "latitude": "34.08149000",
      "longitude": "-86.59110000"
   },
   {
      "name": "Blue Ridge",
      "countryCode": "US",
      "stateCode": "AL",
      "latitude": "32.49264000",
      "longitude": "-86.19052000"
   },
   {
      "name": "Boaz",
      "countryCode": "US",
      "stateCode": "AL",
      "latitude": "34.20065000",
      "longitude": "-86.16637000"
   },
   {
      "name": "Brent",
      "countryCode": "US",
      "stateCode": "AL",
      "latitude": "32.93735000",
      "longitude": "-87.16472000"
   },
   {
      "name": "Brewton",
      "countryCode": "US",
      "stateCode": "AL",
      "latitude": "31.10518000",
      "longitude": "-87.07219000"
   },
   {
      "name": "Bridgeport",
      "countryCode": "US",
      "stateCode": "AL",
      "latitude": "34.94758000",
      "longitude": "-85.71442000"
   },
   {
      "name": "Brighton",
      "countryCode": "US",
      "stateCode": "AL",
      "latitude": "33.43428000",
      "longitude": "-86.94721000"
   },
   {
      "name": "Brook Highland",
      "countryCode": "US",
      "stateCode": "AL",
      "latitude": "33.43566000",
      "longitude": "-86.67388000"
   },
   {
      "name": "Brookside",
      "countryCode": "US",
      "stateCode": "AL",
      "latitude": "33.63788000",
      "longitude": "-86.91666000"
   },
   {
      "name": "Brookwood",
      "countryCode": "US",
      "stateCode": "AL",
      "latitude": "33.25567000",
      "longitude": "-87.32083000"
   },
   {
      "name": "Brundidge",
      "countryCode": "US",
      "stateCode": "AL",
      "latitude": "31.72016000",
      "longitude": "-85.81606000"
   },
   {
      "name": "Bullock County",
      "countryCode": "US",
      "stateCode": "AL",
      "latitude": "32.10055000",
      "longitude": "-85.71570000"
   },
   {
      "name": "Butler",
      "countryCode": "US",
      "stateCode": "AL",
      "latitude": "32.08959000",
      "longitude": "-88.22197000"
   },
   {
      "name": "Butler County",
      "countryCode": "US",
      "stateCode": "AL",
      "latitude": "31.75243000",
      "longitude": "-86.68029000"
   },
   {
      "name": "Bynum",
      "countryCode": "US",
      "stateCode": "AL",
      "latitude": "33.61316000",
      "longitude": "-85.96108000"
   },
   {
      "name": "Cahaba Heights",
      "countryCode": "US",
      "stateCode": "AL",
      "latitude": "33.46400000",
      "longitude": "-86.73193000"
   },
   {
      "name": "Calera",
      "countryCode": "US",
      "stateCode": "AL",
      "latitude": "33.10290000",
      "longitude": "-86.75360000"
   },
   {
      "name": "Calhoun County",
      "countryCode": "US",
      "stateCode": "AL",
      "latitude": "33.77143000",
      "longitude": "-85.82603000"
   },
   {
      "name": "Camden",
      "countryCode": "US",
      "stateCode": "AL",
      "latitude": "31.99098000",
      "longitude": "-87.29055000"
   },
   {
      "name": "Carbon Hill",
      "countryCode": "US",
      "stateCode": "AL",
      "latitude": "33.89177000",
      "longitude": "-87.52612000"
   },
   {
      "name": "Carlisle-Rockledge",
      "countryCode": "US",
      "stateCode": "AL",
      "latitude": "34.11445000",
      "longitude": "-86.12407000"
   },
   {
      "name": "Carrollton",
      "countryCode": "US",
      "stateCode": "AL",
      "latitude": "33.26169000",
      "longitude": "-88.09503000"
   },
   {
      "name": "Cedar Bluff",
      "countryCode": "US",
      "stateCode": "AL",
      "latitude": "34.22009000",
      "longitude": "-85.60774000"
   },
   {
      "name": "Center Point",
      "countryCode": "US",
      "stateCode": "AL",
      "latitude": "33.64566000",
      "longitude": "-86.68360000"
   },
   {
      "name": "Centre",
      "countryCode": "US",
      "stateCode": "AL",
      "latitude": "34.15204000",
      "longitude": "-85.67885000"
   },
   {
      "name": "Centreville",
      "countryCode": "US",
      "stateCode": "AL",
      "latitude": "32.94620000",
      "longitude": "-87.11669000"
   },
   {
      "name": "Chalkville",
      "countryCode": "US",
      "stateCode": "AL",
      "latitude": "33.65316000",
      "longitude": "-86.64777000"
   },
   {
      "name": "Chambers County",
      "countryCode": "US",
      "stateCode": "AL",
      "latitude": "32.91437000",
      "longitude": "-85.39204000"
   },
   {
      "name": "Chatom",
      "countryCode": "US",
      "stateCode": "AL",
      "latitude": "31.46517000",
      "longitude": "-88.25446000"
   },
   {
      "name": "Chelsea",
      "countryCode": "US",
      "stateCode": "AL",
      "latitude": "33.34011000",
      "longitude": "-86.63026000"
   },
   {
      "name": "Cherokee",
      "countryCode": "US",
      "stateCode": "AL",
      "latitude": "34.75703000",
      "longitude": "-87.97281000"
   },
   {
      "name": "Cherokee County",
      "countryCode": "US",
      "stateCode": "AL",
      "latitude": "34.17596000",
      "longitude": "-85.60379000"
   },
   {
      "name": "Chickasaw",
      "countryCode": "US",
      "stateCode": "AL",
      "latitude": "30.76380000",
      "longitude": "-88.07472000"
   },
   {
      "name": "Childersburg",
      "countryCode": "US",
      "stateCode": "AL",
      "latitude": "33.27817000",
      "longitude": "-86.35498000"
   },
   {
      "name": "Chilton County",
      "countryCode": "US",
      "stateCode": "AL",
      "latitude": "32.84785000",
      "longitude": "-86.71881000"
   },
   {
      "name": "Choccolocco",
      "countryCode": "US",
      "stateCode": "AL",
      "latitude": "33.65927000",
      "longitude": "-85.70357000"
   },
   {
      "name": "Choctaw County",
      "countryCode": "US",
      "stateCode": "AL",
      "latitude": "32.01961000",
      "longitude": "-88.26320000"
   },
   {
      "name": "Citronelle",
      "countryCode": "US",
      "stateCode": "AL",
      "latitude": "31.09073000",
      "longitude": "-88.22806000"
   },
   {
      "name": "Clanton",
      "countryCode": "US",
      "stateCode": "AL",
      "latitude": "32.83874000",
      "longitude": "-86.62943000"
   },
   {
      "name": "Clarke County",
      "countryCode": "US",
      "stateCode": "AL",
      "latitude": "31.67666000",
      "longitude": "-87.83081000"
   },
   {
      "name": "Clay",
      "countryCode": "US",
      "stateCode": "AL",
      "latitude": "33.70260000",
      "longitude": "-86.59971000"
   },
   {
      "name": "Clay County",
      "countryCode": "US",
      "stateCode": "AL",
      "latitude": "33.26909000",
      "longitude": "-85.86055000"
   },
   {
      "name": "Clayton",
      "countryCode": "US",
      "stateCode": "AL",
      "latitude": "31.87822000",
      "longitude": "-85.44966000"
   },
   {
      "name": "Cleburne County",
      "countryCode": "US",
      "stateCode": "AL",
      "latitude": "33.67456000",
      "longitude": "-85.51877000"
   },
   {
      "name": "Cleveland",
      "countryCode": "US",
      "stateCode": "AL",
      "latitude": "33.99093000",
      "longitude": "-86.57749000"
   },
   {
      "name": "Clio",
      "countryCode": "US",
      "stateCode": "AL",
      "latitude": "31.70878000",
      "longitude": "-85.61050000"
   },
   {
      "name": "Coaling",
      "countryCode": "US",
      "stateCode": "AL",
      "latitude": "33.15901000",
      "longitude": "-87.34083000"
   },
   {
      "name": "Coffee County",
      "countryCode": "US",
      "stateCode": "AL",
      "latitude": "31.40263000",
      "longitude": "-85.98821000"
   },
   {
      "name": "Colbert County",
      "countryCode": "US",
      "stateCode": "AL",
      "latitude": "34.70043000",
      "longitude": "-87.80498000"
   },
   {
      "name": "Collinsville",
      "countryCode": "US",
      "stateCode": "AL",
      "latitude": "34.26398000",
      "longitude": "-85.86053000"
   },
   {
      "name": "Columbiana",
      "countryCode": "US",
      "stateCode": "AL",
      "latitude": "33.17817000",
      "longitude": "-86.60721000"
   },
   {
      "name": "Concord",
      "countryCode": "US",
      "stateCode": "AL",
      "latitude": "33.46761000",
      "longitude": "-87.03111000"
   },
   {
      "name": "Conecuh County",
      "countryCode": "US",
      "stateCode": "AL",
      "latitude": "31.42927000",
      "longitude": "-86.99368000"
   },
   {
      "name": "Coosa County",
      "countryCode": "US",
      "stateCode": "AL",
      "latitude": "32.93623000",
      "longitude": "-86.24766000"
   },
   {
      "name": "Coosada",
      "countryCode": "US",
      "stateCode": "AL",
      "latitude": "32.49791000",
      "longitude": "-86.33136000"
   },
   {
      "name": "Cordova",
      "countryCode": "US",
      "stateCode": "AL",
      "latitude": "33.75983000",
      "longitude": "-87.18333000"
   },
   {
      "name": "Cottonwood",
      "countryCode": "US",
      "stateCode": "AL",
      "latitude": "31.04879000",
      "longitude": "-85.30493000"
   },
   {
      "name": "Covington County",
      "countryCode": "US",
      "stateCode": "AL",
      "latitude": "31.24849000",
      "longitude": "-86.45125000"
   },
   {
      "name": "Cowarts",
      "countryCode": "US",
      "stateCode": "AL",
      "latitude": "31.20018000",
      "longitude": "-85.30465000"
   },
   {
      "name": "Crenshaw County",
      "countryCode": "US",
      "stateCode": "AL",
      "latitude": "31.73149000",
      "longitude": "-86.31355000"
   },
   {
      "name": "Creola",
      "countryCode": "US",
      "stateCode": "AL",
      "latitude": "30.89185000",
      "longitude": "-88.03972000"
   },
   {
      "name": "Crossville",
      "countryCode": "US",
      "stateCode": "AL",
      "latitude": "34.28759000",
      "longitude": "-85.99414000"
   },
   {
      "name": "Cullman",
      "countryCode": "US",
      "stateCode": "AL",
      "latitude": "34.17482000",
      "longitude": "-86.84361000"
   },
   {
      "name": "Cullman County",
      "countryCode": "US",
      "stateCode": "AL",
      "latitude": "34.13194000",
      "longitude": "-86.86762000"
   },
   {
      "name": "Dadeville",
      "countryCode": "US",
      "stateCode": "AL",
      "latitude": "32.83124000",
      "longitude": "-85.76357000"
   },
   {
      "name": "Dale County",
      "countryCode": "US",
      "stateCode": "AL",
      "latitude": "31.43182000",
      "longitude": "-85.61103000"
   },
   {
      "name": "Daleville",
      "countryCode": "US",
      "stateCode": "AL",
      "latitude": "31.31017000",
      "longitude": "-85.71299000"
   },
   {
      "name": "Dallas County",
      "countryCode": "US",
      "stateCode": "AL",
      "latitude": "32.32597000",
      "longitude": "-87.10648000"
   },
   {
      "name": "Danville",
      "countryCode": "US",
      "stateCode": "AL",
      "latitude": "34.41454000",
      "longitude": "-87.08751000"
   },
   {
      "name": "Daphne",
      "countryCode": "US",
      "stateCode": "AL",
      "latitude": "30.60353000",
      "longitude": "-87.90360000"
   },
   {
      "name": "Dauphin Island",
      "countryCode": "US",
      "stateCode": "AL",
      "latitude": "30.25548000",
      "longitude": "-88.10972000"
   },
   {
      "name": "DeKalb County",
      "countryCode": "US",
      "stateCode": "AL",
      "latitude": "34.45977000",
      "longitude": "-85.80414000"
   },
   {
      "name": "Deatsville",
      "countryCode": "US",
      "stateCode": "AL",
      "latitude": "32.60819000",
      "longitude": "-86.39581000"
   },
   {
      "name": "Decatur",
      "countryCode": "US",
      "stateCode": "AL",
      "latitude": "34.60593000",
      "longitude": "-86.98334000"
   },
   {
      "name": "Demopolis",
      "countryCode": "US",
      "stateCode": "AL",
      "latitude": "32.51764000",
      "longitude": "-87.83640000"
   },
   {
      "name": "Dixiana",
      "countryCode": "US",
      "stateCode": "AL",
      "latitude": "33.74021000",
      "longitude": "-86.64938000"
   },
   {
      "name": "Dora",
      "countryCode": "US",
      "stateCode": "AL",
      "latitude": "33.72872000",
      "longitude": "-87.09028000"
   },
   {
      "name": "Dothan",
      "countryCode": "US",
      "stateCode": "AL",
      "latitude": "31.22323000",
      "longitude": "-85.39049000"
   },
   {
      "name": "Double Springs",
      "countryCode": "US",
      "stateCode": "AL",
      "latitude": "34.14637000",
      "longitude": "-87.40247000"
   },
   {
      "name": "East Brewton",
      "countryCode": "US",
      "stateCode": "AL",
      "latitude": "31.09323000",
      "longitude": "-87.06275000"
   },
   {
      "name": "East Florence",
      "countryCode": "US",
      "stateCode": "AL",
      "latitude": "34.80953000",
      "longitude": "-87.64947000"
   },
   {
      "name": "Eclectic",
      "countryCode": "US",
      "stateCode": "AL",
      "latitude": "32.63541000",
      "longitude": "-86.03441000"
   },
   {
      "name": "Elba",
      "countryCode": "US",
      "stateCode": "AL",
      "latitude": "31.41461000",
      "longitude": "-86.06772000"
   },
   {
      "name": "Elberta",
      "countryCode": "US",
      "stateCode": "AL",
      "latitude": "30.41436000",
      "longitude": "-87.59776000"
   },
   {
      "name": "Elmore",
      "countryCode": "US",
      "stateCode": "AL",
      "latitude": "32.53874000",
      "longitude": "-86.31497000"
   },
   {
      "name": "Elmore County",
      "countryCode": "US",
      "stateCode": "AL",
      "latitude": "32.59665000",
      "longitude": "-86.14915000"
   },
   {
      "name": "Emerald Mountain",
      "countryCode": "US",
      "stateCode": "AL",
      "latitude": "32.44793000",
      "longitude": "-86.09429000"
   },
   {
      "name": "Enterprise",
      "countryCode": "US",
      "stateCode": "AL",
      "latitude": "31.31517000",
      "longitude": "-85.85522000"
   },
   {
      "name": "Escambia County",
      "countryCode": "US",
      "stateCode": "AL",
      "latitude": "31.12612000",
      "longitude": "-87.16162000"
   },
   {
      "name": "Etowah County",
      "countryCode": "US",
      "stateCode": "AL",
      "latitude": "34.04525000",
      "longitude": "-86.03476000"
   },
   {
      "name": "Eufaula",
      "countryCode": "US",
      "stateCode": "AL",
      "latitude": "31.89127000",
      "longitude": "-85.14549000"
   },
   {
      "name": "Eutaw",
      "countryCode": "US",
      "stateCode": "AL",
      "latitude": "32.84059000",
      "longitude": "-87.88762000"
   },
   {
      "name": "Evergreen",
      "countryCode": "US",
      "stateCode": "AL",
      "latitude": "31.43350000",
      "longitude": "-86.95692000"
   },
   {
      "name": "Fairfield",
      "countryCode": "US",
      "stateCode": "AL",
      "latitude": "33.48594000",
      "longitude": "-86.91194000"
   },
   {
      "name": "Fairhope",
      "countryCode": "US",
      "stateCode": "AL",
      "latitude": "30.52297000",
      "longitude": "-87.90333000"
   },
   {
      "name": "Falkville",
      "countryCode": "US",
      "stateCode": "AL",
      "latitude": "34.36843000",
      "longitude": "-86.90862000"
   },
   {
      "name": "Fayette",
      "countryCode": "US",
      "stateCode": "AL",
      "latitude": "33.68455000",
      "longitude": "-87.83085000"
   },
   {
      "name": "Fayette County",
      "countryCode": "US",
      "stateCode": "AL",
      "latitude": "33.72121000",
      "longitude": "-87.73886000"
   },
   {
      "name": "Fayetteville",
      "countryCode": "US",
      "stateCode": "AL",
      "latitude": "33.14567000",
      "longitude": "-86.40581000"
   },
   {
      "name": "Flint City",
      "countryCode": "US",
      "stateCode": "AL",
      "latitude": "34.52315000",
      "longitude": "-86.97029000"
   },
   {
      "name": "Flomaton",
      "countryCode": "US",
      "stateCode": "AL",
      "latitude": "31.00018000",
      "longitude": "-87.26081000"
   },
   {
      "name": "Florala",
      "countryCode": "US",
      "stateCode": "AL",
      "latitude": "31.00518000",
      "longitude": "-86.32800000"
   },
   {
      "name": "Florence",
      "countryCode": "US",
      "stateCode": "AL",
      "latitude": "34.79981000",
      "longitude": "-87.67725000"
   },
   {
      "name": "Foley",
      "countryCode": "US",
      "stateCode": "AL",
      "latitude": "30.40659000",
      "longitude": "-87.68360000"
   },
   {
      "name": "Forestdale",
      "countryCode": "US",
      "stateCode": "AL",
      "latitude": "33.57011000",
      "longitude": "-86.89638000"
   },
   {
      "name": "Fort Deposit",
      "countryCode": "US",
      "stateCode": "AL",
      "latitude": "31.98459000",
      "longitude": "-86.57859000"
   },
   {
      "name": "Fort Payne",
      "countryCode": "US",
      "stateCode": "AL",
      "latitude": "34.44425000",
      "longitude": "-85.71969000"
   },
   {
      "name": "Fort Rucker",
      "countryCode": "US",
      "stateCode": "AL",
      "latitude": "31.34282000",
      "longitude": "-85.71538000"
   },
   {
      "name": "Franklin County",
      "countryCode": "US",
      "stateCode": "AL",
      "latitude": "34.44167000",
      "longitude": "-87.84381000"
   },
   {
      "name": "Frisco City",
      "countryCode": "US",
      "stateCode": "AL",
      "latitude": "31.43350000",
      "longitude": "-87.40138000"
   },
   {
      "name": "Fultondale",
      "countryCode": "US",
      "stateCode": "AL",
      "latitude": "33.60483000",
      "longitude": "-86.79388000"
   },
   {
      "name": "Fyffe",
      "countryCode": "US",
      "stateCode": "AL",
      "latitude": "34.44676000",
      "longitude": "-85.90414000"
   },
   {
      "name": "Gadsden",
      "countryCode": "US",
      "stateCode": "AL",
      "latitude": "34.01434000",
      "longitude": "-86.00639000"
   },
   {
      "name": "Gardendale",
      "countryCode": "US",
      "stateCode": "AL",
      "latitude": "33.66010000",
      "longitude": "-86.81277000"
   },
   {
      "name": "Geneva",
      "countryCode": "US",
      "stateCode": "AL",
      "latitude": "31.03296000",
      "longitude": "-85.86382000"
   },
   {
      "name": "Geneva County",
      "countryCode": "US",
      "stateCode": "AL",
      "latitude": "31.09502000",
      "longitude": "-85.83898000"
   },
   {
      "name": "Georgiana",
      "countryCode": "US",
      "stateCode": "AL",
      "latitude": "31.63710000",
      "longitude": "-86.74192000"
   },
   {
      "name": "Glencoe",
      "countryCode": "US",
      "stateCode": "AL",
      "latitude": "33.95704000",
      "longitude": "-85.93247000"
   },
   {
      "name": "Good Hope",
      "countryCode": "US",
      "stateCode": "AL",
      "latitude": "34.11593000",
      "longitude": "-86.86361000"
   },
   {
      "name": "Goodwater",
      "countryCode": "US",
      "stateCode": "AL",
      "latitude": "33.06567000",
      "longitude": "-86.05330000"
   },
   {
      "name": "Gordo",
      "countryCode": "US",
      "stateCode": "AL",
      "latitude": "33.32012000",
      "longitude": "-87.90280000"
   },
   {
      "name": "Grand Bay",
      "countryCode": "US",
      "stateCode": "AL",
      "latitude": "30.47631000",
      "longitude": "-88.34223000"
   },
   {
      "name": "Grayson Valley",
      "countryCode": "US",
      "stateCode": "AL",
      "latitude": "33.64816000",
      "longitude": "-86.63943000"
   },
   {
      "name": "Graysville",
      "countryCode": "US",
      "stateCode": "AL",
      "latitude": "33.62066000",
      "longitude": "-86.97138000"
   },
   {
      "name": "Greene County",
      "countryCode": "US",
      "stateCode": "AL",
      "latitude": "32.85314000",
      "longitude": "-87.95223000"
   },
   {
      "name": "Greensboro",
      "countryCode": "US",
      "stateCode": "AL",
      "latitude": "32.70415000",
      "longitude": "-87.59550000"
   },
   {
      "name": "Greenville",
      "countryCode": "US",
      "stateCode": "AL",
      "latitude": "31.82960000",
      "longitude": "-86.61775000"
   },
   {
      "name": "Grove Hill",
      "countryCode": "US",
      "stateCode": "AL",
      "latitude": "31.70877000",
      "longitude": "-87.77722000"
   },
   {
      "name": "Guin",
      "countryCode": "US",
      "stateCode": "AL",
      "latitude": "33.96566000",
      "longitude": "-87.91475000"
   },
   {
      "name": "Gulf Shores",
      "countryCode": "US",
      "stateCode": "AL",
      "latitude": "30.24604000",
      "longitude": "-87.70082000"
   },
   {
      "name": "Guntersville",
      "countryCode": "US",
      "stateCode": "AL",
      "latitude": "34.35823000",
      "longitude": "-86.29446000"
   },
   {
      "name": "Hackleburg",
      "countryCode": "US",
      "stateCode": "AL",
      "latitude": "34.27732000",
      "longitude": "-87.82864000"
   },
   {
      "name": "Hale County",
      "countryCode": "US",
      "stateCode": "AL",
      "latitude": "32.76266000",
      "longitude": "-87.62912000"
   },
   {
      "name": "Haleyville",
      "countryCode": "US",
      "stateCode": "AL",
      "latitude": "34.22649000",
      "longitude": "-87.62141000"
   },
   {
      "name": "Hamilton",
      "countryCode": "US",
      "stateCode": "AL",
      "latitude": "34.14232000",
      "longitude": "-87.98864000"
   },
   {
      "name": "Hanceville",
      "countryCode": "US",
      "stateCode": "AL",
      "latitude": "34.06065000",
      "longitude": "-86.76750000"
   },
   {
      "name": "Harpersville",
      "countryCode": "US",
      "stateCode": "AL",
      "latitude": "33.34400000",
      "longitude": "-86.43804000"
   },
   {
      "name": "Hartford",
      "countryCode": "US",
      "stateCode": "AL",
      "latitude": "31.10240000",
      "longitude": "-85.69688000"
   },
   {
      "name": "Hartselle",
      "countryCode": "US",
      "stateCode": "AL",
      "latitude": "34.44343000",
      "longitude": "-86.93528000"
   },
   {
      "name": "Harvest",
      "countryCode": "US",
      "stateCode": "AL",
      "latitude": "34.85564000",
      "longitude": "-86.75083000"
   },
   {
      "name": "Hayden",
      "countryCode": "US",
      "stateCode": "AL",
      "latitude": "33.89260000",
      "longitude": "-86.75777000"
   },
   {
      "name": "Hayneville",
      "countryCode": "US",
      "stateCode": "AL",
      "latitude": "32.18403000",
      "longitude": "-86.58025000"
   },
   {
      "name": "Hazel Green",
      "countryCode": "US",
      "stateCode": "AL",
      "latitude": "34.93231000",
      "longitude": "-86.57194000"
   },
   {
      "name": "Headland",
      "countryCode": "US",
      "stateCode": "AL",
      "latitude": "31.35128000",
      "longitude": "-85.34216000"
   },
   {
      "name": "Heflin",
      "countryCode": "US",
      "stateCode": "AL",
      "latitude": "33.64899000",
      "longitude": "-85.58746000"
   },
   {
      "name": "Helena",
      "countryCode": "US",
      "stateCode": "AL",
      "latitude": "33.29622000",
      "longitude": "-86.84360000"
   },
   {
      "name": "Henagar",
      "countryCode": "US",
      "stateCode": "AL",
      "latitude": "34.63508000",
      "longitude": "-85.76719000"
   },
   {
      "name": "Henry County",
      "countryCode": "US",
      "stateCode": "AL",
      "latitude": "31.51469000",
      "longitude": "-85.24141000"
   },
   {
      "name": "Highland Lakes",
      "countryCode": "US",
      "stateCode": "AL",
      "latitude": "33.39838000",
      "longitude": "-86.65130000"
   },
   {
      "name": "Hokes Bluff",
      "countryCode": "US",
      "stateCode": "AL",
      "latitude": "33.99815000",
      "longitude": "-85.86636000"
   },
   {
      "name": "Holt",
      "countryCode": "US",
      "stateCode": "AL",
      "latitude": "33.23401000",
      "longitude": "-87.48445000"
   },
   {
      "name": "Holtville",
      "countryCode": "US",
      "stateCode": "AL",
      "latitude": "32.63624000",
      "longitude": "-86.32664000"
   },
   {
      "name": "Homewood",
      "countryCode": "US",
      "stateCode": "AL",
      "latitude": "33.47177000",
      "longitude": "-86.80082000"
   },
   {
      "name": "Hoover",
      "countryCode": "US",
      "stateCode": "AL",
      "latitude": "33.40539000",
      "longitude": "-86.81138000"
   },
   {
      "name": "Houston County",
      "countryCode": "US",
      "stateCode": "AL",
      "latitude": "31.15318000",
      "longitude": "-85.30252000"
   },
   {
      "name": "Hueytown",
      "countryCode": "US",
      "stateCode": "AL",
      "latitude": "33.45122000",
      "longitude": "-86.99666000"
   },
   {
      "name": "Huguley",
      "countryCode": "US",
      "stateCode": "AL",
      "latitude": "32.83457000",
      "longitude": "-85.22966000"
   },
   {
      "name": "Huntsville",
      "countryCode": "US",
      "stateCode": "AL",
      "latitude": "34.73040000",
      "longitude": "-86.58594000"
   },
   {
      "name": "Indian Springs Village",
      "countryCode": "US",
      "stateCode": "AL",
      "latitude": "33.35539000",
      "longitude": "-86.75443000"
   },
   {
      "name": "Inverness",
      "countryCode": "US",
      "stateCode": "AL",
      "latitude": "32.01488000",
      "longitude": "-85.74606000"
   },
   {
      "name": "Irondale",
      "countryCode": "US",
      "stateCode": "AL",
      "latitude": "33.53816000",
      "longitude": "-86.70721000"
   },
   {
      "name": "Jackson",
      "countryCode": "US",
      "stateCode": "AL",
      "latitude": "31.50905000",
      "longitude": "-87.89444000"
   },
   {
      "name": "Jackson County",
      "countryCode": "US",
      "stateCode": "AL",
      "latitude": "34.77941000",
      "longitude": "-85.99930000"
   },
   {
      "name": "Jacksonville",
      "countryCode": "US",
      "stateCode": "AL",
      "latitude": "33.81382000",
      "longitude": "-85.76130000"
   },
   {
      "name": "Jasper",
      "countryCode": "US",
      "stateCode": "AL",
      "latitude": "33.83122000",
      "longitude": "-87.27751000"
   },
   {
      "name": "Jefferson County",
      "countryCode": "US",
      "stateCode": "AL",
      "latitude": "33.55431000",
      "longitude": "-86.89649000"
   },
   {
      "name": "Jemison",
      "countryCode": "US",
      "stateCode": "AL",
      "latitude": "32.95985000",
      "longitude": "-86.74665000"
   },
   {
      "name": "Kimberly",
      "countryCode": "US",
      "stateCode": "AL",
      "latitude": "33.77344000",
      "longitude": "-86.81388000"
   },
   {
      "name": "Kinsey",
      "countryCode": "US",
      "stateCode": "AL",
      "latitude": "31.29906000",
      "longitude": "-85.34438000"
   },
   {
      "name": "Ladonia",
      "countryCode": "US",
      "stateCode": "AL",
      "latitude": "32.46820000",
      "longitude": "-85.07910000"
   },
   {
      "name": "Lafayette",
      "countryCode": "US",
      "stateCode": "AL",
      "latitude": "32.89985000",
      "longitude": "-85.40106000"
   },
   {
      "name": "Lake Purdy",
      "countryCode": "US",
      "stateCode": "AL",
      "latitude": "33.43011000",
      "longitude": "-86.68054000"
   },
   {
      "name": "Lake View",
      "countryCode": "US",
      "stateCode": "AL",
      "latitude": "33.28067000",
      "longitude": "-87.13750000"
   },
   {
      "name": "Lamar County",
      "countryCode": "US",
      "stateCode": "AL",
      "latitude": "33.77921000",
      "longitude": "-88.09690000"
   },
   {
      "name": "Lanett",
      "countryCode": "US",
      "stateCode": "AL",
      "latitude": "32.86874000",
      "longitude": "-85.19050000"
   },
   {
      "name": "Lauderdale County",
      "countryCode": "US",
      "stateCode": "AL",
      "latitude": "34.90137000",
      "longitude": "-87.65400000"
   },
   {
      "name": "Lawrence County",
      "countryCode": "US",
      "stateCode": "AL",
      "latitude": "34.52165000",
      "longitude": "-87.31104000"
   },
   {
      "name": "Lee County",
      "countryCode": "US",
      "stateCode": "AL",
      "latitude": "32.60114000",
      "longitude": "-85.35556000"
   },
   {
      "name": "Leeds",
      "countryCode": "US",
      "stateCode": "AL",
      "latitude": "33.54816000",
      "longitude": "-86.54443000"
   },
   {
      "name": "Leesburg",
      "countryCode": "US",
      "stateCode": "AL",
      "latitude": "34.17982000",
      "longitude": "-85.76136000"
   },
   {
      "name": "Level Plains",
      "countryCode": "US",
      "stateCode": "AL",
      "latitude": "31.29962000",
      "longitude": "-85.77799000"
   },
   {
      "name": "Limestone County",
      "countryCode": "US",
      "stateCode": "AL",
      "latitude": "34.81008000",
      "longitude": "-86.98137000"
   },
   {
      "name": "Lincoln",
      "countryCode": "US",
      "stateCode": "AL",
      "latitude": "33.61316000",
      "longitude": "-86.11831000"
   },
   {
      "name": "Linden",
      "countryCode": "US",
      "stateCode": "AL",
      "latitude": "32.30625000",
      "longitude": "-87.79807000"
   },
   {
      "name": "Lineville",
      "countryCode": "US",
      "stateCode": "AL",
      "latitude": "33.31067000",
      "longitude": "-85.75441000"
   },
   {
      "name": "Lipscomb",
      "countryCode": "US",
      "stateCode": "AL",
      "latitude": "33.42566000",
      "longitude": "-86.92666000"
   },
   {
      "name": "Livingston",
      "countryCode": "US",
      "stateCode": "AL",
      "latitude": "32.58430000",
      "longitude": "-88.18725000"
   },
   {
      "name": "Locust Fork",
      "countryCode": "US",
      "stateCode": "AL",
      "latitude": "33.90760000",
      "longitude": "-86.61527000"
   },
   {
      "name": "Lowndes County",
      "countryCode": "US",
      "stateCode": "AL",
      "latitude": "32.15475000",
      "longitude": "-86.65011000"
   },
   {
      "name": "Loxley",
      "countryCode": "US",
      "stateCode": "AL",
      "latitude": "30.61825000",
      "longitude": "-87.75305000"
   },
   {
      "name": "Luverne",
      "countryCode": "US",
      "stateCode": "AL",
      "latitude": "31.71655000",
      "longitude": "-86.26385000"
   },
   {
      "name": "Macon County",
      "countryCode": "US",
      "stateCode": "AL",
      "latitude": "32.38597000",
      "longitude": "-85.69267000"
   },
   {
      "name": "Madison",
      "countryCode": "US",
      "stateCode": "AL",
      "latitude": "34.69926000",
      "longitude": "-86.74833000"
   },
   {
      "name": "Madison County",
      "countryCode": "US",
      "stateCode": "AL",
      "latitude": "34.76309000",
      "longitude": "-86.55021000"
   },
   {
      "name": "Malvern",
      "countryCode": "US",
      "stateCode": "AL",
      "latitude": "31.13934000",
      "longitude": "-85.51910000"
   },
   {
      "name": "Marbury",
      "countryCode": "US",
      "stateCode": "AL",
      "latitude": "32.70124000",
      "longitude": "-86.47109000"
   },
   {
      "name": "Marengo County",
      "countryCode": "US",
      "stateCode": "AL",
      "latitude": "32.24761000",
      "longitude": "-87.78952000"
   },
   {
      "name": "Margaret",
      "countryCode": "US",
      "stateCode": "AL",
      "latitude": "33.68621000",
      "longitude": "-86.47498000"
   },
   {
      "name": "Marion",
      "countryCode": "US",
      "stateCode": "AL",
      "latitude": "32.63235000",
      "longitude": "-87.31917000"
   },
   {
      "name": "Marion County",
      "countryCode": "US",
      "stateCode": "AL",
      "latitude": "34.13655000",
      "longitude": "-87.88714000"
   },
   {
      "name": "Marshall County",
      "countryCode": "US",
      "stateCode": "AL",
      "latitude": "34.36696000",
      "longitude": "-86.30664000"
   },
   {
      "name": "Meadowbrook",
      "countryCode": "US",
      "stateCode": "AL",
      "latitude": "33.40205000",
      "longitude": "-86.69665000"
   },
   {
      "name": "Meridianville",
      "countryCode": "US",
      "stateCode": "AL",
      "latitude": "34.85148000",
      "longitude": "-86.57222000"
   },
   {
      "name": "Midfield",
      "countryCode": "US",
      "stateCode": "AL",
      "latitude": "33.46150000",
      "longitude": "-86.90888000"
   },
   {
      "name": "Midland City",
      "countryCode": "US",
      "stateCode": "AL",
      "latitude": "31.31906000",
      "longitude": "-85.49382000"
   },
   {
      "name": "Mignon",
      "countryCode": "US",
      "stateCode": "AL",
      "latitude": "33.18345000",
      "longitude": "-86.26109000"
   },
   {
      "name": "Millbrook",
      "countryCode": "US",
      "stateCode": "AL",
      "latitude": "32.47986000",
      "longitude": "-86.36192000"
   },
   {
      "name": "Minor",
      "countryCode": "US",
      "stateCode": "AL",
      "latitude": "33.53733000",
      "longitude": "-86.94055000"
   },
   {
      "name": "Mobile",
      "countryCode": "US",
      "stateCode": "AL",
      "latitude": "30.69436000",
      "longitude": "-88.04305000"
   },
   {
      "name": "Mobile County",
      "countryCode": "US",
      "stateCode": "AL",
      "latitude": "30.68515000",
      "longitude": "-88.19753000"
   },
   {
      "name": "Monroe County",
      "countryCode": "US",
      "stateCode": "AL",
      "latitude": "31.57084000",
      "longitude": "-87.36543000"
   },
   {
      "name": "Monroeville",
      "countryCode": "US",
      "stateCode": "AL",
      "latitude": "31.52794000",
      "longitude": "-87.32471000"
   },
   {
      "name": "Montevallo",
      "countryCode": "US",
      "stateCode": "AL",
      "latitude": "33.10067000",
      "longitude": "-86.86416000"
   },
   {
      "name": "Montgomery",
      "countryCode": "US",
      "stateCode": "AL",
      "latitude": "32.36681000",
      "longitude": "-86.29997000"
   },
   {
      "name": "Montgomery County",
      "countryCode": "US",
      "stateCode": "AL",
      "latitude": "32.22026000",
      "longitude": "-86.20761000"
   },
   {
      "name": "Moody",
      "countryCode": "US",
      "stateCode": "AL",
      "latitude": "33.59094000",
      "longitude": "-86.49082000"
   },
   {
      "name": "Moores Mill",
      "countryCode": "US",
      "stateCode": "AL",
      "latitude": "34.84398000",
      "longitude": "-86.51832000"
   },
   {
      "name": "Morgan County",
      "countryCode": "US",
      "stateCode": "AL",
      "latitude": "34.45347000",
      "longitude": "-86.85293000"
   },
   {
      "name": "Morris",
      "countryCode": "US",
      "stateCode": "AL",
      "latitude": "33.74816000",
      "longitude": "-86.80860000"
   },
   {
      "name": "Moulton",
      "countryCode": "US",
      "stateCode": "AL",
      "latitude": "34.48121000",
      "longitude": "-87.29335000"
   },
   {
      "name": "Moundville",
      "countryCode": "US",
      "stateCode": "AL",
      "latitude": "32.99762000",
      "longitude": "-87.63001000"
   },
   {
      "name": "Mount Olive",
      "countryCode": "US",
      "stateCode": "AL",
      "latitude": "33.67094000",
      "longitude": "-86.85610000"
   },
   {
      "name": "Mount Vernon",
      "countryCode": "US",
      "stateCode": "AL",
      "latitude": "31.08518000",
      "longitude": "-88.01333000"
   },
   {
      "name": "Mountain Brook",
      "countryCode": "US",
      "stateCode": "AL",
      "latitude": "33.50094000",
      "longitude": "-86.75221000"
   },
   {
      "name": "Munford",
      "countryCode": "US",
      "stateCode": "AL",
      "latitude": "33.52983000",
      "longitude": "-85.95080000"
   },
   {
      "name": "Muscle Shoals",
      "countryCode": "US",
      "stateCode": "AL",
      "latitude": "34.74481000",
      "longitude": "-87.66753000"
   },
   {
      "name": "New Brockton",
      "countryCode": "US",
      "stateCode": "AL",
      "latitude": "31.38572000",
      "longitude": "-85.92939000"
   },
   {
      "name": "New Hope",
      "countryCode": "US",
      "stateCode": "AL",
      "latitude": "34.53712000",
      "longitude": "-86.39426000"
   },
   {
      "name": "New Market",
      "countryCode": "US",
      "stateCode": "AL",
      "latitude": "34.91003000",
      "longitude": "-86.42779000"
   },
   {
      "name": "Newton",
      "countryCode": "US",
      "stateCode": "AL",
      "latitude": "31.33517000",
      "longitude": "-85.60521000"
   },
   {
      "name": "North Bibb",
      "countryCode": "US",
      "stateCode": "AL",
      "latitude": "33.20401000",
      "longitude": "-87.15305000"
   },
   {
      "name": "Northport",
      "countryCode": "US",
      "stateCode": "AL",
      "latitude": "33.22901000",
      "longitude": "-87.57723000"
   },
   {
      "name": "Odenville",
      "countryCode": "US",
      "stateCode": "AL",
      "latitude": "33.67732000",
      "longitude": "-86.39665000"
   },
   {
      "name": "Ohatchee",
      "countryCode": "US",
      "stateCode": "AL",
      "latitude": "33.78343000",
      "longitude": "-86.00247000"
   },
   {
      "name": "Oneonta",
      "countryCode": "US",
      "stateCode": "AL",
      "latitude": "33.94815000",
      "longitude": "-86.47276000"
   },
   {
      "name": "Opelika",
      "countryCode": "US",
      "stateCode": "AL",
      "latitude": "32.64541000",
      "longitude": "-85.37828000"
   },
   {
      "name": "Opp",
      "countryCode": "US",
      "stateCode": "AL",
      "latitude": "31.28267000",
      "longitude": "-86.25551000"
   },
   {
      "name": "Orange Beach",
      "countryCode": "US",
      "stateCode": "AL",
      "latitude": "30.29437000",
      "longitude": "-87.57359000"
   },
   {
      "name": "Owens Cross Roads",
      "countryCode": "US",
      "stateCode": "AL",
      "latitude": "34.58815000",
      "longitude": "-86.45888000"
   },
   {
      "name": "Oxford",
      "countryCode": "US",
      "stateCode": "AL",
      "latitude": "33.61427000",
      "longitude": "-85.83496000"
   },
   {
      "name": "Ozark",
      "countryCode": "US",
      "stateCode": "AL",
      "latitude": "31.45906000",
      "longitude": "-85.64049000"
   },
   {
      "name": "Pelham",
      "countryCode": "US",
      "stateCode": "AL",
      "latitude": "33.28567000",
      "longitude": "-86.80999000"
   },
   {
      "name": "Pell City",
      "countryCode": "US",
      "stateCode": "AL",
      "latitude": "33.58621000",
      "longitude": "-86.28609000"
   },
   {
      "name": "Perry County",
      "countryCode": "US",
      "stateCode": "AL",
      "latitude": "32.63847000",
      "longitude": "-87.29440000"
   },
   {
      "name": "Phenix City",
      "countryCode": "US",
      "stateCode": "AL",
      "latitude": "32.47098000",
      "longitude": "-85.00077000"
   },
   {
      "name": "Phil Campbell",
      "countryCode": "US",
      "stateCode": "AL",
      "latitude": "34.35093000",
      "longitude": "-87.70642000"
   },
   {
      "name": "Pickens County",
      "countryCode": "US",
      "stateCode": "AL",
      "latitude": "33.28088000",
      "longitude": "-88.08869000"
   },
   {
      "name": "Piedmont",
      "countryCode": "US",
      "stateCode": "AL",
      "latitude": "33.92455000",
      "longitude": "-85.61135000"
   },
   {
      "name": "Pike County",
      "countryCode": "US",
      "stateCode": "AL",
      "latitude": "31.80272000",
      "longitude": "-85.94092000"
   },
   {
      "name": "Pike Road",
      "countryCode": "US",
      "stateCode": "AL",
      "latitude": "32.28431000",
      "longitude": "-86.10302000"
   },
   {
      "name": "Pine Level",
      "countryCode": "US",
      "stateCode": "AL",
      "latitude": "32.58374000",
      "longitude": "-86.46553000"
   },
   {
      "name": "Pinson",
      "countryCode": "US",
      "stateCode": "AL",
      "latitude": "33.68899000",
      "longitude": "-86.68332000"
   },
   {
      "name": "Pleasant Grove",
      "countryCode": "US",
      "stateCode": "AL",
      "latitude": "33.49094000",
      "longitude": "-86.97027000"
   },
   {
      "name": "Point Clear",
      "countryCode": "US",
      "stateCode": "AL",
      "latitude": "30.47408000",
      "longitude": "-87.91916000"
   },
   {
      "name": "Prattville",
      "countryCode": "US",
      "stateCode": "AL",
      "latitude": "32.46402000",
      "longitude": "-86.45970000"
   },
   {
      "name": "Priceville",
      "countryCode": "US",
      "stateCode": "AL",
      "latitude": "34.52509000",
      "longitude": "-86.89473000"
   },
   {
      "name": "Prichard",
      "countryCode": "US",
      "stateCode": "AL",
      "latitude": "30.73880000",
      "longitude": "-88.07889000"
   },
   {
      "name": "Ragland",
      "countryCode": "US",
      "stateCode": "AL",
      "latitude": "33.74454000",
      "longitude": "-86.15581000"
   },
   {
      "name": "Rainbow City",
      "countryCode": "US",
      "stateCode": "AL",
      "latitude": "33.95482000",
      "longitude": "-86.04192000"
   },
   {
      "name": "Rainsville",
      "countryCode": "US",
      "stateCode": "AL",
      "latitude": "34.49425000",
      "longitude": "-85.84775000"
   },
   {
      "name": "Randolph County",
      "countryCode": "US",
      "stateCode": "AL",
      "latitude": "33.29379000",
      "longitude": "-85.45907000"
   },
   {
      "name": "Red Bay",
      "countryCode": "US",
      "stateCode": "AL",
      "latitude": "34.43982000",
      "longitude": "-88.14087000"
   },
   {
      "name": "Redstone Arsenal",
      "countryCode": "US",
      "stateCode": "AL",
      "latitude": "34.68387000",
      "longitude": "-86.64764000"
   },
   {
      "name": "Reform",
      "countryCode": "US",
      "stateCode": "AL",
      "latitude": "33.37845000",
      "longitude": "-88.01530000"
   },
   {
      "name": "Rehobeth",
      "countryCode": "US",
      "stateCode": "AL",
      "latitude": "31.12296000",
      "longitude": "-85.45271000"
   },
   {
      "name": "Riverside",
      "countryCode": "US",
      "stateCode": "AL",
      "latitude": "33.60621000",
      "longitude": "-86.20442000"
   },
   {
      "name": "Roanoke",
      "countryCode": "US",
      "stateCode": "AL",
      "latitude": "33.15123000",
      "longitude": "-85.37217000"
   },
   {
      "name": "Robertsdale",
      "countryCode": "US",
      "stateCode": "AL",
      "latitude": "30.55380000",
      "longitude": "-87.71193000"
   },
   {
      "name": "Rock Creek",
      "countryCode": "US",
      "stateCode": "AL",
      "latitude": "33.47705000",
      "longitude": "-87.08027000"
   },
   {
      "name": "Rockford",
      "countryCode": "US",
      "stateCode": "AL",
      "latitude": "32.88957000",
      "longitude": "-86.21969000"
   },
   {
      "name": "Rogersville",
      "countryCode": "US",
      "stateCode": "AL",
      "latitude": "34.82578000",
      "longitude": "-87.29676000"
   },
   {
      "name": "Russell County",
      "countryCode": "US",
      "stateCode": "AL",
      "latitude": "32.28838000",
      "longitude": "-85.18496000"
   },
   {
      "name": "Russellville",
      "countryCode": "US",
      "stateCode": "AL",
      "latitude": "34.50787000",
      "longitude": "-87.72864000"
   },
   {
      "name": "Saint Clair County",
      "countryCode": "US",
      "stateCode": "AL",
      "latitude": "33.71570000",
      "longitude": "-86.31469000"
   },
   {
      "name": "Saks",
      "countryCode": "US",
      "stateCode": "AL",
      "latitude": "33.69871000",
      "longitude": "-85.83969000"
   },
   {
      "name": "Samson",
      "countryCode": "US",
      "stateCode": "AL",
      "latitude": "31.11295000",
      "longitude": "-86.04605000"
   },
   {
      "name": "Saraland",
      "countryCode": "US",
      "stateCode": "AL",
      "latitude": "30.82074000",
      "longitude": "-88.07056000"
   },
   {
      "name": "Sardis City",
      "countryCode": "US",
      "stateCode": "AL",
      "latitude": "34.17426000",
      "longitude": "-86.12275000"
   },
   {
      "name": "Satsuma",
      "countryCode": "US",
      "stateCode": "AL",
      "latitude": "30.85324000",
      "longitude": "-88.05611000"
   },
   {
      "name": "Scottsboro",
      "countryCode": "US",
      "stateCode": "AL",
      "latitude": "34.67231000",
      "longitude": "-86.03415000"
   },
   {
      "name": "Selma",
      "countryCode": "US",
      "stateCode": "AL",
      "latitude": "32.40736000",
      "longitude": "-87.02110000"
   },
   {
      "name": "Selmont-West Selmont",
      "countryCode": "US",
      "stateCode": "AL",
      "latitude": "32.37843000",
      "longitude": "-87.00740000"
   },
   {
      "name": "Semmes",
      "countryCode": "US",
      "stateCode": "AL",
      "latitude": "30.77824000",
      "longitude": "-88.25917000"
   },
   {
      "name": "Sheffield",
      "countryCode": "US",
      "stateCode": "AL",
      "latitude": "34.76509000",
      "longitude": "-87.69864000"
   },
   {
      "name": "Shelby",
      "countryCode": "US",
      "stateCode": "AL",
      "latitude": "33.11040000",
      "longitude": "-86.58415000"
   },
   {
      "name": "Shelby County",
      "countryCode": "US",
      "stateCode": "AL",
      "latitude": "33.26428000",
      "longitude": "-86.66065000"
   },
   {
      "name": "Shoal Creek",
      "countryCode": "US",
      "stateCode": "AL",
      "latitude": "33.43076000",
      "longitude": "-86.61092000"
   },
   {
      "name": "Slocomb",
      "countryCode": "US",
      "stateCode": "AL",
      "latitude": "31.10823000",
      "longitude": "-85.59438000"
   },
   {
      "name": "Smiths Station",
      "countryCode": "US",
      "stateCode": "AL",
      "latitude": "32.54014000",
      "longitude": "-85.09855000"
   },
   {
      "name": "Smoke Rise",
      "countryCode": "US",
      "stateCode": "AL",
      "latitude": "33.89177000",
      "longitude": "-86.82027000"
   },
   {
      "name": "Southside",
      "countryCode": "US",
      "stateCode": "AL",
      "latitude": "33.92454000",
      "longitude": "-86.02247000"
   },
   {
      "name": "Spanish Fort",
      "countryCode": "US",
      "stateCode": "AL",
      "latitude": "30.67491000",
      "longitude": "-87.91527000"
   },
   {
      "name": "Springville",
      "countryCode": "US",
      "stateCode": "AL",
      "latitude": "33.77505000",
      "longitude": "-86.47191000"
   },
   {
      "name": "Steele",
      "countryCode": "US",
      "stateCode": "AL",
      "latitude": "33.93982000",
      "longitude": "-86.20164000"
   },
   {
      "name": "Stevenson",
      "countryCode": "US",
      "stateCode": "AL",
      "latitude": "34.86869000",
      "longitude": "-85.83942000"
   },
   {
      "name": "Stewartville",
      "countryCode": "US",
      "stateCode": "AL",
      "latitude": "33.07929000",
      "longitude": "-86.24442000"
   },
   {
      "name": "Sulligent",
      "countryCode": "US",
      "stateCode": "AL",
      "latitude": "33.90177000",
      "longitude": "-88.13448000"
   },
   {
      "name": "Sumiton",
      "countryCode": "US",
      "stateCode": "AL",
      "latitude": "33.75566000",
      "longitude": "-87.05000000"
   },
   {
      "name": "Summerdale",
      "countryCode": "US",
      "stateCode": "AL",
      "latitude": "30.48770000",
      "longitude": "-87.69971000"
   },
   {
      "name": "Sumter County",
      "countryCode": "US",
      "stateCode": "AL",
      "latitude": "32.59101000",
      "longitude": "-88.19879000"
   },
   {
      "name": "Sylacauga",
      "countryCode": "US",
      "stateCode": "AL",
      "latitude": "33.17317000",
      "longitude": "-86.25164000"
   },
   {
      "name": "Sylvan Springs",
      "countryCode": "US",
      "stateCode": "AL",
      "latitude": "33.51566000",
      "longitude": "-87.01499000"
   },
   {
      "name": "Sylvania",
      "countryCode": "US",
      "stateCode": "AL",
      "latitude": "34.56231000",
      "longitude": "-85.81247000"
   },
   {
      "name": "Talladega",
      "countryCode": "US",
      "stateCode": "AL",
      "latitude": "33.43594000",
      "longitude": "-86.10580000"
   },
   {
      "name": "Talladega County",
      "countryCode": "US",
      "stateCode": "AL",
      "latitude": "33.38006000",
      "longitude": "-86.16591000"
   },
   {
      "name": "Tallapoosa County",
      "countryCode": "US",
      "stateCode": "AL",
      "latitude": "32.86240000",
      "longitude": "-85.79750000"
   },
   {
      "name": "Tallassee",
      "countryCode": "US",
      "stateCode": "AL",
      "latitude": "32.53597000",
      "longitude": "-85.89329000"
   },
   {
      "name": "Tarrant",
      "countryCode": "US",
      "stateCode": "AL",
      "latitude": "33.58344000",
      "longitude": "-86.77277000"
   },
   {
      "name": "Taylor",
      "countryCode": "US",
      "stateCode": "AL",
      "latitude": "31.16490000",
      "longitude": "-85.46827000"
   },
   {
      "name": "Theodore",
      "countryCode": "US",
      "stateCode": "AL",
      "latitude": "30.54769000",
      "longitude": "-88.17528000"
   },
   {
      "name": "Thomasville",
      "countryCode": "US",
      "stateCode": "AL",
      "latitude": "31.91349000",
      "longitude": "-87.73584000"
   },
   {
      "name": "Thorsby",
      "countryCode": "US",
      "stateCode": "AL",
      "latitude": "32.91568000",
      "longitude": "-86.71582000"
   },
   {
      "name": "Tillmans Corner",
      "countryCode": "US",
      "stateCode": "AL",
      "latitude": "30.59019000",
      "longitude": "-88.17084000"
   },
   {
      "name": "Town Creek",
      "countryCode": "US",
      "stateCode": "AL",
      "latitude": "34.68120000",
      "longitude": "-87.40613000"
   },
   {
      "name": "Trinity",
      "countryCode": "US",
      "stateCode": "AL",
      "latitude": "34.60676000",
      "longitude": "-87.08835000"
   },
   {
      "name": "Troy",
      "countryCode": "US",
      "stateCode": "AL",
      "latitude": "31.80877000",
      "longitude": "-85.96995000"
   },
   {
      "name": "Trussville",
      "countryCode": "US",
      "stateCode": "AL",
      "latitude": "33.61983000",
      "longitude": "-86.60888000"
   },
   {
      "name": "Tuscaloosa",
      "countryCode": "US",
      "stateCode": "AL",
      "latitude": "33.20984000",
      "longitude": "-87.56917000"
   },
   {
      "name": "Tuscaloosa County",
      "countryCode": "US",
      "stateCode": "AL",
      "latitude": "33.28955000",
      "longitude": "-87.52503000"
   },
   {
      "name": "Tuscumbia",
      "countryCode": "US",
      "stateCode": "AL",
      "latitude": "34.73120000",
      "longitude": "-87.70253000"
   },
   {
      "name": "Tuskegee",
      "countryCode": "US",
      "stateCode": "AL",
      "latitude": "32.42415000",
      "longitude": "-85.69096000"
   },
   {
      "name": "Underwood-Petersville",
      "countryCode": "US",
      "stateCode": "AL",
      "latitude": "34.87695000",
      "longitude": "-87.69717000"
   },
   {
      "name": "Union Springs",
      "countryCode": "US",
      "stateCode": "AL",
      "latitude": "32.14432000",
      "longitude": "-85.71495000"
   },
   {
      "name": "Uniontown",
      "countryCode": "US",
      "stateCode": "AL",
      "latitude": "32.44958000",
      "longitude": "-87.51417000"
   },
   {
      "name": "Valley",
      "countryCode": "US",
      "stateCode": "AL",
      "latitude": "32.81874000",
      "longitude": "-85.17939000"
   },
   {
      "name": "Valley Grande",
      "countryCode": "US",
      "stateCode": "AL",
      "latitude": "32.50902000",
      "longitude": "-86.98749000"
   },
   {
      "name": "Vance",
      "countryCode": "US",
      "stateCode": "AL",
      "latitude": "33.17428000",
      "longitude": "-87.23361000"
   },
   {
      "name": "Vandiver",
      "countryCode": "US",
      "stateCode": "AL",
      "latitude": "33.47066000",
      "longitude": "-86.51332000"
   },
   {
      "name": "Vernon",
      "countryCode": "US",
      "stateCode": "AL",
      "latitude": "33.75705000",
      "longitude": "-88.10892000"
   },
   {
      "name": "Vestavia Hills",
      "countryCode": "US",
      "stateCode": "AL",
      "latitude": "33.44872000",
      "longitude": "-86.78777000"
   },
   {
      "name": "Vincent",
      "countryCode": "US",
      "stateCode": "AL",
      "latitude": "33.38455000",
      "longitude": "-86.41192000"
   },
   {
      "name": "Walker County",
      "countryCode": "US",
      "stateCode": "AL",
      "latitude": "33.80333000",
      "longitude": "-87.29736000"
   },
   {
      "name": "Warrior",
      "countryCode": "US",
      "stateCode": "AL",
      "latitude": "33.81427000",
      "longitude": "-86.80944000"
   },
   {
      "name": "Washington County",
      "countryCode": "US",
      "stateCode": "AL",
      "latitude": "31.40760000",
      "longitude": "-88.20788000"
   },
   {
      "name": "Weaver",
      "countryCode": "US",
      "stateCode": "AL",
      "latitude": "33.75205000",
      "longitude": "-85.81135000"
   },
   {
      "name": "Webb",
      "countryCode": "US",
      "stateCode": "AL",
      "latitude": "31.26045000",
      "longitude": "-85.27327000"
   },
   {
      "name": "Wedowee",
      "countryCode": "US",
      "stateCode": "AL",
      "latitude": "33.30900000",
      "longitude": "-85.48467000"
   },
   {
      "name": "West Blocton",
      "countryCode": "US",
      "stateCode": "AL",
      "latitude": "33.11817000",
      "longitude": "-87.12500000"
   },
   {
      "name": "West End-Cobb Town",
      "countryCode": "US",
      "stateCode": "AL",
      "latitude": "33.65250000",
      "longitude": "-85.87420000"
   },
   {
      "name": "Westover",
      "countryCode": "US",
      "stateCode": "AL",
      "latitude": "33.34955000",
      "longitude": "-86.53582000"
   },
   {
      "name": "Wetumpka",
      "countryCode": "US",
      "stateCode": "AL",
      "latitude": "32.54374000",
      "longitude": "-86.21191000"
   },
   {
      "name": "Whitesboro",
      "countryCode": "US",
      "stateCode": "AL",
      "latitude": "34.16343000",
      "longitude": "-86.06942000"
   },
   {
      "name": "Wilcox County",
      "countryCode": "US",
      "stateCode": "AL",
      "latitude": "31.98924000",
      "longitude": "-87.30820000"
   },
   {
      "name": "Wilsonville",
      "countryCode": "US",
      "stateCode": "AL",
      "latitude": "33.23428000",
      "longitude": "-86.48359000"
   },
   {
      "name": "Winfield",
      "countryCode": "US",
      "stateCode": "AL",
      "latitude": "33.92899000",
      "longitude": "-87.81725000"
   },
   {
      "name": "Winston County",
      "countryCode": "US",
      "stateCode": "AL",
      "latitude": "34.14923000",
      "longitude": "-87.37368000"
   },
   {
      "name": "Woodstock",
      "countryCode": "US",
      "stateCode": "AL",
      "latitude": "33.20678000",
      "longitude": "-87.15000000"
   },
   {
      "name": "York",
      "countryCode": "US",
      "stateCode": "AL",
      "latitude": "32.48625000",
      "longitude": "-88.29642000"
   }
]