[
   {
      "name": "Batié",
      "countryCode": "BF",
      "stateCode": "13",
      "latitude": "9.88333000",
      "longitude": "-2.91667000"
   },
   {
      "name": "Dano",
      "countryCode": "BF",
      "stateCode": "13",
      "latitude": "11.14640000",
      "longitude": "-3.05784000"
   },
   {
      "name": "Diébougou",
      "countryCode": "BF",
      "stateCode": "13",
      "latitude": "10.96209000",
      "longitude": "-3.24967000"
   },
   {
      "name": "Province de la Bougouriba",
      "countryCode": "BF",
      "stateCode": "13",
      "latitude": "10.83333000",
      "longitude": "-3.41667000"
   },
   {
      "name": "Province du Ioba",
      "countryCode": "BF",
      "stateCode": "13",
      "latitude": "11.08333000",
      "longitude": "-3.08333000"
   },
   {
      "name": "Province du Noumbièl",
      "countryCode": "BF",
      "stateCode": "13",
      "latitude": "9.83333000",
      "longitude": "-3.00000000"
   },
   {
      "name": "Province du Poni",
      "countryCode": "BF",
      "stateCode": "13",
      "latitude": "10.25000000",
      "longitude": "-3.41667000"
   }
]