[
   {
      "name": "Afrin District",
      "countryCode": "SY",
      "stateCode": "HL",
      "latitude": "36.54891000",
      "longitude": "36.79295000"
   },
   {
      "name": "Al Atārib",
      "countryCode": "SY",
      "stateCode": "HL",
      "latitude": "36.13907000",
      "longitude": "36.82504000"
   },
   {
      "name": "Al Bāb",
      "countryCode": "SY",
      "stateCode": "HL",
      "latitude": "36.37051000",
      "longitude": "37.51570000"
   },
   {
      "name": "Al-Bab District",
      "countryCode": "SY",
      "stateCode": "HL",
      "latitude": "36.30946000",
      "longitude": "37.53277000"
   },
   {
      "name": "Aleppo",
      "countryCode": "SY",
      "stateCode": "HL",
      "latitude": "36.20124000",
      "longitude": "37.16117000"
   },
   {
      "name": "As Safīrah",
      "countryCode": "SY",
      "stateCode": "HL",
      "latitude": "36.07696000",
      "longitude": "37.37251000"
   },
   {
      "name": "Azaz District",
      "countryCode": "SY",
      "stateCode": "HL",
      "latitude": "36.49986000",
      "longitude": "37.18382000"
   },
   {
      "name": "Dayr Ḩāfir",
      "countryCode": "SY",
      "stateCode": "HL",
      "latitude": "36.15694000",
      "longitude": "37.70778000"
   },
   {
      "name": "I‘zāz",
      "countryCode": "SY",
      "stateCode": "HL",
      "latitude": "36.58662000",
      "longitude": "37.04628000"
   },
   {
      "name": "Jarābulus",
      "countryCode": "SY",
      "stateCode": "HL",
      "latitude": "36.81750000",
      "longitude": "38.01111000"
   },
   {
      "name": "Kafr Şaghīr",
      "countryCode": "SY",
      "stateCode": "HL",
      "latitude": "36.29264000",
      "longitude": "37.25590000"
   },
   {
      "name": "Khanāşir",
      "countryCode": "SY",
      "stateCode": "HL",
      "latitude": "35.78159000",
      "longitude": "37.49919000"
   },
   {
      "name": "Manbij",
      "countryCode": "SY",
      "stateCode": "HL",
      "latitude": "36.52815000",
      "longitude": "37.95495000"
   },
   {
      "name": "Manbij District",
      "countryCode": "SY",
      "stateCode": "HL",
      "latitude": "36.06687000",
      "longitude": "37.91735000"
   },
   {
      "name": "Mount Simeon District",
      "countryCode": "SY",
      "stateCode": "HL",
      "latitude": "35.99956000",
      "longitude": "37.08473000"
   },
   {
      "name": "Nubl",
      "countryCode": "SY",
      "stateCode": "HL",
      "latitude": "36.37867000",
      "longitude": "36.99294000"
   },
   {
      "name": "Tall Rif‘at",
      "countryCode": "SY",
      "stateCode": "HL",
      "latitude": "36.47229000",
      "longitude": "37.09471000"
   },
   {
      "name": "Tādif",
      "countryCode": "SY",
      "stateCode": "HL",
      "latitude": "36.34814000",
      "longitude": "37.53090000"
   },
   {
      "name": "Şūrān",
      "countryCode": "SY",
      "stateCode": "HL",
      "latitude": "36.56579000",
      "longitude": "37.21270000"
   },
   {
      "name": "‘Afrīn",
      "countryCode": "SY",
      "stateCode": "HL",
      "latitude": "36.51194000",
      "longitude": "36.86954000"
   },
   {
      "name": "‘Ayn al ‘Arab",
      "countryCode": "SY",
      "stateCode": "HL",
      "latitude": "36.89095000",
      "longitude": "38.35347000"
   }
]