[
   {
      "name": "Alabel",
      "countryCode": "PH",
      "stateCode": "12",
      "latitude": "6.10179000",
      "longitude": "125.29048000"
   },
   {
      "name": "Alamada",
      "countryCode": "PH",
      "stateCode": "12",
      "latitude": "7.33333000",
      "longitude": "124.56667000"
   },
   {
      "name": "Amas",
      "countryCode": "PH",
      "stateCode": "12",
      "latitude": "7.05694000",
      "longitude": "124.98389000"
   },
   {
      "name": "Bagontapay",
      "countryCode": "PH",
      "stateCode": "12",
      "latitude": "6.85889000",
      "longitude": "124.90889000"
   },
   {
      "name": "Baguer",
      "countryCode": "PH",
      "stateCode": "12",
      "latitude": "7.25611000",
      "longitude": "124.50417000"
   },
   {
      "name": "Baliton",
      "countryCode": "PH",
      "stateCode": "12",
      "latitude": "5.74361000",
      "longitude": "125.23639000"
   },
   {
      "name": "Balogo",
      "countryCode": "PH",
      "stateCode": "12",
      "latitude": "7.28230000",
      "longitude": "124.46388000"
   },
   {
      "name": "Banawa",
      "countryCode": "PH",
      "stateCode": "12",
      "latitude": "7.15361000",
      "longitude": "124.86667000"
   },
   {
      "name": "Banisilan",
      "countryCode": "PH",
      "stateCode": "12",
      "latitude": "7.49083000",
      "longitude": "124.72417000"
   },
   {
      "name": "Bantogon",
      "countryCode": "PH",
      "stateCode": "12",
      "latitude": "6.53333000",
      "longitude": "124.03333000"
   },
   {
      "name": "Barongis",
      "countryCode": "PH",
      "stateCode": "12",
      "latitude": "7.26111000",
      "longitude": "124.56417000"
   },
   {
      "name": "Basak",
      "countryCode": "PH",
      "stateCode": "12",
      "latitude": "6.72736000",
      "longitude": "124.15117000"
   },
   {
      "name": "Batasan",
      "countryCode": "PH",
      "stateCode": "12",
      "latitude": "7.03333000",
      "longitude": "125.05000000"
   },
   {
      "name": "Batutitik",
      "countryCode": "PH",
      "stateCode": "12",
      "latitude": "6.22333000",
      "longitude": "125.25194000"
   },
   {
      "name": "Bau",
      "countryCode": "PH",
      "stateCode": "12",
      "latitude": "7.40528000",
      "longitude": "124.64972000"
   },
   {
      "name": "Bayasong",
      "countryCode": "PH",
      "stateCode": "12",
      "latitude": "6.64889000",
      "longitude": "124.87306000"
   },
   {
      "name": "Bañga",
      "countryCode": "PH",
      "stateCode": "12",
      "latitude": "6.42389000",
      "longitude": "124.77833000"
   },
   {
      "name": "Bialong",
      "countryCode": "PH",
      "stateCode": "12",
      "latitude": "6.98056000",
      "longitude": "124.88889000"
   },
   {
      "name": "Biwang",
      "countryCode": "PH",
      "stateCode": "12",
      "latitude": "6.60592000",
      "longitude": "124.54358000"
   },
   {
      "name": "Blingkong",
      "countryCode": "PH",
      "stateCode": "12",
      "latitude": "6.58808000",
      "longitude": "124.88951000"
   },
   {
      "name": "Buadtasan",
      "countryCode": "PH",
      "stateCode": "12",
      "latitude": "6.00496000",
      "longitude": "124.61266000"
   },
   {
      "name": "Bual",
      "countryCode": "PH",
      "stateCode": "12",
      "latitude": "6.79583000",
      "longitude": "124.91083000"
   },
   {
      "name": "Buawan",
      "countryCode": "PH",
      "stateCode": "12",
      "latitude": "8.31667000",
      "longitude": "124.30306000"
   },
   {
      "name": "Buayan",
      "countryCode": "PH",
      "stateCode": "12",
      "latitude": "6.11639000",
      "longitude": "125.23472000"
   },
   {
      "name": "Bukay Pait",
      "countryCode": "PH",
      "stateCode": "12",
      "latitude": "6.56161000",
      "longitude": "124.76706000"
   },
   {
      "name": "Bulatukan",
      "countryCode": "PH",
      "stateCode": "12",
      "latitude": "6.90250000",
      "longitude": "125.16083000"
   },
   {
      "name": "Burias",
      "countryCode": "PH",
      "stateCode": "12",
      "latitude": "5.71778000",
      "longitude": "125.25361000"
   },
   {
      "name": "Busok",
      "countryCode": "PH",
      "stateCode": "12",
      "latitude": "6.50820000",
      "longitude": "124.60009000"
   },
   {
      "name": "Carmen",
      "countryCode": "PH",
      "stateCode": "12",
      "latitude": "7.20444000",
      "longitude": "124.79167000"
   },
   {
      "name": "Carpenter Hill",
      "countryCode": "PH",
      "stateCode": "12",
      "latitude": "6.44413000",
      "longitude": "124.88138000"
   },
   {
      "name": "Cebuano",
      "countryCode": "PH",
      "stateCode": "12",
      "latitude": "6.38794000",
      "longitude": "124.96841000"
   },
   {
      "name": "Colongulo",
      "countryCode": "PH",
      "stateCode": "12",
      "latitude": "6.33861000",
      "longitude": "124.72167000"
   },
   {
      "name": "Columbio",
      "countryCode": "PH",
      "stateCode": "12",
      "latitude": "6.69639000",
      "longitude": "124.93722000"
   },
   {
      "name": "Conel",
      "countryCode": "PH",
      "stateCode": "12",
      "latitude": "6.20222000",
      "longitude": "125.18722000"
   },
   {
      "name": "Cotabato City",
      "countryCode": "PH",
      "stateCode": "12",
      "latitude": "7.21667000",
      "longitude": "124.25000000"
   },
   {
      "name": "Daguma",
      "countryCode": "PH",
      "stateCode": "12",
      "latitude": "6.60345000",
      "longitude": "124.57020000"
   },
   {
      "name": "Dahay",
      "countryCode": "PH",
      "stateCode": "12",
      "latitude": "6.39067000",
      "longitude": "124.71464000"
   },
   {
      "name": "Daliao",
      "countryCode": "PH",
      "stateCode": "12",
      "latitude": "5.86111000",
      "longitude": "124.95333000"
   },
   {
      "name": "Damawato",
      "countryCode": "PH",
      "stateCode": "12",
      "latitude": "6.70000000",
      "longitude": "124.78333000"
   },
   {
      "name": "Dansuli",
      "countryCode": "PH",
      "stateCode": "12",
      "latitude": "6.64075000",
      "longitude": "124.58258000"
   },
   {
      "name": "Digkilaan",
      "countryCode": "PH",
      "stateCode": "12",
      "latitude": "8.25111000",
      "longitude": "124.31722000"
   },
   {
      "name": "Dualing",
      "countryCode": "PH",
      "stateCode": "12",
      "latitude": "7.15167000",
      "longitude": "124.56833000"
   },
   {
      "name": "Dukay",
      "countryCode": "PH",
      "stateCode": "12",
      "latitude": "6.66688000",
      "longitude": "124.55697000"
   },
   {
      "name": "Dumaguil",
      "countryCode": "PH",
      "stateCode": "12",
      "latitude": "6.62000000",
      "longitude": "124.65333000"
   },
   {
      "name": "Dunguan",
      "countryCode": "PH",
      "stateCode": "12",
      "latitude": "6.94972000",
      "longitude": "124.86083000"
   },
   {
      "name": "Esperanza",
      "countryCode": "PH",
      "stateCode": "12",
      "latitude": "6.72306000",
      "longitude": "124.51972000"
   },
   {
      "name": "Gansing",
      "countryCode": "PH",
      "stateCode": "12",
      "latitude": "6.71851000",
      "longitude": "124.65338000"
   },
   {
      "name": "General Santos",
      "countryCode": "PH",
      "stateCode": "12",
      "latitude": "6.11278000",
      "longitude": "125.17167000"
   },
   {
      "name": "Glad",
      "countryCode": "PH",
      "stateCode": "12",
      "latitude": "7.14833000",
      "longitude": "124.51806000"
   },
   {
      "name": "Glamang",
      "countryCode": "PH",
      "stateCode": "12",
      "latitude": "6.16255000",
      "longitude": "125.08392000"
   },
   {
      "name": "Glan",
      "countryCode": "PH",
      "stateCode": "12",
      "latitude": "5.82417000",
      "longitude": "125.20333000"
   },
   {
      "name": "Glan Peidu",
      "countryCode": "PH",
      "stateCode": "12",
      "latitude": "5.85500000",
      "longitude": "125.21861000"
   },
   {
      "name": "Gocoton",
      "countryCode": "PH",
      "stateCode": "12",
      "latitude": "7.15611000",
      "longitude": "124.69111000"
   },
   {
      "name": "Guinsang-an",
      "countryCode": "PH",
      "stateCode": "12",
      "latitude": "6.46499000",
      "longitude": "124.68491000"
   },
   {
      "name": "Ilaya",
      "countryCode": "PH",
      "stateCode": "12",
      "latitude": "5.81528000",
      "longitude": "125.22667000"
   },
   {
      "name": "Iligan City",
      "countryCode": "PH",
      "stateCode": "12",
      "latitude": "8.25000000",
      "longitude": "124.40000000"
   },
   {
      "name": "Isulan",
      "countryCode": "PH",
      "stateCode": "12",
      "latitude": "6.62944000",
      "longitude": "124.60500000"
   },
   {
      "name": "Kabacan",
      "countryCode": "PH",
      "stateCode": "12",
      "latitude": "7.10667000",
      "longitude": "124.82917000"
   },
   {
      "name": "Kabalen",
      "countryCode": "PH",
      "stateCode": "12",
      "latitude": "6.31944000",
      "longitude": "125.01056000"
   },
   {
      "name": "Kablalan",
      "countryCode": "PH",
      "stateCode": "12",
      "latitude": "5.77972000",
      "longitude": "125.19778000"
   },
   {
      "name": "Kalaisan",
      "countryCode": "PH",
      "stateCode": "12",
      "latitude": "7.01028000",
      "longitude": "125.04500000"
   },
   {
      "name": "Kalamangog",
      "countryCode": "PH",
      "stateCode": "12",
      "latitude": "6.72556000",
      "longitude": "124.06889000"
   },
   {
      "name": "Kalamansig",
      "countryCode": "PH",
      "stateCode": "12",
      "latitude": "6.55187000",
      "longitude": "124.05111000"
   },
   {
      "name": "Kalandagan",
      "countryCode": "PH",
      "stateCode": "12",
      "latitude": "6.67826000",
      "longitude": "124.72477000"
   },
   {
      "name": "Kamanga",
      "countryCode": "PH",
      "stateCode": "12",
      "latitude": "5.85778000",
      "longitude": "125.05611000"
   },
   {
      "name": "Kapatan",
      "countryCode": "PH",
      "stateCode": "12",
      "latitude": "5.90056000",
      "longitude": "125.23750000"
   },
   {
      "name": "Kapaya",
      "countryCode": "PH",
      "stateCode": "12",
      "latitude": "6.54258000",
      "longitude": "124.56314000"
   },
   {
      "name": "Kapingkong",
      "countryCode": "PH",
      "stateCode": "12",
      "latitude": "6.67503000",
      "longitude": "124.62632000"
   },
   {
      "name": "Katangawan",
      "countryCode": "PH",
      "stateCode": "12",
      "latitude": "6.17222000",
      "longitude": "125.22139000"
   },
   {
      "name": "Katubao",
      "countryCode": "PH",
      "stateCode": "12",
      "latitude": "5.88917000",
      "longitude": "124.82944000"
   },
   {
      "name": "Kiamba",
      "countryCode": "PH",
      "stateCode": "12",
      "latitude": "5.98944000",
      "longitude": "124.62417000"
   },
   {
      "name": "Kidapawan",
      "countryCode": "PH",
      "stateCode": "12",
      "latitude": "7.00833000",
      "longitude": "125.08944000"
   },
   {
      "name": "Kipalbig",
      "countryCode": "PH",
      "stateCode": "12",
      "latitude": "6.41056000",
      "longitude": "124.92640000"
   },
   {
      "name": "Kisante",
      "countryCode": "PH",
      "stateCode": "12",
      "latitude": "6.92306000",
      "longitude": "125.15500000"
   },
   {
      "name": "Kiupo",
      "countryCode": "PH",
      "stateCode": "12",
      "latitude": "5.84167000",
      "longitude": "125.31917000"
   },
   {
      "name": "Klinan",
      "countryCode": "PH",
      "stateCode": "12",
      "latitude": "6.18683000",
      "longitude": "125.13684000"
   },
   {
      "name": "Kolumbug",
      "countryCode": "PH",
      "stateCode": "12",
      "latitude": "6.52389000",
      "longitude": "124.60833000"
   },
   {
      "name": "Koronadal",
      "countryCode": "PH",
      "stateCode": "12",
      "latitude": "6.50306000",
      "longitude": "124.84694000"
   },
   {
      "name": "Kudanding",
      "countryCode": "PH",
      "stateCode": "12",
      "latitude": "6.58803000",
      "longitude": "124.63274000"
   },
   {
      "name": "Kulaman",
      "countryCode": "PH",
      "stateCode": "12",
      "latitude": "6.46001000",
      "longitude": "124.08767000"
   },
   {
      "name": "Labu-o",
      "countryCode": "PH",
      "stateCode": "12",
      "latitude": "7.11417000",
      "longitude": "125.04528000"
   },
   {
      "name": "Laguilayan",
      "countryCode": "PH",
      "stateCode": "12",
      "latitude": "6.67213000",
      "longitude": "124.52491000"
   },
   {
      "name": "Lake Sebu",
      "countryCode": "PH",
      "stateCode": "12",
      "latitude": "6.22482000",
      "longitude": "124.71042000"
   },
   {
      "name": "Lala",
      "countryCode": "PH",
      "stateCode": "12",
      "latitude": "7.97306000",
      "longitude": "123.74722000"
   },
   {
      "name": "Lamba",
      "countryCode": "PH",
      "stateCode": "12",
      "latitude": "6.35025000",
      "longitude": "124.81974000"
   },
   {
      "name": "Lambayong",
      "countryCode": "PH",
      "stateCode": "12",
      "latitude": "6.51944000",
      "longitude": "125.04444000"
   },
   {
      "name": "Lambontong",
      "countryCode": "PH",
      "stateCode": "12",
      "latitude": "6.30833000",
      "longitude": "124.81056000"
   },
   {
      "name": "Lamian",
      "countryCode": "PH",
      "stateCode": "12",
      "latitude": "6.30917000",
      "longitude": "124.84639000"
   },
   {
      "name": "Lampari",
      "countryCode": "PH",
      "stateCode": "12",
      "latitude": "6.31264000",
      "longitude": "124.88028000"
   },
   {
      "name": "Lampitak",
      "countryCode": "PH",
      "stateCode": "12",
      "latitude": "6.43222000",
      "longitude": "125.05250000"
   },
   {
      "name": "Lapuz",
      "countryCode": "PH",
      "stateCode": "12",
      "latitude": "6.49416000",
      "longitude": "124.63054000"
   },
   {
      "name": "Libas",
      "countryCode": "PH",
      "stateCode": "12",
      "latitude": "6.52014000",
      "longitude": "124.78234000"
   },
   {
      "name": "Liberty",
      "countryCode": "PH",
      "stateCode": "12",
      "latitude": "6.51989000",
      "longitude": "124.63194000"
   },
   {
      "name": "Libungan",
      "countryCode": "PH",
      "stateCode": "12",
      "latitude": "7.24083000",
      "longitude": "124.52000000"
   },
   {
      "name": "Liliongan",
      "countryCode": "PH",
      "stateCode": "12",
      "latitude": "7.36278000",
      "longitude": "124.79278000"
   },
   {
      "name": "Limbalod",
      "countryCode": "PH",
      "stateCode": "12",
      "latitude": "7.13278000",
      "longitude": "124.79889000"
   },
   {
      "name": "Limulan",
      "countryCode": "PH",
      "stateCode": "12",
      "latitude": "6.58528000",
      "longitude": "124.06189000"
   },
   {
      "name": "Linan",
      "countryCode": "PH",
      "stateCode": "12",
      "latitude": "6.43218000",
      "longitude": "124.97617000"
   },
   {
      "name": "Linao",
      "countryCode": "PH",
      "stateCode": "12",
      "latitude": "7.16778000",
      "longitude": "124.96750000"
   },
   {
      "name": "Lopez Jaena",
      "countryCode": "PH",
      "stateCode": "12",
      "latitude": "6.47591000",
      "longitude": "124.69828000"
   },
   {
      "name": "Lumatil",
      "countryCode": "PH",
      "stateCode": "12",
      "latitude": "5.87472000",
      "longitude": "124.88833000"
   },
   {
      "name": "Lumazal",
      "countryCode": "PH",
      "stateCode": "12",
      "latitude": "5.88528000",
      "longitude": "124.84944000"
   },
   {
      "name": "Lumuyon",
      "countryCode": "PH",
      "stateCode": "12",
      "latitude": "5.91583000",
      "longitude": "124.78694000"
   },
   {
      "name": "Lun Pequeño",
      "countryCode": "PH",
      "stateCode": "12",
      "latitude": "6.03778000",
      "longitude": "125.28389000"
   },
   {
      "name": "Lunen",
      "countryCode": "PH",
      "stateCode": "12",
      "latitude": "6.35911000",
      "longitude": "124.90477000"
   },
   {
      "name": "Maan",
      "countryCode": "PH",
      "stateCode": "12",
      "latitude": "5.93389000",
      "longitude": "124.73556000"
   },
   {
      "name": "Maasim",
      "countryCode": "PH",
      "stateCode": "12",
      "latitude": "5.85750000",
      "longitude": "125.00611000"
   },
   {
      "name": "Mabay",
      "countryCode": "PH",
      "stateCode": "12",
      "latitude": "6.05772000",
      "longitude": "124.46661000"
   },
   {
      "name": "Mabini",
      "countryCode": "PH",
      "stateCode": "12",
      "latitude": "6.50556000",
      "longitude": "124.90810000"
   },
   {
      "name": "Magpet",
      "countryCode": "PH",
      "stateCode": "12",
      "latitude": "7.10017000",
      "longitude": "125.11548000"
   },
   {
      "name": "Maguling",
      "countryCode": "PH",
      "stateCode": "12",
      "latitude": "6.09500000",
      "longitude": "124.40333000"
   },
   {
      "name": "Maibu",
      "countryCode": "PH",
      "stateCode": "12",
      "latitude": "6.57000000",
      "longitude": "124.79361000"
   },
   {
      "name": "Maindang",
      "countryCode": "PH",
      "stateCode": "12",
      "latitude": "6.58978000",
      "longitude": "124.84732000"
   },
   {
      "name": "Maitum",
      "countryCode": "PH",
      "stateCode": "12",
      "latitude": "6.03917000",
      "longitude": "124.49861000"
   },
   {
      "name": "Makilala",
      "countryCode": "PH",
      "stateCode": "12",
      "latitude": "6.95167000",
      "longitude": "125.09694000"
   },
   {
      "name": "Malamote",
      "countryCode": "PH",
      "stateCode": "12",
      "latitude": "7.07389000",
      "longitude": "124.94000000"
   },
   {
      "name": "Malandag",
      "countryCode": "PH",
      "stateCode": "12",
      "latitude": "6.31030000",
      "longitude": "125.24756000"
   },
   {
      "name": "Malapag",
      "countryCode": "PH",
      "stateCode": "12",
      "latitude": "7.13333000",
      "longitude": "124.81667000"
   },
   {
      "name": "Malapatan",
      "countryCode": "PH",
      "stateCode": "12",
      "latitude": "5.96917000",
      "longitude": "125.28944000"
   },
   {
      "name": "Malasila",
      "countryCode": "PH",
      "stateCode": "12",
      "latitude": "6.94389000",
      "longitude": "125.12944000"
   },
   {
      "name": "Malbang",
      "countryCode": "PH",
      "stateCode": "12",
      "latitude": "5.85556000",
      "longitude": "125.04528000"
   },
   {
      "name": "Malinao",
      "countryCode": "PH",
      "stateCode": "12",
      "latitude": "7.56029000",
      "longitude": "124.70839000"
   },
   {
      "name": "Malingao",
      "countryCode": "PH",
      "stateCode": "12",
      "latitude": "7.16083000",
      "longitude": "124.47500000"
   },
   {
      "name": "Malisbeng",
      "countryCode": "PH",
      "stateCode": "12",
      "latitude": "6.12000000",
      "longitude": "124.35472000"
   },
   {
      "name": "Malitubog",
      "countryCode": "PH",
      "stateCode": "12",
      "latitude": "7.31556000",
      "longitude": "124.63806000"
   },
   {
      "name": "Maltana",
      "countryCode": "PH",
      "stateCode": "12",
      "latitude": "6.42290000",
      "longitude": "124.93688000"
   },
   {
      "name": "Maluñgun",
      "countryCode": "PH",
      "stateCode": "12",
      "latitude": "6.27917000",
      "longitude": "125.28167000"
   },
   {
      "name": "Mamali",
      "countryCode": "PH",
      "stateCode": "12",
      "latitude": "6.77360000",
      "longitude": "124.64770000"
   },
   {
      "name": "Manaulanan",
      "countryCode": "PH",
      "stateCode": "12",
      "latitude": "7.04806000",
      "longitude": "124.61944000"
   },
   {
      "name": "Manga",
      "countryCode": "PH",
      "stateCode": "12",
      "latitude": "6.29083000",
      "longitude": "125.30833000"
   },
   {
      "name": "Manuangan",
      "countryCode": "PH",
      "stateCode": "12",
      "latitude": "7.27694000",
      "longitude": "124.40444000"
   },
   {
      "name": "Manuel Roxas",
      "countryCode": "PH",
      "stateCode": "12",
      "latitude": "6.44173000",
      "longitude": "124.66605000"
   },
   {
      "name": "Marbel",
      "countryCode": "PH",
      "stateCode": "12",
      "latitude": "7.11583000",
      "longitude": "124.91250000"
   },
   {
      "name": "Mariano Marcos",
      "countryCode": "PH",
      "stateCode": "12",
      "latitude": "6.73333000",
      "longitude": "124.66667000"
   },
   {
      "name": "Matalam",
      "countryCode": "PH",
      "stateCode": "12",
      "latitude": "7.08639000",
      "longitude": "124.90056000"
   },
   {
      "name": "Matiompong",
      "countryCode": "PH",
      "stateCode": "12",
      "latitude": "6.69611000",
      "longitude": "124.56611000"
   },
   {
      "name": "Midsayap",
      "countryCode": "PH",
      "stateCode": "12",
      "latitude": "7.19083000",
      "longitude": "124.53028000"
   },
   {
      "name": "Minapan",
      "countryCode": "PH",
      "stateCode": "12",
      "latitude": "6.81500000",
      "longitude": "124.85861000"
   },
   {
      "name": "Mindupok",
      "countryCode": "PH",
      "stateCode": "12",
      "latitude": "6.09056000",
      "longitude": "124.42333000"
   },
   {
      "name": "Nalus",
      "countryCode": "PH",
      "stateCode": "12",
      "latitude": "6.01222000",
      "longitude": "124.58528000"
   },
   {
      "name": "New Cebu",
      "countryCode": "PH",
      "stateCode": "12",
      "latitude": "7.09528000",
      "longitude": "125.03361000"
   },
   {
      "name": "New Iloilo",
      "countryCode": "PH",
      "stateCode": "12",
      "latitude": "6.54776000",
      "longitude": "124.78951000"
   },
   {
      "name": "New Lagao",
      "countryCode": "PH",
      "stateCode": "12",
      "latitude": "6.70235000",
      "longitude": "124.64141000"
   },
   {
      "name": "New Panay",
      "countryCode": "PH",
      "stateCode": "12",
      "latitude": "6.74237000",
      "longitude": "124.55956000"
   },
   {
      "name": "Noling",
      "countryCode": "PH",
      "stateCode": "12",
      "latitude": "6.65984000",
      "longitude": "124.09981000"
   },
   {
      "name": "Norala",
      "countryCode": "PH",
      "stateCode": "12",
      "latitude": "6.52250000",
      "longitude": "124.65917000"
   },
   {
      "name": "Nunguan",
      "countryCode": "PH",
      "stateCode": "12",
      "latitude": "7.12825000",
      "longitude": "124.68912000"
   },
   {
      "name": "Osias",
      "countryCode": "PH",
      "stateCode": "12",
      "latitude": "7.60000000",
      "longitude": "124.81667000"
   },
   {
      "name": "Paatan",
      "countryCode": "PH",
      "stateCode": "12",
      "latitude": "7.11972000",
      "longitude": "124.92389000"
   },
   {
      "name": "Pagalungan",
      "countryCode": "PH",
      "stateCode": "12",
      "latitude": "6.26556000",
      "longitude": "125.01333000"
   },
   {
      "name": "Pagangan",
      "countryCode": "PH",
      "stateCode": "12",
      "latitude": "7.11444000",
      "longitude": "124.59528000"
   },
   {
      "name": "Palian",
      "countryCode": "PH",
      "stateCode": "12",
      "latitude": "6.37427000",
      "longitude": "124.91062000"
   },
   {
      "name": "Palimbang",
      "countryCode": "PH",
      "stateCode": "12",
      "latitude": "6.21002000",
      "longitude": "124.18887000"
   },
   {
      "name": "Palkan",
      "countryCode": "PH",
      "stateCode": "12",
      "latitude": "6.29639000",
      "longitude": "125.03167000"
   },
   {
      "name": "Pamantingan",
      "countryCode": "PH",
      "stateCode": "12",
      "latitude": "6.71413000",
      "longitude": "124.38095000"
   },
   {
      "name": "Panay",
      "countryCode": "PH",
      "stateCode": "12",
      "latitude": "6.49704000",
      "longitude": "124.63808000"
   },
   {
      "name": "Pangyan",
      "countryCode": "PH",
      "stateCode": "12",
      "latitude": "5.70083000",
      "longitude": "125.28111000"
   },
   {
      "name": "Paraiso",
      "countryCode": "PH",
      "stateCode": "12",
      "latitude": "6.47606000",
      "longitude": "124.80954000"
   },
   {
      "name": "Patindeguen",
      "countryCode": "PH",
      "stateCode": "12",
      "latitude": "7.21972000",
      "longitude": "124.49833000"
   },
   {
      "name": "Pedtad",
      "countryCode": "PH",
      "stateCode": "12",
      "latitude": "7.16056000",
      "longitude": "124.81444000"
   },
   {
      "name": "Pigcawayan",
      "countryCode": "PH",
      "stateCode": "12",
      "latitude": "7.27722000",
      "longitude": "124.42556000"
   },
   {
      "name": "Pikit",
      "countryCode": "PH",
      "stateCode": "12",
      "latitude": "7.05444000",
      "longitude": "124.67194000"
   },
   {
      "name": "Pimbalayan",
      "countryCode": "PH",
      "stateCode": "12",
      "latitude": "6.86917000",
      "longitude": "124.67250000"
   },
   {
      "name": "Polo",
      "countryCode": "PH",
      "stateCode": "12",
      "latitude": "6.26472000",
      "longitude": "125.11250000"
   },
   {
      "name": "Polomolok",
      "countryCode": "PH",
      "stateCode": "12",
      "latitude": "6.22167000",
      "longitude": "125.06398000"
   },
   {
      "name": "Polonoling",
      "countryCode": "PH",
      "stateCode": "12",
      "latitude": "6.28496000",
      "longitude": "124.96890000"
   },
   {
      "name": "President Quirino",
      "countryCode": "PH",
      "stateCode": "12",
      "latitude": "6.70389000",
      "longitude": "124.73722000"
   },
   {
      "name": "President Roxas",
      "countryCode": "PH",
      "stateCode": "12",
      "latitude": "7.15444000",
      "longitude": "125.05583000"
   },
   {
      "name": "Province of Cotabato",
      "countryCode": "PH",
      "stateCode": "12",
      "latitude": "7.01667000",
      "longitude": "125.08333000"
   },
   {
      "name": "Province of Sarangani",
      "countryCode": "PH",
      "stateCode": "12",
      "latitude": "5.87472000",
      "longitude": "125.27528000"
   },
   {
      "name": "Province of South Cotabato",
      "countryCode": "PH",
      "stateCode": "12",
      "latitude": "6.25218000",
      "longitude": "125.00060000"
   },
   {
      "name": "Province of Sultan Kudarat",
      "countryCode": "PH",
      "stateCode": "12",
      "latitude": "6.55000000",
      "longitude": "124.28333000"
   },
   {
      "name": "Puloypuloy",
      "countryCode": "PH",
      "stateCode": "12",
      "latitude": "6.63517000",
      "longitude": "124.09600000"
   },
   {
      "name": "Punolu",
      "countryCode": "PH",
      "stateCode": "12",
      "latitude": "7.05000000",
      "longitude": "124.58333000"
   },
   {
      "name": "Puricay",
      "countryCode": "PH",
      "stateCode": "12",
      "latitude": "6.68614000",
      "longitude": "124.06957000"
   },
   {
      "name": "Ragandang",
      "countryCode": "PH",
      "stateCode": "12",
      "latitude": "6.66386000",
      "longitude": "124.12063000"
   },
   {
      "name": "Rogongon",
      "countryCode": "PH",
      "stateCode": "12",
      "latitude": "8.23333000",
      "longitude": "124.33333000"
   },
   {
      "name": "Rotonda",
      "countryCode": "PH",
      "stateCode": "12",
      "latitude": "6.49179000",
      "longitude": "124.88616000"
   },
   {
      "name": "Sadsalan",
      "countryCode": "PH",
      "stateCode": "12",
      "latitude": "6.82906000",
      "longitude": "124.60893000"
   },
   {
      "name": "Saguing",
      "countryCode": "PH",
      "stateCode": "12",
      "latitude": "6.98028000",
      "longitude": "125.07806000"
   },
   {
      "name": "Salimbao",
      "countryCode": "PH",
      "stateCode": "12",
      "latitude": "7.22250000",
      "longitude": "124.25333000"
   },
   {
      "name": "Salunayan",
      "countryCode": "PH",
      "stateCode": "12",
      "latitude": "7.15444000",
      "longitude": "124.49750000"
   },
   {
      "name": "Salvador",
      "countryCode": "PH",
      "stateCode": "12",
      "latitude": "7.89528000",
      "longitude": "123.84361000"
   },
   {
      "name": "Sampao",
      "countryCode": "PH",
      "stateCode": "12",
      "latitude": "6.87667000",
      "longitude": "124.59556000"
   },
   {
      "name": "San Miguel",
      "countryCode": "PH",
      "stateCode": "12",
      "latitude": "6.49245000",
      "longitude": "124.69643000"
   },
   {
      "name": "San Vicente",
      "countryCode": "PH",
      "stateCode": "12",
      "latitude": "6.45375000",
      "longitude": "124.78005000"
   },
   {
      "name": "Sangay",
      "countryCode": "PH",
      "stateCode": "12",
      "latitude": "6.44500000",
      "longitude": "124.04444000"
   },
   {
      "name": "Santo Niño",
      "countryCode": "PH",
      "stateCode": "12",
      "latitude": "6.43500000",
      "longitude": "124.69750000"
   },
   {
      "name": "Sapad",
      "countryCode": "PH",
      "stateCode": "12",
      "latitude": "7.85000000",
      "longitude": "123.83333000"
   },
   {
      "name": "Sapu Padidu",
      "countryCode": "PH",
      "stateCode": "12",
      "latitude": "5.91722000",
      "longitude": "125.26694000"
   },
   {
      "name": "Silway 7",
      "countryCode": "PH",
      "stateCode": "12",
      "latitude": "6.17711000",
      "longitude": "125.12068000"
   },
   {
      "name": "Sinolon",
      "countryCode": "PH",
      "stateCode": "12",
      "latitude": "6.24389000",
      "longitude": "124.81444000"
   },
   {
      "name": "Sulit",
      "countryCode": "PH",
      "stateCode": "12",
      "latitude": "6.23611000",
      "longitude": "125.02056000"
   },
   {
      "name": "Surallah",
      "countryCode": "PH",
      "stateCode": "12",
      "latitude": "6.37527000",
      "longitude": "124.74521000"
   },
   {
      "name": "Suyan",
      "countryCode": "PH",
      "stateCode": "12",
      "latitude": "6.06028000",
      "longitude": "125.38528000"
   },
   {
      "name": "Tacurong",
      "countryCode": "PH",
      "stateCode": "12",
      "latitude": "6.69250000",
      "longitude": "124.67639000"
   },
   {
      "name": "Taguisa",
      "countryCode": "PH",
      "stateCode": "12",
      "latitude": "6.69833000",
      "longitude": "124.03583000"
   },
   {
      "name": "Taluya",
      "countryCode": "PH",
      "stateCode": "12",
      "latitude": "5.81167000",
      "longitude": "125.17278000"
   },
   {
      "name": "Tambak",
      "countryCode": "PH",
      "stateCode": "12",
      "latitude": "6.72532000",
      "longitude": "124.62342000"
   },
   {
      "name": "Tambilil",
      "countryCode": "PH",
      "stateCode": "12",
      "latitude": "5.96222000",
      "longitude": "124.66972000"
   },
   {
      "name": "Tamnag",
      "countryCode": "PH",
      "stateCode": "12",
      "latitude": "6.57298000",
      "longitude": "124.88004000"
   },
   {
      "name": "Tamontaka",
      "countryCode": "PH",
      "stateCode": "12",
      "latitude": "7.18056000",
      "longitude": "124.22556000"
   },
   {
      "name": "Tampakan",
      "countryCode": "PH",
      "stateCode": "12",
      "latitude": "6.49034000",
      "longitude": "125.08275000"
   },
   {
      "name": "Tantangan",
      "countryCode": "PH",
      "stateCode": "12",
      "latitude": "6.61500000",
      "longitude": "124.74889000"
   },
   {
      "name": "Tañgo",
      "countryCode": "PH",
      "stateCode": "12",
      "latitude": "5.88083000",
      "longitude": "125.22194000"
   },
   {
      "name": "Telafas",
      "countryCode": "PH",
      "stateCode": "12",
      "latitude": "6.62980000",
      "longitude": "124.97294000"
   },
   {
      "name": "Teresita",
      "countryCode": "PH",
      "stateCode": "12",
      "latitude": "6.41434000",
      "longitude": "124.70778000"
   },
   {
      "name": "Tinagacan",
      "countryCode": "PH",
      "stateCode": "12",
      "latitude": "6.19917000",
      "longitude": "125.22944000"
   },
   {
      "name": "Tinoto",
      "countryCode": "PH",
      "stateCode": "12",
      "latitude": "5.88667000",
      "longitude": "125.07056000"
   },
   {
      "name": "Tomado",
      "countryCode": "PH",
      "stateCode": "12",
      "latitude": "7.19250000",
      "longitude": "124.60806000"
   },
   {
      "name": "Tran",
      "countryCode": "PH",
      "stateCode": "12",
      "latitude": "6.72028000",
      "longitude": "124.05500000"
   },
   {
      "name": "Tuka",
      "countryCode": "PH",
      "stateCode": "12",
      "latitude": "6.51862000",
      "longitude": "124.58736000"
   },
   {
      "name": "Tulunan",
      "countryCode": "PH",
      "stateCode": "12",
      "latitude": "6.83444000",
      "longitude": "124.87694000"
   },
   {
      "name": "Tupi",
      "countryCode": "PH",
      "stateCode": "12",
      "latitude": "6.33444000",
      "longitude": "124.95278000"
   },
   {
      "name": "Tuyan",
      "countryCode": "PH",
      "stateCode": "12",
      "latitude": "6.00000000",
      "longitude": "125.28333000"
   },
   {
      "name": "Upper Klinan",
      "countryCode": "PH",
      "stateCode": "12",
      "latitude": "6.22722000",
      "longitude": "125.12083000"
   },
   {
      "name": "Upper San Mateo",
      "countryCode": "PH",
      "stateCode": "12",
      "latitude": "7.17306000",
      "longitude": "124.58222000"
   },
   {
      "name": "Villamor",
      "countryCode": "PH",
      "stateCode": "12",
      "latitude": "6.70380000",
      "longitude": "124.52009000"
   }
]