[
   {
      "name": "Gojō",
      "countryCode": "JP",
      "stateCode": "29",
      "latitude": "34.35000000",
      "longitude": "135.70000000"
   },
   {
      "name": "Gojō-shi",
      "countryCode": "JP",
      "stateCode": "29",
      "latitude": "34.35081000",
      "longitude": "135.69489000"
   },
   {
      "name": "Gose",
      "countryCode": "JP",
      "stateCode": "29",
      "latitude": "34.45000000",
      "longitude": "135.73333000"
   },
   {
      "name": "Haibara-akanedai",
      "countryCode": "JP",
      "stateCode": "29",
      "latitude": "34.53333000",
      "longitude": "135.95000000"
   },
   {
      "name": "Hōryūji",
      "countryCode": "JP",
      "stateCode": "29",
      "latitude": "34.61234000",
      "longitude": "135.73754000"
   },
   {
      "name": "Ikoma",
      "countryCode": "JP",
      "stateCode": "29",
      "latitude": "34.68333000",
      "longitude": "135.70000000"
   },
   {
      "name": "Ikoma-shi",
      "countryCode": "JP",
      "stateCode": "29",
      "latitude": "34.69187000",
      "longitude": "135.70057000"
   },
   {
      "name": "Kashiba-shi",
      "countryCode": "JP",
      "stateCode": "29",
      "latitude": "34.54107000",
      "longitude": "135.69918000"
   },
   {
      "name": "Kashihara-shi",
      "countryCode": "JP",
      "stateCode": "29",
      "latitude": "34.50352000",
      "longitude": "135.78986000"
   },
   {
      "name": "Katsuragi",
      "countryCode": "JP",
      "stateCode": "29",
      "latitude": "34.48562000",
      "longitude": "135.69698000"
   },
   {
      "name": "Katsuragi Shi",
      "countryCode": "JP",
      "stateCode": "29",
      "latitude": "34.49682000",
      "longitude": "135.70464000"
   },
   {
      "name": "Nara-shi",
      "countryCode": "JP",
      "stateCode": "29",
      "latitude": "34.68506000",
      "longitude": "135.80485000"
   },
   {
      "name": "Sakurai",
      "countryCode": "JP",
      "stateCode": "29",
      "latitude": "34.50000000",
      "longitude": "135.85000000"
   },
   {
      "name": "Sakurai-shi",
      "countryCode": "JP",
      "stateCode": "29",
      "latitude": "34.51816000",
      "longitude": "135.84320000"
   },
   {
      "name": "Tawaramoto",
      "countryCode": "JP",
      "stateCode": "29",
      "latitude": "34.55420000",
      "longitude": "135.79297000"
   },
   {
      "name": "Tenri",
      "countryCode": "JP",
      "stateCode": "29",
      "latitude": "34.58333000",
      "longitude": "135.83333000"
   },
   {
      "name": "Tenri-shi",
      "countryCode": "JP",
      "stateCode": "29",
      "latitude": "34.59619000",
      "longitude": "135.83736000"
   },
   {
      "name": "Uda Shi",
      "countryCode": "JP",
      "stateCode": "29",
      "latitude": "34.52035000",
      "longitude": "135.99787000"
   },
   {
      "name": "Yamatokōriyama-shi",
      "countryCode": "JP",
      "stateCode": "29",
      "latitude": "34.64917000",
      "longitude": "135.78278000"
   },
   {
      "name": "Yamatotakada-shi",
      "countryCode": "JP",
      "stateCode": "29",
      "latitude": "34.51490000",
      "longitude": "135.73660000"
   },
   {
      "name": "Yoshino-chō",
      "countryCode": "JP",
      "stateCode": "29",
      "latitude": "34.39611000",
      "longitude": "135.85768000"
   }
]