[
   {
      "name": "Alajuela",
      "countryCode": "CR",
      "stateCode": "A",
      "latitude": "10.01625000",
      "longitude": "-84.21163000"
   },
   {
      "name": "Atenas",
      "countryCode": "CR",
      "stateCode": "A",
      "latitude": "9.98333000",
      "longitude": "-84.38333000"
   },
   {
      "name": "Bijagua",
      "countryCode": "CR",
      "stateCode": "A",
      "latitude": "10.73279000",
      "longitude": "-85.05676000"
   },
   {
      "name": "Carrillos",
      "countryCode": "CR",
      "stateCode": "A",
      "latitude": "10.02918000",
      "longitude": "-84.27403000"
   },
   {
      "name": "Desamparados",
      "countryCode": "CR",
      "stateCode": "A",
      "latitude": "9.94727000",
      "longitude": "-84.50626000"
   },
   {
      "name": "Esquipulas",
      "countryCode": "CR",
      "stateCode": "A",
      "latitude": "10.05676000",
      "longitude": "-84.42337000"
   },
   {
      "name": "Grecia",
      "countryCode": "CR",
      "stateCode": "A",
      "latitude": "10.06892000",
      "longitude": "-84.31458000"
   },
   {
      "name": "Guatuso",
      "countryCode": "CR",
      "stateCode": "A",
      "latitude": "10.66667000",
      "longitude": "-84.83333000"
   },
   {
      "name": "La Fortuna",
      "countryCode": "CR",
      "stateCode": "A",
      "latitude": "10.47089000",
      "longitude": "-84.64535000"
   },
   {
      "name": "Los Chiles",
      "countryCode": "CR",
      "stateCode": "A",
      "latitude": "10.86667000",
      "longitude": "-84.66667000"
   },
   {
      "name": "Naranjo",
      "countryCode": "CR",
      "stateCode": "A",
      "latitude": "10.11667000",
      "longitude": "-84.40000000"
   },
   {
      "name": "Orotina",
      "countryCode": "CR",
      "stateCode": "A",
      "latitude": "9.90000000",
      "longitude": "-84.56667000"
   },
   {
      "name": "Palmares",
      "countryCode": "CR",
      "stateCode": "A",
      "latitude": "10.03333000",
      "longitude": "-84.43333000"
   },
   {
      "name": "Pital",
      "countryCode": "CR",
      "stateCode": "A",
      "latitude": "10.45056000",
      "longitude": "-84.27406000"
   },
   {
      "name": "Pocosol",
      "countryCode": "CR",
      "stateCode": "A",
      "latitude": "10.36667000",
      "longitude": "-84.61667000"
   },
   {
      "name": "Poás",
      "countryCode": "CR",
      "stateCode": "A",
      "latitude": "10.08333000",
      "longitude": "-84.23333000"
   },
   {
      "name": "Quesada",
      "countryCode": "CR",
      "stateCode": "A",
      "latitude": "10.32381000",
      "longitude": "-84.42714000"
   },
   {
      "name": "Río Segundo",
      "countryCode": "CR",
      "stateCode": "A",
      "latitude": "10.24138000",
      "longitude": "-84.27933000"
   },
   {
      "name": "Sabanilla",
      "countryCode": "CR",
      "stateCode": "A",
      "latitude": "10.07404000",
      "longitude": "-84.21551000"
   },
   {
      "name": "San Carlos",
      "countryCode": "CR",
      "stateCode": "A",
      "latitude": "10.58333000",
      "longitude": "-84.41667000"
   },
   {
      "name": "San José",
      "countryCode": "CR",
      "stateCode": "A",
      "latitude": "10.95173000",
      "longitude": "-85.13610000"
   },
   {
      "name": "San Juan",
      "countryCode": "CR",
      "stateCode": "A",
      "latitude": "10.10248000",
      "longitude": "-84.31694000"
   },
   {
      "name": "San Mateo",
      "countryCode": "CR",
      "stateCode": "A",
      "latitude": "9.95000000",
      "longitude": "-84.51667000"
   },
   {
      "name": "San Rafael",
      "countryCode": "CR",
      "stateCode": "A",
      "latitude": "10.06403000",
      "longitude": "-84.47281000"
   },
   {
      "name": "San Ramón",
      "countryCode": "CR",
      "stateCode": "A",
      "latitude": "10.08718000",
      "longitude": "-84.47044000"
   },
   {
      "name": "Santiago",
      "countryCode": "CR",
      "stateCode": "A",
      "latitude": "10.02275000",
      "longitude": "-84.44420000"
   },
   {
      "name": "Upala",
      "countryCode": "CR",
      "stateCode": "A",
      "latitude": "10.85000000",
      "longitude": "-85.16667000"
   },
   {
      "name": "Valverde Vega",
      "countryCode": "CR",
      "stateCode": "A",
      "latitude": "10.18721000",
      "longitude": "-84.30290000"
   },
   {
      "name": "Zarcero",
      "countryCode": "CR",
      "stateCode": "A",
      "latitude": "10.20000000",
      "longitude": "-84.40000000"
   }
]