[
   {
      "name": "Vinnytska oblast",
      "isoCode": "05",
      "countryCode": "UA",
      "latitude": "49.23308300",
      "longitude": "28.46821690"
   },
   {
      "name": "Volynska oblast",
      "isoCode": "07",
      "countryCode": "UA",
      "latitude": "50.74723300",
      "longitude": "25.32538300"
   },
   {
      "name": "Luhanska oblast",
      "isoCode": "09",
      "countryCode": "UA",
      "latitude": "48.57404100",
      "longitude": "39.30781500"
   },
   {
      "name": "Dnipropetrovska oblast",
      "isoCode": "12",
      "countryCode": "UA",
      "latitude": "48.46471700",
      "longitude": "35.04618300"
   },
   {
      "name": "Donetska oblast",
      "isoCode": "14",
      "countryCode": "UA",
      "latitude": "48.01588300",
      "longitude": "37.80285000"
   },
   {
      "name": "Zhytomyrska oblast",
      "isoCode": "18",
      "countryCode": "UA",
      "latitude": "50.25465000",
      "longitude": "28.65866690"
   },
   {
      "name": "Zakarpatska Oblast",
      "isoCode": "21",
      "countryCode": "UA",
      "latitude": "48.62080000",
      "longitude": "22.28788300"
   },
   {
      "name": "Zaporizka oblast",
      "isoCode": "23",
      "countryCode": "UA",
      "latitude": "47.83880000",
      "longitude": "35.13956700"
   },
   {
      "name": "Ivano-Frankivska oblast",
      "isoCode": "26",
      "countryCode": "UA",
      "latitude": "48.92263300",
      "longitude": "24.71111700"
   },
   {
      "name": "Kyiv",
      "isoCode": "30",
      "countryCode": "UA",
      "latitude": "50.45010000",
      "longitude": "30.52340000"
   },
   {
      "name": "Kyivska oblast",
      "isoCode": "32",
      "countryCode": "UA",
      "latitude": "50.05295060",
      "longitude": "30.76671340"
   },
   {
      "name": "Kirovohradska oblast",
      "isoCode": "35",
      "countryCode": "UA",
      "latitude": "48.50793300",
      "longitude": "32.26231700"
   },
   {
      "name": "Autonomous Republic of Crimea",
      "isoCode": "43",
      "countryCode": "UA",
      "latitude": "44.95211700",
      "longitude": "34.10241700"
   },
   {
      "name": "Lvivska oblast",
      "isoCode": "46",
      "countryCode": "UA",
      "latitude": "49.83968300",
      "longitude": "24.02971700"
   },
   {
      "name": "Mykolaivska oblast",
      "isoCode": "48",
      "countryCode": "UA",
      "latitude": "46.97503300",
      "longitude": "31.99458290"
   },
   {
      "name": "Odeska oblast",
      "isoCode": "51",
      "countryCode": "UA",
      "latitude": "46.48458300",
      "longitude": "30.73260000"
   },
   {
      "name": "Poltavska oblast",
      "isoCode": "53",
      "countryCode": "UA",
      "latitude": "49.64291960",
      "longitude": "32.66753390"
   },
   {
      "name": "Rivnenska oblast",
      "isoCode": "56",
      "countryCode": "UA",
      "latitude": "50.61990000",
      "longitude": "26.25161700"
   },
   {
      "name": "Sumska oblast",
      "isoCode": "59",
      "countryCode": "UA",
      "latitude": "50.90770000",
      "longitude": "34.79810000"
   },
   {
      "name": "Ternopilska oblast",
      "isoCode": "61",
      "countryCode": "UA",
      "latitude": "49.55351700",
      "longitude": "25.59476700"
   },
   {
      "name": "Kharkivska oblast",
      "isoCode": "63",
      "countryCode": "UA",
      "latitude": "49.99350000",
      "longitude": "36.23038300"
   },
   {
      "name": "Khersonska oblast",
      "isoCode": "65",
      "countryCode": "UA",
      "latitude": "46.63541700",
      "longitude": "32.61686700"
   },
   {
      "name": "Khmelnytska oblast",
      "isoCode": "68",
      "countryCode": "UA",
      "latitude": "49.42298300",
      "longitude": "26.98713310"
   },
   {
      "name": "Cherkaska oblast",
      "isoCode": "71",
      "countryCode": "UA",
      "latitude": "49.44443300",
      "longitude": "32.05976700"
   },
   {
      "name": "Chernihivska oblast",
      "isoCode": "74",
      "countryCode": "UA",
      "latitude": "51.49820000",
      "longitude": "31.28934990"
   },
   {
      "name": "Chernivetska oblast",
      "isoCode": "77",
      "countryCode": "UA",
      "latitude": "48.29168300",
      "longitude": "25.93521700"
   }
]