[
   {
      "name": "Babaeski",
      "countryCode": "TR",
      "stateCode": "39",
      "latitude": "41.43250000",
      "longitude": "27.09306000"
   },
   {
      "name": "Demirköy İlçesi",
      "countryCode": "TR",
      "stateCode": "39",
      "latitude": "41.83567000",
      "longitude": "27.77137000"
   },
   {
      "name": "Kofçaz",
      "countryCode": "TR",
      "stateCode": "39",
      "latitude": "41.94481000",
      "longitude": "27.15829000"
   },
   {
      "name": "Kırklareli",
      "countryCode": "TR",
      "stateCode": "39",
      "latitude": "41.73508000",
      "longitude": "27.22521000"
   },
   {
      "name": "Lüleburgaz İlçesi",
      "countryCode": "TR",
      "stateCode": "39",
      "latitude": "41.41495000",
      "longitude": "27.37325000"
   },
   {
      "name": "Pehlivanköy",
      "countryCode": "TR",
      "stateCode": "39",
      "latitude": "41.34812000",
      "longitude": "26.92522000"
   },
   {
      "name": "Pınarhisar",
      "countryCode": "TR",
      "stateCode": "39",
      "latitude": "41.62417000",
      "longitude": "27.52000000"
   },
   {
      "name": "Vize",
      "countryCode": "TR",
      "stateCode": "39",
      "latitude": "41.57250000",
      "longitude": "27.76583000"
   },
   {
      "name": "Üsküp",
      "countryCode": "TR",
      "stateCode": "39",
      "latitude": "41.73583000",
      "longitude": "27.40528000"
   }
]