[
   {
      "name": "Artigas Department",
      "isoCode": "AR",
      "countryCode": "UY",
      "latitude": "-30.61751120",
      "longitude": "-56.95945590"
   },
   {
      "name": "Canelones Department",
      "isoCode": "CA",
      "countryCode": "UY",
      "latitude": "-34.54087170",
      "longitude": "-55.93076000"
   },
   {
      "name": "Cerro Largo Department",
      "isoCode": "CL",
      "countryCode": "UY",
      "latitude": "-32.44110320",
      "longitude": "-54.35217530"
   },
   {
      "name": "Colonia Department",
      "isoCode": "CO",
      "countryCode": "UY",
      "latitude": "-34.12946780",
      "longitude": "-57.66051840"
   },
   {
      "name": "Durazno Department",
      "isoCode": "DU",
      "countryCode": "UY",
      "latitude": "-33.02324540",
      "longitude": "-56.02846440"
   },
   {
      "name": "Florida Department",
      "isoCode": "FD",
      "countryCode": "UY",
      "latitude": "28.03594950",
      "longitude": "-82.45792890"
   },
   {
      "name": "Flores Department",
      "isoCode": "FS",
      "countryCode": "UY",
      "latitude": "-33.57337530",
      "longitude": "-56.89450280"
   },
   {
      "name": "Lavalleja Department",
      "isoCode": "LA",
      "countryCode": "UY",
      "latitude": "-33.92261750",
      "longitude": "-54.97657940"
   },
   {
      "name": "Maldonado Department",
      "isoCode": "MA",
      "countryCode": "UY",
      "latitude": "-34.55979320",
      "longitude": "-54.86285520"
   },
   {
      "name": "Montevideo Department",
      "isoCode": "MO",
      "countryCode": "UY",
      "latitude": "-34.81815870",
      "longitude": "-56.21382560"
   },
   {
      "name": "Paysandú Department",
      "isoCode": "PA",
      "countryCode": "UY",
      "latitude": "-32.06673660",
      "longitude": "-57.33647890"
   },
   {
      "name": "Río Negro Department",
      "isoCode": "RN",
      "countryCode": "UY",
      "latitude": "-32.76763560",
      "longitude": "-57.42952070"
   },
   {
      "name": "Rocha Department",
      "isoCode": "RO",
      "countryCode": "UY",
      "latitude": "-33.96900810",
      "longitude": "-54.02148500"
   },
   {
      "name": "Rivera Department",
      "isoCode": "RV",
      "countryCode": "UY",
      "latitude": "-31.48174210",
      "longitude": "-55.24357590"
   },
   {
      "name": "Salto Department",
      "isoCode": "SA",
      "countryCode": "UY",
      "latitude": "-31.38802800",
      "longitude": "-57.96124550"
   },
   {
      "name": "San José Department",
      "isoCode": "SJ",
      "countryCode": "UY",
      "latitude": "37.34929680",
      "longitude": "-121.90560490"
   },
   {
      "name": "Soriano Department",
      "isoCode": "SO",
      "countryCode": "UY",
      "latitude": "-33.51027920",
      "longitude": "-57.74981030"
   },
   {
      "name": "Tacuarembó Department",
      "isoCode": "TA",
      "countryCode": "UY",
      "latitude": "-31.72068370",
      "longitude": "-55.98598870"
   },
   {
      "name": "Treinta y Tres Department",
      "isoCode": "TT",
      "countryCode": "UY",
      "latitude": "-33.06850860",
      "longitude": "-54.28586270"
   }
]