[
   {
      "name": "Baykan",
      "countryCode": "TR",
      "stateCode": "56",
      "latitude": "38.15754000",
      "longitude": "41.77330000"
   },
   {
      "name": "Civankan",
      "countryCode": "TR",
      "stateCode": "56",
      "latitude": "37.90339000",
      "longitude": "41.87752000"
   },
   {
      "name": "Doğanca",
      "countryCode": "TR",
      "stateCode": "56",
      "latitude": "37.79955000",
      "longitude": "42.33099000"
   },
   {
      "name": "Doğanköy",
      "countryCode": "TR",
      "stateCode": "56",
      "latitude": "37.76334000",
      "longitude": "42.78929000"
   },
   {
      "name": "Eruh",
      "countryCode": "TR",
      "stateCode": "56",
      "latitude": "37.74183000",
      "longitude": "42.17422000"
   },
   {
      "name": "Gökbudak",
      "countryCode": "TR",
      "stateCode": "56",
      "latitude": "37.90367000",
      "longitude": "42.64866000"
   },
   {
      "name": "Gökçekoru",
      "countryCode": "TR",
      "stateCode": "56",
      "latitude": "37.95621000",
      "longitude": "42.44971000"
   },
   {
      "name": "Gölgelikonak",
      "countryCode": "TR",
      "stateCode": "56",
      "latitude": "37.76923000",
      "longitude": "42.12744000"
   },
   {
      "name": "Gözpınar",
      "countryCode": "TR",
      "stateCode": "56",
      "latitude": "37.97717000",
      "longitude": "41.45761000"
   },
   {
      "name": "Güleçler",
      "countryCode": "TR",
      "stateCode": "56",
      "latitude": "37.95333000",
      "longitude": "42.53861000"
   },
   {
      "name": "Kayabağlar",
      "countryCode": "TR",
      "stateCode": "56",
      "latitude": "37.98599000",
      "longitude": "41.66756000"
   },
   {
      "name": "Kurtalan",
      "countryCode": "TR",
      "stateCode": "56",
      "latitude": "37.92533000",
      "longitude": "41.68493000"
   },
   {
      "name": "Lodi",
      "countryCode": "TR",
      "stateCode": "56",
      "latitude": "37.71261000",
      "longitude": "41.91540000"
   },
   {
      "name": "Okçular",
      "countryCode": "TR",
      "stateCode": "56",
      "latitude": "37.74152000",
      "longitude": "42.44075000"
   },
   {
      "name": "Palamutlu",
      "countryCode": "TR",
      "stateCode": "56",
      "latitude": "37.89583000",
      "longitude": "42.20250000"
   },
   {
      "name": "Pervari",
      "countryCode": "TR",
      "stateCode": "56",
      "latitude": "37.93573000",
      "longitude": "42.54927000"
   },
   {
      "name": "Serhatta",
      "countryCode": "TR",
      "stateCode": "56",
      "latitude": "37.66278000",
      "longitude": "42.14064000"
   },
   {
      "name": "Siirt",
      "countryCode": "TR",
      "stateCode": "56",
      "latitude": "37.92930000",
      "longitude": "41.94134000"
   },
   {
      "name": "Taliban",
      "countryCode": "TR",
      "stateCode": "56",
      "latitude": "37.98100000",
      "longitude": "41.41328000"
   },
   {
      "name": "Taşlı",
      "countryCode": "TR",
      "stateCode": "56",
      "latitude": "37.98699000",
      "longitude": "42.13510000"
   },
   {
      "name": "Tillo",
      "countryCode": "TR",
      "stateCode": "56",
      "latitude": "37.94911000",
      "longitude": "42.01210000"
   },
   {
      "name": "Şirvan",
      "countryCode": "TR",
      "stateCode": "56",
      "latitude": "38.06251000",
      "longitude": "42.02517000"
   }
]