[
   {
      "name": "Ar Ramthā",
      "countryCode": "JO",
      "stateCode": "IR",
      "latitude": "32.55873000",
      "longitude": "36.00816000"
   },
   {
      "name": "Ash Shajarah",
      "countryCode": "JO",
      "stateCode": "IR",
      "latitude": "32.64391000",
      "longitude": "35.94175000"
   },
   {
      "name": "Aydūn",
      "countryCode": "JO",
      "stateCode": "IR",
      "latitude": "32.50528000",
      "longitude": "35.85809000"
   },
   {
      "name": "Aţ Ţayyibah",
      "countryCode": "JO",
      "stateCode": "IR",
      "latitude": "32.54304000",
      "longitude": "35.71756000"
   },
   {
      "name": "Aţ Ţurrah",
      "countryCode": "JO",
      "stateCode": "IR",
      "latitude": "32.63979000",
      "longitude": "35.98943000"
   },
   {
      "name": "Bayt Yāfā",
      "countryCode": "JO",
      "stateCode": "IR",
      "latitude": "32.52253000",
      "longitude": "35.78618000"
   },
   {
      "name": "Bayt Īdis",
      "countryCode": "JO",
      "stateCode": "IR",
      "latitude": "32.43775000",
      "longitude": "35.69765000"
   },
   {
      "name": "Dayr Yūsuf",
      "countryCode": "JO",
      "stateCode": "IR",
      "latitude": "32.48701000",
      "longitude": "35.79635000"
   },
   {
      "name": "Irbid",
      "countryCode": "JO",
      "stateCode": "IR",
      "latitude": "32.55556000",
      "longitude": "35.85000000"
   },
   {
      "name": "Judita",
      "countryCode": "JO",
      "stateCode": "IR",
      "latitude": "32.40792000",
      "longitude": "35.70802000"
   },
   {
      "name": "Kafr Abīl",
      "countryCode": "JO",
      "stateCode": "IR",
      "latitude": "32.41752000",
      "longitude": "35.66305000"
   },
   {
      "name": "Kafr Asad",
      "countryCode": "JO",
      "stateCode": "IR",
      "latitude": "32.59800000",
      "longitude": "35.71266000"
   },
   {
      "name": "Kafr Sawm",
      "countryCode": "JO",
      "stateCode": "IR",
      "latitude": "32.68527000",
      "longitude": "35.80102000"
   },
   {
      "name": "Kharjā",
      "countryCode": "JO",
      "stateCode": "IR",
      "latitude": "32.65988000",
      "longitude": "35.88782000"
   },
   {
      "name": "Kitim",
      "countryCode": "JO",
      "stateCode": "IR",
      "latitude": "32.43834000",
      "longitude": "35.89677000"
   },
   {
      "name": "Kurayyimah",
      "countryCode": "JO",
      "stateCode": "IR",
      "latitude": "32.27639000",
      "longitude": "35.59938000"
   },
   {
      "name": "Malkā",
      "countryCode": "JO",
      "stateCode": "IR",
      "latitude": "32.67645000",
      "longitude": "35.74851000"
   },
   {
      "name": "Qumaym",
      "countryCode": "JO",
      "stateCode": "IR",
      "latitude": "32.57174000",
      "longitude": "35.73452000"
   },
   {
      "name": "Saḩam al Kaffārāt",
      "countryCode": "JO",
      "stateCode": "IR",
      "latitude": "32.69848000",
      "longitude": "35.77438000"
   },
   {
      "name": "Sāl",
      "countryCode": "JO",
      "stateCode": "IR",
      "latitude": "32.56897000",
      "longitude": "35.91185000"
   },
   {
      "name": "Tibnah",
      "countryCode": "JO",
      "stateCode": "IR",
      "latitude": "32.47521000",
      "longitude": "35.73056000"
   },
   {
      "name": "Umm Qays",
      "countryCode": "JO",
      "stateCode": "IR",
      "latitude": "32.65348000",
      "longitude": "35.68457000"
   },
   {
      "name": "Waqqāş",
      "countryCode": "JO",
      "stateCode": "IR",
      "latitude": "32.54214000",
      "longitude": "35.60508000"
   },
   {
      "name": "Zaḩar",
      "countryCode": "JO",
      "stateCode": "IR",
      "latitude": "32.56670000",
      "longitude": "35.77811000"
   },
   {
      "name": "Şammā",
      "countryCode": "JO",
      "stateCode": "IR",
      "latitude": "32.57102000",
      "longitude": "35.68984000"
   },
   {
      "name": "Ḩakamā",
      "countryCode": "JO",
      "stateCode": "IR",
      "latitude": "32.59354000",
      "longitude": "35.88320000"
   },
   {
      "name": "Ḩātim",
      "countryCode": "JO",
      "stateCode": "IR",
      "latitude": "32.64492000",
      "longitude": "35.77771000"
   }
]