[
   {
      "name": "Arco da Calheta",
      "countryCode": "PT",
      "stateCode": "30",
      "latitude": "32.71502000",
      "longitude": "-17.14974000"
   },
   {
      "name": "Boaventura",
      "countryCode": "PT",
      "stateCode": "30",
      "latitude": "32.81846000",
      "longitude": "-16.97268000"
   },
   {
      "name": "Calheta",
      "countryCode": "PT",
      "stateCode": "30",
      "latitude": "32.71667000",
      "longitude": "-17.18333000"
   },
   {
      "name": "Camacha",
      "countryCode": "PT",
      "stateCode": "30",
      "latitude": "32.67919000",
      "longitude": "-16.84462000"
   },
   {
      "name": "Campanário",
      "countryCode": "PT",
      "stateCode": "30",
      "latitude": "32.66578000",
      "longitude": "-17.03576000"
   },
   {
      "name": "Canhas",
      "countryCode": "PT",
      "stateCode": "30",
      "latitude": "32.69465000",
      "longitude": "-17.09867000"
   },
   {
      "name": "Caniçal",
      "countryCode": "PT",
      "stateCode": "30",
      "latitude": "32.73834000",
      "longitude": "-16.73836000"
   },
   {
      "name": "Caniço",
      "countryCode": "PT",
      "stateCode": "30",
      "latitude": "32.65078000",
      "longitude": "-16.83749000"
   },
   {
      "name": "Curral das Freiras",
      "countryCode": "PT",
      "stateCode": "30",
      "latitude": "32.72029000",
      "longitude": "-16.96993000"
   },
   {
      "name": "Câmara de Lobos",
      "countryCode": "PT",
      "stateCode": "30",
      "latitude": "32.65043000",
      "longitude": "-16.97718000"
   },
   {
      "name": "Estreito da Calheta",
      "countryCode": "PT",
      "stateCode": "30",
      "latitude": "32.73704000",
      "longitude": "-17.18674000"
   },
   {
      "name": "Faial",
      "countryCode": "PT",
      "stateCode": "30",
      "latitude": "32.78333000",
      "longitude": "-16.85000000"
   },
   {
      "name": "Fajã da Ovelha",
      "countryCode": "PT",
      "stateCode": "30",
      "latitude": "32.77457000",
      "longitude": "-17.23412000"
   },
   {
      "name": "Funchal",
      "countryCode": "PT",
      "stateCode": "30",
      "latitude": "32.66568000",
      "longitude": "-16.92547000"
   },
   {
      "name": "Machico",
      "countryCode": "PT",
      "stateCode": "30",
      "latitude": "32.71620000",
      "longitude": "-16.76758000"
   },
   {
      "name": "Nossa Senhora do Monte",
      "countryCode": "PT",
      "stateCode": "30",
      "latitude": "32.66667000",
      "longitude": "-16.90000000"
   },
   {
      "name": "Ponta do Sol",
      "countryCode": "PT",
      "stateCode": "30",
      "latitude": "32.67980000",
      "longitude": "-17.10000000"
   },
   {
      "name": "Porto Moniz",
      "countryCode": "PT",
      "stateCode": "30",
      "latitude": "32.86681000",
      "longitude": "-17.16667000"
   },
   {
      "name": "Porto Santo",
      "countryCode": "PT",
      "stateCode": "30",
      "latitude": "33.07145000",
      "longitude": "-16.34304000"
   },
   {
      "name": "Porto da Cruz",
      "countryCode": "PT",
      "stateCode": "30",
      "latitude": "32.76667000",
      "longitude": "-16.83333000"
   },
   {
      "name": "Ribeira Brava",
      "countryCode": "PT",
      "stateCode": "30",
      "latitude": "32.67483000",
      "longitude": "-17.06288000"
   },
   {
      "name": "Santa Cruz",
      "countryCode": "PT",
      "stateCode": "30",
      "latitude": "32.68806000",
      "longitude": "-16.79388000"
   },
   {
      "name": "Santana",
      "countryCode": "PT",
      "stateCode": "30",
      "latitude": "32.80000000",
      "longitude": "-16.88333000"
   },
   {
      "name": "São Jorge",
      "countryCode": "PT",
      "stateCode": "30",
      "latitude": "32.81667000",
      "longitude": "-16.90000000"
   },
   {
      "name": "São Martinho",
      "countryCode": "PT",
      "stateCode": "30",
      "latitude": "32.64480000",
      "longitude": "-16.93843000"
   },
   {
      "name": "São Roque",
      "countryCode": "PT",
      "stateCode": "30",
      "latitude": "32.66667000",
      "longitude": "-16.91667000"
   },
   {
      "name": "São Vicente",
      "countryCode": "PT",
      "stateCode": "30",
      "latitude": "32.79673000",
      "longitude": "-17.04323000"
   },
   {
      "name": "Água de Pena",
      "countryCode": "PT",
      "stateCode": "30",
      "latitude": "32.70143000",
      "longitude": "-16.77874000"
   }
]