[
   {
      "name": "Bahía Azul",
      "countryCode": "PA",
      "stateCode": "NB",
      "latitude": "9.14176000",
      "longitude": "-81.89425000"
   },
   {
      "name": "Besiko",
      "countryCode": "PA",
      "stateCode": "NB",
      "latitude": "8.54863000",
      "longitude": "-82.08980000"
   },
   {
      "name": "Bisira",
      "countryCode": "PA",
      "stateCode": "NB",
      "latitude": "8.89553000",
      "longitude": "-81.85352000"
   },
   {
      "name": "Boca de Balsa",
      "countryCode": "PA",
      "stateCode": "NB",
      "latitude": "8.52995000",
      "longitude": "-82.03132000"
   },
   {
      "name": "Buenos Aires",
      "countryCode": "PA",
      "stateCode": "NB",
      "latitude": "8.41384000",
      "longitude": "-81.48440000"
   },
   {
      "name": "Camarón Arriba",
      "countryCode": "PA",
      "stateCode": "NB",
      "latitude": "8.38324000",
      "longitude": "-81.99345000"
   },
   {
      "name": "Cerro Banco",
      "countryCode": "PA",
      "stateCode": "NB",
      "latitude": "8.45797000",
      "longitude": "-82.03081000"
   },
   {
      "name": "Cerro Caña",
      "countryCode": "PA",
      "stateCode": "NB",
      "latitude": "8.35174000",
      "longitude": "-81.61050000"
   },
   {
      "name": "Cerro Plata",
      "countryCode": "PA",
      "stateCode": "NB",
      "latitude": "8.47733000",
      "longitude": "-81.54585000"
   },
   {
      "name": "Chichica",
      "countryCode": "PA",
      "stateCode": "NB",
      "latitude": "8.35885000",
      "longitude": "-81.66582000"
   },
   {
      "name": "Guayabito",
      "countryCode": "PA",
      "stateCode": "NB",
      "latitude": "8.53949000",
      "longitude": "-81.48225000"
   },
   {
      "name": "Hato Chami",
      "countryCode": "PA",
      "stateCode": "NB",
      "latitude": "8.44281000",
      "longitude": "-81.77196000"
   },
   {
      "name": "Hato Corotú",
      "countryCode": "PA",
      "stateCode": "NB",
      "latitude": "8.33516000",
      "longitude": "-81.97030000"
   },
   {
      "name": "Kankintú",
      "countryCode": "PA",
      "stateCode": "NB",
      "latitude": "8.89503000",
      "longitude": "-81.85750000"
   },
   {
      "name": "Kusapín",
      "countryCode": "PA",
      "stateCode": "NB",
      "latitude": "9.17119000",
      "longitude": "-81.89621000"
   },
   {
      "name": "Lajero Arriba",
      "countryCode": "PA",
      "stateCode": "NB",
      "latitude": "8.29060000",
      "longitude": "-81.77047000"
   },
   {
      "name": "Llano Ñopo",
      "countryCode": "PA",
      "stateCode": "NB",
      "latitude": "8.41996000",
      "longitude": "-81.61865000"
   },
   {
      "name": "Loma Yuca",
      "countryCode": "PA",
      "stateCode": "NB",
      "latitude": "8.71817000",
      "longitude": "-81.40492000"
   },
   {
      "name": "Mirono",
      "countryCode": "PA",
      "stateCode": "NB",
      "latitude": "8.40469000",
      "longitude": "-81.83064000"
   },
   {
      "name": "Müna",
      "countryCode": "PA",
      "stateCode": "NB",
      "latitude": "8.35035000",
      "longitude": "-81.67219000"
   },
   {
      "name": "Nole Düima",
      "countryCode": "PA",
      "stateCode": "NB",
      "latitude": "8.32682000",
      "longitude": "-81.81531000"
   },
   {
      "name": "Nurun",
      "countryCode": "PA",
      "stateCode": "NB",
      "latitude": "8.47815000",
      "longitude": "-81.47015000"
   },
   {
      "name": "Oma",
      "countryCode": "PA",
      "stateCode": "NB",
      "latitude": "8.35019000",
      "longitude": "-81.80177000"
   },
   {
      "name": "Paredón Arriba",
      "countryCode": "PA",
      "stateCode": "NB",
      "latitude": "8.45977000",
      "longitude": "-81.19592000"
   },
   {
      "name": "Plan de Chorcha",
      "countryCode": "PA",
      "stateCode": "NB",
      "latitude": "8.46168000",
      "longitude": "-82.15924000"
   },
   {
      "name": "Pueblo Nuevo",
      "countryCode": "PA",
      "stateCode": "NB",
      "latitude": "8.88070000",
      "longitude": "-82.22411000"
   },
   {
      "name": "Quebrada Canoa",
      "countryCode": "PA",
      "stateCode": "NB",
      "latitude": "8.43333000",
      "longitude": "-81.78333000"
   },
   {
      "name": "Quebrada Tula",
      "countryCode": "PA",
      "stateCode": "NB",
      "latitude": "8.84037000",
      "longitude": "-81.99645000"
   },
   {
      "name": "Sitio Prado",
      "countryCode": "PA",
      "stateCode": "NB",
      "latitude": "8.37233000",
      "longitude": "-81.58141000"
   },
   {
      "name": "Tobobe",
      "countryCode": "PA",
      "stateCode": "NB",
      "latitude": "9.12111000",
      "longitude": "-81.82471000"
   }
]