[
   {
      "name": "Huyện An Lão",
      "countryCode": "VN",
      "stateCode": "31",
      "latitude": "14.55676000",
      "longitude": "108.80100000"
   },
   {
      "name": "Huyện Hoài Nhơn",
      "countryCode": "VN",
      "stateCode": "31",
      "latitude": "14.50535000",
      "longitude": "109.02315000"
   },
   {
      "name": "Huyện Phù Mỹ",
      "countryCode": "VN",
      "stateCode": "31",
      "latitude": "14.22304000",
      "longitude": "109.08611000"
   },
   {
      "name": "Huyện Tuy Phước",
      "countryCode": "VN",
      "stateCode": "31",
      "latitude": "13.84564000",
      "longitude": "109.15275000"
   },
   {
      "name": "Huyện Tây Sơn",
      "countryCode": "VN",
      "stateCode": "31",
      "latitude": "13.94306000",
      "longitude": "108.87999000"
   },
   {
      "name": "Huyện Vĩnh Thạnh",
      "countryCode": "VN",
      "stateCode": "31",
      "latitude": "14.21100000",
      "longitude": "108.74389000"
   },
   {
      "name": "Qui Nhon",
      "countryCode": "VN",
      "stateCode": "31",
      "latitude": "13.77648000",
      "longitude": "109.22367000"
   }
]