[
   {
      "name": "Forssa",
      "countryCode": "FI",
      "stateCode": "06",
      "latitude": "60.81462000",
      "longitude": "23.62146000"
   },
   {
      "name": "Hauho",
      "countryCode": "FI",
      "stateCode": "06",
      "latitude": "61.17255000",
      "longitude": "24.56303000"
   },
   {
      "name": "Hausjärvi",
      "countryCode": "FI",
      "stateCode": "06",
      "latitude": "60.78333000",
      "longitude": "24.93333000"
   },
   {
      "name": "Humppila",
      "countryCode": "FI",
      "stateCode": "06",
      "latitude": "60.93333000",
      "longitude": "23.36667000"
   },
   {
      "name": "Hämeenlinna",
      "countryCode": "FI",
      "stateCode": "06",
      "latitude": "60.99596000",
      "longitude": "24.46434000"
   },
   {
      "name": "Janakkala",
      "countryCode": "FI",
      "stateCode": "06",
      "latitude": "60.90000000",
      "longitude": "24.60000000"
   },
   {
      "name": "Jokioinen",
      "countryCode": "FI",
      "stateCode": "06",
      "latitude": "60.80162000",
      "longitude": "23.48004000"
   },
   {
      "name": "Kalvola",
      "countryCode": "FI",
      "stateCode": "06",
      "latitude": "61.10081000",
      "longitude": "24.12177000"
   },
   {
      "name": "Lammi",
      "countryCode": "FI",
      "stateCode": "06",
      "latitude": "61.08333000",
      "longitude": "25.01667000"
   },
   {
      "name": "Loppi",
      "countryCode": "FI",
      "stateCode": "06",
      "latitude": "60.71667000",
      "longitude": "24.45000000"
   },
   {
      "name": "Renko",
      "countryCode": "FI",
      "stateCode": "06",
      "latitude": "60.89563000",
      "longitude": "24.28785000"
   },
   {
      "name": "Riihimäki",
      "countryCode": "FI",
      "stateCode": "06",
      "latitude": "60.73769000",
      "longitude": "24.77726000"
   },
   {
      "name": "Tammela",
      "countryCode": "FI",
      "stateCode": "06",
      "latitude": "60.81035000",
      "longitude": "23.76823000"
   },
   {
      "name": "Tervakoski",
      "countryCode": "FI",
      "stateCode": "06",
      "latitude": "60.81412000",
      "longitude": "24.62594000"
   },
   {
      "name": "Tuulos",
      "countryCode": "FI",
      "stateCode": "06",
      "latitude": "61.15000000",
      "longitude": "24.80000000"
   },
   {
      "name": "Ypäjä",
      "countryCode": "FI",
      "stateCode": "06",
      "latitude": "60.80000000",
      "longitude": "23.28333000"
   }
]