[
   {
      "name": "Hlatikulu",
      "countryCode": "SZ",
      "stateCode": "SH",
      "latitude": "-26.97917000",
      "longitude": "31.32444000"
   },
   {
      "name": "Hluti",
      "countryCode": "SZ",
      "stateCode": "SH",
      "latitude": "-27.21667000",
      "longitude": "31.61667000"
   },
   {
      "name": "Kubuta",
      "countryCode": "SZ",
      "stateCode": "SH",
      "latitude": "-26.88333000",
      "longitude": "31.48333000"
   },
   {
      "name": "Lavumisa",
      "countryCode": "SZ",
      "stateCode": "SH",
      "latitude": "-27.31005000",
      "longitude": "31.89198000"
   },
   {
      "name": "Matsanjeni",
      "countryCode": "SZ",
      "stateCode": "SH",
      "latitude": "-27.21585000",
      "longitude": "31.72309000"
   },
   {
      "name": "Ngudzeni",
      "countryCode": "SZ",
      "stateCode": "SH",
      "latitude": "-27.03583000",
      "longitude": "31.55111000"
   },
   {
      "name": "Nhlangano",
      "countryCode": "SZ",
      "stateCode": "SH",
      "latitude": "-27.11222000",
      "longitude": "31.19833000"
   },
   {
      "name": "Nkwene",
      "countryCode": "SZ",
      "stateCode": "SH",
      "latitude": "-26.89778000",
      "longitude": "31.24972000"
   },
   {
      "name": "Sigwe Inkhundla",
      "countryCode": "SZ",
      "stateCode": "SH",
      "latitude": "-27.05821000",
      "longitude": "31.64543000"
   },
   {
      "name": "Zombodze Ikhundla",
      "countryCode": "SZ",
      "stateCode": "SH",
      "latitude": "-27.22746000",
      "longitude": "31.33799000"
   }
]