[
   {
      "name": "Atuncolla",
      "countryCode": "PE",
      "stateCode": "PUN",
      "latitude": "-15.68333000",
      "longitude": "-70.15000000"
   },
   {
      "name": "Ayaviri",
      "countryCode": "PE",
      "stateCode": "PUN",
      "latitude": "-14.88639000",
      "longitude": "-70.58889000"
   },
   {
      "name": "Azángaro",
      "countryCode": "PE",
      "stateCode": "PUN",
      "latitude": "-14.90843000",
      "longitude": "-70.19616000"
   },
   {
      "name": "Desaguadero",
      "countryCode": "PE",
      "stateCode": "PUN",
      "latitude": "-16.56556000",
      "longitude": "-69.04167000"
   },
   {
      "name": "El Collao",
      "countryCode": "PE",
      "stateCode": "PUN",
      "latitude": "-16.72641000",
      "longitude": "-69.75515000"
   },
   {
      "name": "Hacienda Huancane",
      "countryCode": "PE",
      "stateCode": "PUN",
      "latitude": "-15.82327000",
      "longitude": "-70.88540000"
   },
   {
      "name": "Ilave",
      "countryCode": "PE",
      "stateCode": "PUN",
      "latitude": "-16.08333000",
      "longitude": "-69.66667000"
   },
   {
      "name": "Juli",
      "countryCode": "PE",
      "stateCode": "PUN",
      "latitude": "-16.21667000",
      "longitude": "-69.45000000"
   },
   {
      "name": "Juliaca",
      "countryCode": "PE",
      "stateCode": "PUN",
      "latitude": "-15.50000000",
      "longitude": "-70.13333000"
   },
   {
      "name": "La Rinconada",
      "countryCode": "PE",
      "stateCode": "PUN",
      "latitude": "-14.63126000",
      "longitude": "-69.44638000"
   },
   {
      "name": "Lampa",
      "countryCode": "PE",
      "stateCode": "PUN",
      "latitude": "-15.35000000",
      "longitude": "-70.36667000"
   },
   {
      "name": "Macusani",
      "countryCode": "PE",
      "stateCode": "PUN",
      "latitude": "-14.08333000",
      "longitude": "-70.43333000"
   },
   {
      "name": "Provincia de Azángaro",
      "countryCode": "PE",
      "stateCode": "PUN",
      "latitude": "-14.83333000",
      "longitude": "-70.16667000"
   },
   {
      "name": "Provincia de Carabaya",
      "countryCode": "PE",
      "stateCode": "PUN",
      "latitude": "-13.83333000",
      "longitude": "-70.25000000"
   },
   {
      "name": "Provincia de Chucuito",
      "countryCode": "PE",
      "stateCode": "PUN",
      "latitude": "-16.60545000",
      "longitude": "-69.35761000"
   },
   {
      "name": "Provincia de Huancané",
      "countryCode": "PE",
      "stateCode": "PUN",
      "latitude": "-15.16667000",
      "longitude": "-69.58333000"
   },
   {
      "name": "Provincia de Lampa",
      "countryCode": "PE",
      "stateCode": "PUN",
      "latitude": "-15.41667000",
      "longitude": "-70.58333000"
   },
   {
      "name": "Provincia de Melgar",
      "countryCode": "PE",
      "stateCode": "PUN",
      "latitude": "-14.75000000",
      "longitude": "-70.75000000"
   },
   {
      "name": "Provincia de Puno",
      "countryCode": "PE",
      "stateCode": "PUN",
      "latitude": "-16.00000000",
      "longitude": "-70.00000000"
   },
   {
      "name": "Provincia de Sandia",
      "countryCode": "PE",
      "stateCode": "PUN",
      "latitude": "-13.83333000",
      "longitude": "-69.33333000"
   },
   {
      "name": "Puno",
      "countryCode": "PE",
      "stateCode": "PUN",
      "latitude": "-15.84220000",
      "longitude": "-70.01990000"
   },
   {
      "name": "San Antonio De Putina",
      "countryCode": "PE",
      "stateCode": "PUN",
      "latitude": "-14.71175000",
      "longitude": "-69.61559000"
   },
   {
      "name": "San Roman",
      "countryCode": "PE",
      "stateCode": "PUN",
      "latitude": "-15.83333000",
      "longitude": "-70.50000000"
   },
   {
      "name": "Santa Lucía",
      "countryCode": "PE",
      "stateCode": "PUN",
      "latitude": "-15.69788000",
      "longitude": "-70.60610000"
   },
   {
      "name": "Taquile",
      "countryCode": "PE",
      "stateCode": "PUN",
      "latitude": "-15.76667000",
      "longitude": "-69.68333000"
   },
   {
      "name": "Yunguyo",
      "countryCode": "PE",
      "stateCode": "PUN",
      "latitude": "-16.25000000",
      "longitude": "-69.08333000"
   },
   {
      "name": "Ñuñoa",
      "countryCode": "PE",
      "stateCode": "PUN",
      "latitude": "-14.47788000",
      "longitude": "-70.63583000"
   }
]