[
   {
      "name": "Brest Region",
      "isoCode": "BR",
      "countryCode": "BY",
      "latitude": "52.52966410",
      "longitude": "25.46064800"
   },
   {
      "name": "Minsk",
      "isoCode": "HM",
      "countryCode": "BY",
      "latitude": "53.90060110",
      "longitude": "27.55897200"
   },
   {
      "name": "Gomel Region",
      "isoCode": "HO",
      "countryCode": "BY",
      "latitude": "52.16487540",
      "longitude": "29.13332510"
   },
   {
      "name": "Grodno Region",
      "isoCode": "HR",
      "countryCode": "BY",
      "latitude": "53.65999450",
      "longitude": "25.34485710"
   },
   {
      "name": "Mogilev Region",
      "isoCode": "MA",
      "countryCode": "BY",
      "latitude": "53.51017910",
      "longitude": "30.40064440"
   },
   {
      "name": "Minsk Region",
      "isoCode": "MI",
      "countryCode": "BY",
      "latitude": "54.10678890",
      "longitude": "27.41292450"
   },
   {
      "name": "Vitebsk Region",
      "isoCode": "VI",
      "countryCode": "BY",
      "latitude": "55.29598330",
      "longitude": "28.75836270"
   }
]