[
   {
      "name": "Amajari",
      "countryCode": "BR",
      "stateCode": "RR",
      "latitude": "3.65416667",
      "longitude": "-61.41694444"
   },
   {
      "name": "Boa Vista",
      "countryCode": "BR",
      "stateCode": "RR",
      "latitude": "2.82000000",
      "longitude": "-60.67194444"
   },
   {
      "name": "Bonfim",
      "countryCode": "BR",
      "stateCode": "RR",
      "latitude": "3.36000000",
      "longitude": "-59.83277778"
   },
   {
      "name": "Cantá",
      "countryCode": "BR",
      "stateCode": "RR",
      "latitude": "2.61000000",
      "longitude": "-60.59694444"
   },
   {
      "name": "Caracaraí",
      "countryCode": "BR",
      "stateCode": "RR",
      "latitude": "1.81583333",
      "longitude": "-61.12777778"
   },
   {
      "name": "Caroebe",
      "countryCode": "BR",
      "stateCode": "RR",
      "latitude": "0.88388889",
      "longitude": "-59.69583333"
   },
   {
      "name": "Iracema",
      "countryCode": "BR",
      "stateCode": "RR",
      "latitude": "2.18194444",
      "longitude": "-61.04083333"
   },
   {
      "name": "Mucajaí",
      "countryCode": "BR",
      "stateCode": "RR",
      "latitude": "2.43000000",
      "longitude": "-60.90000000"
   },
   {
      "name": "Normandia",
      "countryCode": "BR",
      "stateCode": "RR",
      "latitude": "3.88083333",
      "longitude": "-59.62277778"
   },
   {
      "name": "Pacaraima",
      "countryCode": "BR",
      "stateCode": "RR",
      "latitude": "4.43083333",
      "longitude": "-61.14583333"
   },
   {
      "name": "Rorainópolis",
      "countryCode": "BR",
      "stateCode": "RR",
      "latitude": "0.94583333",
      "longitude": "-60.41777778"
   },
   {
      "name": "São João da Baliza",
      "countryCode": "BR",
      "stateCode": "RR",
      "latitude": "0.95083333",
      "longitude": "-59.91083333"
   },
   {
      "name": "São Luís",
      "countryCode": "BR",
      "stateCode": "RR",
      "latitude": "1.00500000",
      "longitude": "-60.15888889"
   },
   {
      "name": "Uiramutã",
      "countryCode": "BR",
      "stateCode": "RR",
      "latitude": "4.59583333",
      "longitude": "-60.16777778"
   }
]