[
   {
      "name": "Ahfir",
      "countryCode": "MA",
      "stateCode": "02",
      "latitude": "34.95368000",
      "longitude": "-2.10027000"
   },
   {
      "name": "Al Aaroui",
      "countryCode": "MA",
      "stateCode": "02",
      "latitude": "35.01090000",
      "longitude": "-3.00938000"
   },
   {
      "name": "Aïn Beni Mathar",
      "countryCode": "MA",
      "stateCode": "02",
      "latitude": "34.00970000",
      "longitude": "-2.03238000"
   },
   {
      "name": "Berkane",
      "countryCode": "MA",
      "stateCode": "02",
      "latitude": "34.61000000",
      "longitude": "-2.57000000"
   },
   {
      "name": "Bouarfa",
      "countryCode": "MA",
      "stateCode": "02",
      "latitude": "32.53379000",
      "longitude": "-1.96209000"
   },
   {
      "name": "Debdou",
      "countryCode": "MA",
      "stateCode": "02",
      "latitude": "33.98228000",
      "longitude": "-3.04263000"
   },
   {
      "name": "Driouch Province",
      "countryCode": "MA",
      "stateCode": "02",
      "latitude": "34.97670000",
      "longitude": "-3.38842000"
   },
   {
      "name": "El Aïoun",
      "countryCode": "MA",
      "stateCode": "02",
      "latitude": "34.58319000",
      "longitude": "-2.50612000"
   },
   {
      "name": "Figuig",
      "countryCode": "MA",
      "stateCode": "02",
      "latitude": "32.83333000",
      "longitude": "-2.25000000"
   },
   {
      "name": "Guercif Province",
      "countryCode": "MA",
      "stateCode": "02",
      "latitude": "34.25041000",
      "longitude": "-3.32542000"
   },
   {
      "name": "Jerada",
      "countryCode": "MA",
      "stateCode": "02",
      "latitude": "34.23662000",
      "longitude": "-2.04284000"
   },
   {
      "name": "Madagh",
      "countryCode": "MA",
      "stateCode": "02",
      "latitude": "35.01032000",
      "longitude": "-2.33701000"
   },
   {
      "name": "Midar",
      "countryCode": "MA",
      "stateCode": "02",
      "latitude": "34.94025000",
      "longitude": "-3.53311000"
   },
   {
      "name": "Nador",
      "countryCode": "MA",
      "stateCode": "02",
      "latitude": "35.00000000",
      "longitude": "-3.00000000"
   },
   {
      "name": "Oujda-Angad",
      "countryCode": "MA",
      "stateCode": "02",
      "latitude": "34.23600000",
      "longitude": "-2.29400000"
   },
   {
      "name": "Saidia",
      "countryCode": "MA",
      "stateCode": "02",
      "latitude": "35.08195000",
      "longitude": "-2.22897000"
   },
   {
      "name": "Selouane",
      "countryCode": "MA",
      "stateCode": "02",
      "latitude": "35.07313000",
      "longitude": "-2.94230000"
   },
   {
      "name": "Taourirt",
      "countryCode": "MA",
      "stateCode": "02",
      "latitude": "34.40731000",
      "longitude": "-2.89732000"
   },
   {
      "name": "Tiztoutine",
      "countryCode": "MA",
      "stateCode": "02",
      "latitude": "34.97159000",
      "longitude": "-3.15273000"
   },
   {
      "name": "Zaïo",
      "countryCode": "MA",
      "stateCode": "02",
      "latitude": "34.94282000",
      "longitude": "-2.73290000"
   }
]