[
   {
      "name": "Aach",
      "countryCode": "DE",
      "stateCode": "RP",
      "latitude": "49.78333000",
      "longitude": "6.60000000"
   },
   {
      "name": "Adenau",
      "countryCode": "DE",
      "stateCode": "RP",
      "latitude": "50.38238000",
      "longitude": "6.93291000"
   },
   {
      "name": "Ahrbrück",
      "countryCode": "DE",
      "stateCode": "RP",
      "latitude": "50.48225000",
      "longitude": "6.98804000"
   },
   {
      "name": "Albersweiler",
      "countryCode": "DE",
      "stateCode": "RP",
      "latitude": "49.21917000",
      "longitude": "8.03000000"
   },
   {
      "name": "Albig",
      "countryCode": "DE",
      "stateCode": "RP",
      "latitude": "49.77361000",
      "longitude": "8.12139000"
   },
   {
      "name": "Albisheim",
      "countryCode": "DE",
      "stateCode": "RP",
      "latitude": "49.64941000",
      "longitude": "8.09442000"
   },
   {
      "name": "Alpenrod",
      "countryCode": "DE",
      "stateCode": "RP",
      "latitude": "50.63333000",
      "longitude": "7.86667000"
   },
   {
      "name": "Alsdorf",
      "countryCode": "DE",
      "stateCode": "RP",
      "latitude": "50.77736000",
      "longitude": "7.88562000"
   },
   {
      "name": "Alsenz",
      "countryCode": "DE",
      "stateCode": "RP",
      "latitude": "49.71667000",
      "longitude": "7.81667000"
   },
   {
      "name": "Alsheim",
      "countryCode": "DE",
      "stateCode": "RP",
      "latitude": "49.76806000",
      "longitude": "8.34028000"
   },
   {
      "name": "Altenahr",
      "countryCode": "DE",
      "stateCode": "RP",
      "latitude": "50.51694000",
      "longitude": "6.99206000"
   },
   {
      "name": "Altendiez",
      "countryCode": "DE",
      "stateCode": "RP",
      "latitude": "50.36667000",
      "longitude": "7.98333000"
   },
   {
      "name": "Altenglan",
      "countryCode": "DE",
      "stateCode": "RP",
      "latitude": "49.55000000",
      "longitude": "7.46667000"
   },
   {
      "name": "Altenkirchen",
      "countryCode": "DE",
      "stateCode": "RP",
      "latitude": "50.68594000",
      "longitude": "7.64176000"
   },
   {
      "name": "Altleiningen",
      "countryCode": "DE",
      "stateCode": "RP",
      "latitude": "49.50750000",
      "longitude": "8.07333000"
   },
   {
      "name": "Altrich",
      "countryCode": "DE",
      "stateCode": "RP",
      "latitude": "49.95701000",
      "longitude": "6.91217000"
   },
   {
      "name": "Altrip",
      "countryCode": "DE",
      "stateCode": "RP",
      "latitude": "49.43556000",
      "longitude": "8.49472000"
   },
   {
      "name": "Alzey",
      "countryCode": "DE",
      "stateCode": "RP",
      "latitude": "49.74657000",
      "longitude": "8.11513000"
   },
   {
      "name": "Andernach",
      "countryCode": "DE",
      "stateCode": "RP",
      "latitude": "50.43109000",
      "longitude": "7.40425000"
   },
   {
      "name": "Anhausen",
      "countryCode": "DE",
      "stateCode": "RP",
      "latitude": "50.50000000",
      "longitude": "7.55000000"
   },
   {
      "name": "Annweiler am Trifels",
      "countryCode": "DE",
      "stateCode": "RP",
      "latitude": "49.20613000",
      "longitude": "7.97527000"
   },
   {
      "name": "Appenheim",
      "countryCode": "DE",
      "stateCode": "RP",
      "latitude": "49.93000000",
      "longitude": "8.03333000"
   },
   {
      "name": "Argenthal",
      "countryCode": "DE",
      "stateCode": "RP",
      "latitude": "49.96667000",
      "longitude": "7.60000000"
   },
   {
      "name": "Armsheim",
      "countryCode": "DE",
      "stateCode": "RP",
      "latitude": "49.80972000",
      "longitude": "8.05667000"
   },
   {
      "name": "Arzbach",
      "countryCode": "DE",
      "stateCode": "RP",
      "latitude": "50.37902000",
      "longitude": "7.74948000"
   },
   {
      "name": "Arzfeld",
      "countryCode": "DE",
      "stateCode": "RP",
      "latitude": "50.08957000",
      "longitude": "6.27069000"
   },
   {
      "name": "Asbach",
      "countryCode": "DE",
      "stateCode": "RP",
      "latitude": "50.66667000",
      "longitude": "7.41667000"
   },
   {
      "name": "Ayl",
      "countryCode": "DE",
      "stateCode": "RP",
      "latitude": "49.63333000",
      "longitude": "6.55000000"
   },
   {
      "name": "Bacharach",
      "countryCode": "DE",
      "stateCode": "RP",
      "latitude": "50.05725000",
      "longitude": "7.76948000"
   },
   {
      "name": "Bad Bergzabern",
      "countryCode": "DE",
      "stateCode": "RP",
      "latitude": "49.10245000",
      "longitude": "8.00092000"
   },
   {
      "name": "Bad Breisig",
      "countryCode": "DE",
      "stateCode": "RP",
      "latitude": "50.50523000",
      "longitude": "7.28861000"
   },
   {
      "name": "Bad Dürkheim",
      "countryCode": "DE",
      "stateCode": "RP",
      "latitude": "49.46180000",
      "longitude": "8.17236000"
   },
   {
      "name": "Bad Ems",
      "countryCode": "DE",
      "stateCode": "RP",
      "latitude": "50.33544000",
      "longitude": "7.71369000"
   },
   {
      "name": "Bad Hönningen",
      "countryCode": "DE",
      "stateCode": "RP",
      "latitude": "50.51689000",
      "longitude": "7.31195000"
   },
   {
      "name": "Bad Kreuznach",
      "countryCode": "DE",
      "stateCode": "RP",
      "latitude": "49.84140000",
      "longitude": "7.86713000"
   },
   {
      "name": "Bad Marienberg",
      "countryCode": "DE",
      "stateCode": "RP",
      "latitude": "50.64947000",
      "longitude": "7.94958000"
   },
   {
      "name": "Bad Münster am Stein-Ebernburg",
      "countryCode": "DE",
      "stateCode": "RP",
      "latitude": "49.81159000",
      "longitude": "7.84523000"
   },
   {
      "name": "Bad Neuenahr-Ahrweiler",
      "countryCode": "DE",
      "stateCode": "RP",
      "latitude": "50.54322000",
      "longitude": "7.11130000"
   },
   {
      "name": "Badem",
      "countryCode": "DE",
      "stateCode": "RP",
      "latitude": "50.00000000",
      "longitude": "6.61667000"
   },
   {
      "name": "Bann",
      "countryCode": "DE",
      "stateCode": "RP",
      "latitude": "49.38333000",
      "longitude": "7.61667000"
   },
   {
      "name": "Bassenheim",
      "countryCode": "DE",
      "stateCode": "RP",
      "latitude": "50.35820000",
      "longitude": "7.45961000"
   },
   {
      "name": "Baumholder",
      "countryCode": "DE",
      "stateCode": "RP",
      "latitude": "49.61738000",
      "longitude": "7.33381000"
   },
   {
      "name": "Bausendorf",
      "countryCode": "DE",
      "stateCode": "RP",
      "latitude": "50.01667000",
      "longitude": "7.00000000"
   },
   {
      "name": "Bechhofen",
      "countryCode": "DE",
      "stateCode": "RP",
      "latitude": "49.35000000",
      "longitude": "7.40000000"
   },
   {
      "name": "Bechtheim",
      "countryCode": "DE",
      "stateCode": "RP",
      "latitude": "49.72778000",
      "longitude": "8.29222000"
   },
   {
      "name": "Bechtolsheim",
      "countryCode": "DE",
      "stateCode": "RP",
      "latitude": "49.80417000",
      "longitude": "8.19389000"
   },
   {
      "name": "Beindersheim",
      "countryCode": "DE",
      "stateCode": "RP",
      "latitude": "49.56056000",
      "longitude": "8.31944000"
   },
   {
      "name": "Bell",
      "countryCode": "DE",
      "stateCode": "RP",
      "latitude": "50.06139000",
      "longitude": "7.41515000"
   },
   {
      "name": "Bellheim",
      "countryCode": "DE",
      "stateCode": "RP",
      "latitude": "49.19833000",
      "longitude": "8.27944000"
   },
   {
      "name": "Beltheim",
      "countryCode": "DE",
      "stateCode": "RP",
      "latitude": "50.10606000",
      "longitude": "7.46208000"
   },
   {
      "name": "Bendorf",
      "countryCode": "DE",
      "stateCode": "RP",
      "latitude": "50.42289000",
      "longitude": "7.57924000"
   },
   {
      "name": "Berg",
      "countryCode": "DE",
      "stateCode": "RP",
      "latitude": "48.98403000",
      "longitude": "8.20232000"
   },
   {
      "name": "Bernkastel-Kues",
      "countryCode": "DE",
      "stateCode": "RP",
      "latitude": "49.91602000",
      "longitude": "7.07664000"
   },
   {
      "name": "Bettingen",
      "countryCode": "DE",
      "stateCode": "RP",
      "latitude": "49.94211000",
      "longitude": "6.40160000"
   },
   {
      "name": "Betzdorf",
      "countryCode": "DE",
      "stateCode": "RP",
      "latitude": "50.79094000",
      "longitude": "7.87189000"
   },
   {
      "name": "Billigheim-Ingenheim",
      "countryCode": "DE",
      "stateCode": "RP",
      "latitude": "49.13667000",
      "longitude": "8.09056000"
   },
   {
      "name": "Bingen am Rhein",
      "countryCode": "DE",
      "stateCode": "RP",
      "latitude": "49.96675000",
      "longitude": "7.89920000"
   },
   {
      "name": "Binsfeld",
      "countryCode": "DE",
      "stateCode": "RP",
      "latitude": "49.96667000",
      "longitude": "6.71667000"
   },
   {
      "name": "Birken-Honigsessen",
      "countryCode": "DE",
      "stateCode": "RP",
      "latitude": "50.81667000",
      "longitude": "7.73333000"
   },
   {
      "name": "Birkenfeld",
      "countryCode": "DE",
      "stateCode": "RP",
      "latitude": "49.65245000",
      "longitude": "7.16668000"
   },
   {
      "name": "Birkenheide",
      "countryCode": "DE",
      "stateCode": "RP",
      "latitude": "49.48139000",
      "longitude": "8.26194000"
   },
   {
      "name": "Birlenbach",
      "countryCode": "DE",
      "stateCode": "RP",
      "latitude": "50.35815000",
      "longitude": "8.00273000"
   },
   {
      "name": "Birresborn",
      "countryCode": "DE",
      "stateCode": "RP",
      "latitude": "50.18333000",
      "longitude": "6.63333000"
   },
   {
      "name": "Bitburg",
      "countryCode": "DE",
      "stateCode": "RP",
      "latitude": "49.96794000",
      "longitude": "6.52734000"
   },
   {
      "name": "Blankenrath",
      "countryCode": "DE",
      "stateCode": "RP",
      "latitude": "50.03898000",
      "longitude": "7.30214000"
   },
   {
      "name": "Bleialf",
      "countryCode": "DE",
      "stateCode": "RP",
      "latitude": "50.23333000",
      "longitude": "6.28333000"
   },
   {
      "name": "Bobenheim-Roxheim",
      "countryCode": "DE",
      "stateCode": "RP",
      "latitude": "49.58750000",
      "longitude": "8.35778000"
   },
   {
      "name": "Bockenau",
      "countryCode": "DE",
      "stateCode": "RP",
      "latitude": "49.83333000",
      "longitude": "7.68333000"
   },
   {
      "name": "Bockenheim",
      "countryCode": "DE",
      "stateCode": "RP",
      "latitude": "49.60669000",
      "longitude": "8.18486000"
   },
   {
      "name": "Bodenheim",
      "countryCode": "DE",
      "stateCode": "RP",
      "latitude": "49.93528000",
      "longitude": "8.32000000"
   },
   {
      "name": "Bolanden",
      "countryCode": "DE",
      "stateCode": "RP",
      "latitude": "49.63917000",
      "longitude": "8.01194000"
   },
   {
      "name": "Bollendorf",
      "countryCode": "DE",
      "stateCode": "RP",
      "latitude": "49.85268000",
      "longitude": "6.35795000"
   },
   {
      "name": "Bonefeld",
      "countryCode": "DE",
      "stateCode": "RP",
      "latitude": "50.52388000",
      "longitude": "7.48932000"
   },
   {
      "name": "Boppard",
      "countryCode": "DE",
      "stateCode": "RP",
      "latitude": "50.23085000",
      "longitude": "7.58992000"
   },
   {
      "name": "Bornheim",
      "countryCode": "DE",
      "stateCode": "RP",
      "latitude": "49.22250000",
      "longitude": "8.16333000"
   },
   {
      "name": "Bornich",
      "countryCode": "DE",
      "stateCode": "RP",
      "latitude": "50.12687000",
      "longitude": "7.76580000"
   },
   {
      "name": "Brachbach",
      "countryCode": "DE",
      "stateCode": "RP",
      "latitude": "50.81667000",
      "longitude": "7.93333000"
   },
   {
      "name": "Braubach",
      "countryCode": "DE",
      "stateCode": "RP",
      "latitude": "50.27360000",
      "longitude": "7.64508000"
   },
   {
      "name": "Brauneberg",
      "countryCode": "DE",
      "stateCode": "RP",
      "latitude": "49.90583000",
      "longitude": "6.98127000"
   },
   {
      "name": "Breitscheidt",
      "countryCode": "DE",
      "stateCode": "RP",
      "latitude": "50.75000000",
      "longitude": "7.65000000"
   },
   {
      "name": "Bretzenheim",
      "countryCode": "DE",
      "stateCode": "RP",
      "latitude": "49.87796000",
      "longitude": "7.89653000"
   },
   {
      "name": "Brey",
      "countryCode": "DE",
      "stateCode": "RP",
      "latitude": "50.27253000",
      "longitude": "7.62645000"
   },
   {
      "name": "Briedel",
      "countryCode": "DE",
      "stateCode": "RP",
      "latitude": "50.01667000",
      "longitude": "7.15000000"
   },
   {
      "name": "Brohl-Lützing",
      "countryCode": "DE",
      "stateCode": "RP",
      "latitude": "50.48296000",
      "longitude": "7.32908000"
   },
   {
      "name": "Bruchmühlbach-Miesau",
      "countryCode": "DE",
      "stateCode": "RP",
      "latitude": "49.38333000",
      "longitude": "7.43333000"
   },
   {
      "name": "Bruchweiler-Bärenbach",
      "countryCode": "DE",
      "stateCode": "RP",
      "latitude": "49.11667000",
      "longitude": "7.80000000"
   },
   {
      "name": "Bruttig-Fankel",
      "countryCode": "DE",
      "stateCode": "RP",
      "latitude": "50.13333000",
      "longitude": "7.23333000"
   },
   {
      "name": "Brücken",
      "countryCode": "DE",
      "stateCode": "RP",
      "latitude": "49.43174000",
      "longitude": "7.35998000"
   },
   {
      "name": "Budenheim",
      "countryCode": "DE",
      "stateCode": "RP",
      "latitude": "50.01667000",
      "longitude": "8.16667000"
   },
   {
      "name": "Bullay",
      "countryCode": "DE",
      "stateCode": "RP",
      "latitude": "50.05448000",
      "longitude": "7.13730000"
   },
   {
      "name": "Bundenbach",
      "countryCode": "DE",
      "stateCode": "RP",
      "latitude": "49.84280000",
      "longitude": "7.37826000"
   },
   {
      "name": "Bundenthal",
      "countryCode": "DE",
      "stateCode": "RP",
      "latitude": "49.09549000",
      "longitude": "7.80839000"
   },
   {
      "name": "Burgbrohl",
      "countryCode": "DE",
      "stateCode": "RP",
      "latitude": "50.45463000",
      "longitude": "7.27720000"
   },
   {
      "name": "Burgschwalbach",
      "countryCode": "DE",
      "stateCode": "RP",
      "latitude": "50.28333000",
      "longitude": "8.08333000"
   },
   {
      "name": "Busenberg",
      "countryCode": "DE",
      "stateCode": "RP",
      "latitude": "49.13024000",
      "longitude": "7.82930000"
   },
   {
      "name": "Böhl-Iggelheim",
      "countryCode": "DE",
      "stateCode": "RP",
      "latitude": "49.38056000",
      "longitude": "8.30389000"
   },
   {
      "name": "Büchel",
      "countryCode": "DE",
      "stateCode": "RP",
      "latitude": "50.17289000",
      "longitude": "7.08318000"
   },
   {
      "name": "Büchenbeuren",
      "countryCode": "DE",
      "stateCode": "RP",
      "latitude": "49.92097000",
      "longitude": "7.27999000"
   },
   {
      "name": "Carlsberg",
      "countryCode": "DE",
      "stateCode": "RP",
      "latitude": "49.50389000",
      "longitude": "8.04167000"
   },
   {
      "name": "Clausen",
      "countryCode": "DE",
      "stateCode": "RP",
      "latitude": "49.26075000",
      "longitude": "7.67730000"
   },
   {
      "name": "Cochem",
      "countryCode": "DE",
      "stateCode": "RP",
      "latitude": "50.14511000",
      "longitude": "7.16379000"
   },
   {
      "name": "Contwig",
      "countryCode": "DE",
      "stateCode": "RP",
      "latitude": "49.25000000",
      "longitude": "7.43333000"
   },
   {
      "name": "Daaden",
      "countryCode": "DE",
      "stateCode": "RP",
      "latitude": "50.73333000",
      "longitude": "7.96667000"
   },
   {
      "name": "Dachsenhausen",
      "countryCode": "DE",
      "stateCode": "RP",
      "latitude": "50.25415000",
      "longitude": "7.72725000"
   },
   {
      "name": "Dahn",
      "countryCode": "DE",
      "stateCode": "RP",
      "latitude": "49.15098000",
      "longitude": "7.77843000"
   },
   {
      "name": "Dalheim",
      "countryCode": "DE",
      "stateCode": "RP",
      "latitude": "49.82667000",
      "longitude": "8.29528000"
   },
   {
      "name": "Dannstadt-Schauernheim",
      "countryCode": "DE",
      "stateCode": "RP",
      "latitude": "49.44028000",
      "longitude": "8.30861000"
   },
   {
      "name": "Dattenberg",
      "countryCode": "DE",
      "stateCode": "RP",
      "latitude": "50.55362000",
      "longitude": "7.29393000"
   },
   {
      "name": "Daun",
      "countryCode": "DE",
      "stateCode": "RP",
      "latitude": "50.19716000",
      "longitude": "6.82942000"
   },
   {
      "name": "Dausenau",
      "countryCode": "DE",
      "stateCode": "RP",
      "latitude": "50.33333000",
      "longitude": "7.76667000"
   },
   {
      "name": "Deidesheim",
      "countryCode": "DE",
      "stateCode": "RP",
      "latitude": "49.40782000",
      "longitude": "8.18445000"
   },
   {
      "name": "Dellfeld",
      "countryCode": "DE",
      "stateCode": "RP",
      "latitude": "49.23397000",
      "longitude": "7.47399000"
   },
   {
      "name": "Dernau",
      "countryCode": "DE",
      "stateCode": "RP",
      "latitude": "50.53333000",
      "longitude": "7.05000000"
   },
   {
      "name": "Dernbach",
      "countryCode": "DE",
      "stateCode": "RP",
      "latitude": "50.45551000",
      "longitude": "7.79003000"
   },
   {
      "name": "Derschen",
      "countryCode": "DE",
      "stateCode": "RP",
      "latitude": "50.71667000",
      "longitude": "7.98333000"
   },
   {
      "name": "Dexheim",
      "countryCode": "DE",
      "stateCode": "RP",
      "latitude": "49.84722000",
      "longitude": "8.31667000"
   },
   {
      "name": "Dieblich",
      "countryCode": "DE",
      "stateCode": "RP",
      "latitude": "50.31396000",
      "longitude": "7.47185000"
   },
   {
      "name": "Dienheim",
      "countryCode": "DE",
      "stateCode": "RP",
      "latitude": "49.83722000",
      "longitude": "8.34972000"
   },
   {
      "name": "Dierdorf",
      "countryCode": "DE",
      "stateCode": "RP",
      "latitude": "50.54647000",
      "longitude": "7.65271000"
   },
   {
      "name": "Diez",
      "countryCode": "DE",
      "stateCode": "RP",
      "latitude": "50.37419000",
      "longitude": "8.00735000"
   },
   {
      "name": "Dirmstein",
      "countryCode": "DE",
      "stateCode": "RP",
      "latitude": "49.56333000",
      "longitude": "8.24472000"
   },
   {
      "name": "Dittelsheim-Heßloch",
      "countryCode": "DE",
      "stateCode": "RP",
      "latitude": "49.74389000",
      "longitude": "8.23694000"
   },
   {
      "name": "Dommershausen",
      "countryCode": "DE",
      "stateCode": "RP",
      "latitude": "50.15000000",
      "longitude": "7.40000000"
   },
   {
      "name": "Dreikirchen",
      "countryCode": "DE",
      "stateCode": "RP",
      "latitude": "50.43333000",
      "longitude": "7.95000000"
   },
   {
      "name": "Dreis",
      "countryCode": "DE",
      "stateCode": "RP",
      "latitude": "49.94090000",
      "longitude": "6.81845000"
   },
   {
      "name": "Dreisen",
      "countryCode": "DE",
      "stateCode": "RP",
      "latitude": "49.60333000",
      "longitude": "8.01056000"
   },
   {
      "name": "Dudeldorf",
      "countryCode": "DE",
      "stateCode": "RP",
      "latitude": "49.97494000",
      "longitude": "6.63724000"
   },
   {
      "name": "Dudenhofen",
      "countryCode": "DE",
      "stateCode": "RP",
      "latitude": "49.31861000",
      "longitude": "8.38861000"
   },
   {
      "name": "Dörrenbach",
      "countryCode": "DE",
      "stateCode": "RP",
      "latitude": "49.08972000",
      "longitude": "7.96140000"
   },
   {
      "name": "Düngenheim",
      "countryCode": "DE",
      "stateCode": "RP",
      "latitude": "50.26062000",
      "longitude": "7.16523000"
   },
   {
      "name": "Ebernhahn",
      "countryCode": "DE",
      "stateCode": "RP",
      "latitude": "50.47278000",
      "longitude": "7.77000000"
   },
   {
      "name": "Ebertsheim",
      "countryCode": "DE",
      "stateCode": "RP",
      "latitude": "49.56833000",
      "longitude": "8.10861000"
   },
   {
      "name": "Edenkoben",
      "countryCode": "DE",
      "stateCode": "RP",
      "latitude": "49.28393000",
      "longitude": "8.12714000"
   },
   {
      "name": "Edesheim",
      "countryCode": "DE",
      "stateCode": "RP",
      "latitude": "49.26333000",
      "longitude": "8.13500000"
   },
   {
      "name": "Ediger-Eller",
      "countryCode": "DE",
      "stateCode": "RP",
      "latitude": "50.11667000",
      "longitude": "7.15000000"
   },
   {
      "name": "Ehlscheid",
      "countryCode": "DE",
      "stateCode": "RP",
      "latitude": "50.51448000",
      "longitude": "7.46655000"
   },
   {
      "name": "Eisenberg",
      "countryCode": "DE",
      "stateCode": "RP",
      "latitude": "49.55859000",
      "longitude": "8.07199000"
   },
   {
      "name": "Eitelborn",
      "countryCode": "DE",
      "stateCode": "RP",
      "latitude": "50.37806000",
      "longitude": "7.72333000"
   },
   {
      "name": "Elkenroth",
      "countryCode": "DE",
      "stateCode": "RP",
      "latitude": "50.73333000",
      "longitude": "7.88333000"
   },
   {
      "name": "Ellerstadt",
      "countryCode": "DE",
      "stateCode": "RP",
      "latitude": "49.46167000",
      "longitude": "8.25944000"
   },
   {
      "name": "Elmstein",
      "countryCode": "DE",
      "stateCode": "RP",
      "latitude": "49.36667000",
      "longitude": "7.93333000"
   },
   {
      "name": "Emmelshausen",
      "countryCode": "DE",
      "stateCode": "RP",
      "latitude": "50.15484000",
      "longitude": "7.55185000"
   },
   {
      "name": "Enkenbach-Alsenborn",
      "countryCode": "DE",
      "stateCode": "RP",
      "latitude": "49.48333000",
      "longitude": "7.90000000"
   },
   {
      "name": "Enkirch",
      "countryCode": "DE",
      "stateCode": "RP",
      "latitude": "49.98434000",
      "longitude": "7.12997000"
   },
   {
      "name": "Eppelsheim",
      "countryCode": "DE",
      "stateCode": "RP",
      "latitude": "49.70556000",
      "longitude": "8.16528000"
   },
   {
      "name": "Eppenbrunn",
      "countryCode": "DE",
      "stateCode": "RP",
      "latitude": "49.11667000",
      "longitude": "7.56667000"
   },
   {
      "name": "Erbes-Büdesheim",
      "countryCode": "DE",
      "stateCode": "RP",
      "latitude": "49.75444000",
      "longitude": "8.03139000"
   },
   {
      "name": "Erfweiler",
      "countryCode": "DE",
      "stateCode": "RP",
      "latitude": "49.15712000",
      "longitude": "7.81231000"
   },
   {
      "name": "Erpel",
      "countryCode": "DE",
      "stateCode": "RP",
      "latitude": "50.58333000",
      "longitude": "7.23333000"
   },
   {
      "name": "Erpolzheim",
      "countryCode": "DE",
      "stateCode": "RP",
      "latitude": "49.48917000",
      "longitude": "8.22472000"
   },
   {
      "name": "Essenheim",
      "countryCode": "DE",
      "stateCode": "RP",
      "latitude": "49.93056000",
      "longitude": "8.15556000"
   },
   {
      "name": "Essingen",
      "countryCode": "DE",
      "stateCode": "RP",
      "latitude": "49.23583000",
      "longitude": "8.17472000"
   },
   {
      "name": "Esthal",
      "countryCode": "DE",
      "stateCode": "RP",
      "latitude": "49.38333000",
      "longitude": "7.98333000"
   },
   {
      "name": "Ettringen",
      "countryCode": "DE",
      "stateCode": "RP",
      "latitude": "50.35000000",
      "longitude": "7.21667000"
   },
   {
      "name": "Etzbach",
      "countryCode": "DE",
      "stateCode": "RP",
      "latitude": "50.77831000",
      "longitude": "7.68800000"
   },
   {
      "name": "Fachbach",
      "countryCode": "DE",
      "stateCode": "RP",
      "latitude": "50.33333000",
      "longitude": "7.68333000"
   },
   {
      "name": "Faid",
      "countryCode": "DE",
      "stateCode": "RP",
      "latitude": "50.14454000",
      "longitude": "7.11951000"
   },
   {
      "name": "Feilbingert",
      "countryCode": "DE",
      "stateCode": "RP",
      "latitude": "49.76667000",
      "longitude": "7.80000000"
   },
   {
      "name": "Fell",
      "countryCode": "DE",
      "stateCode": "RP",
      "latitude": "49.76667000",
      "longitude": "6.78333000"
   },
   {
      "name": "Fischbach",
      "countryCode": "DE",
      "stateCode": "RP",
      "latitude": "49.08771000",
      "longitude": "7.71160000"
   },
   {
      "name": "Flacht",
      "countryCode": "DE",
      "stateCode": "RP",
      "latitude": "50.34528000",
      "longitude": "8.05028000"
   },
   {
      "name": "Flammersfeld",
      "countryCode": "DE",
      "stateCode": "RP",
      "latitude": "50.64711000",
      "longitude": "7.52713000"
   },
   {
      "name": "Flomborn",
      "countryCode": "DE",
      "stateCode": "RP",
      "latitude": "49.69056000",
      "longitude": "8.14917000"
   },
   {
      "name": "Flonheim",
      "countryCode": "DE",
      "stateCode": "RP",
      "latitude": "49.78500000",
      "longitude": "8.04000000"
   },
   {
      "name": "Framersheim",
      "countryCode": "DE",
      "stateCode": "RP",
      "latitude": "49.75806000",
      "longitude": "8.17417000"
   },
   {
      "name": "Frankenstein",
      "countryCode": "DE",
      "stateCode": "RP",
      "latitude": "49.44015000",
      "longitude": "7.97744000"
   },
   {
      "name": "Frankenthal",
      "countryCode": "DE",
      "stateCode": "RP",
      "latitude": "49.53414000",
      "longitude": "8.35357000"
   },
   {
      "name": "Freckenfeld",
      "countryCode": "DE",
      "stateCode": "RP",
      "latitude": "49.06500000",
      "longitude": "8.11389000"
   },
   {
      "name": "Frei-Laubersheim",
      "countryCode": "DE",
      "stateCode": "RP",
      "latitude": "49.80000000",
      "longitude": "7.90000000"
   },
   {
      "name": "Freinsheim",
      "countryCode": "DE",
      "stateCode": "RP",
      "latitude": "49.50649000",
      "longitude": "8.21186000"
   },
   {
      "name": "Freisbach",
      "countryCode": "DE",
      "stateCode": "RP",
      "latitude": "49.27167000",
      "longitude": "8.27194000"
   },
   {
      "name": "Freudenburg",
      "countryCode": "DE",
      "stateCode": "RP",
      "latitude": "49.54348000",
      "longitude": "6.53292000"
   },
   {
      "name": "Friedelsheim",
      "countryCode": "DE",
      "stateCode": "RP",
      "latitude": "49.44694000",
      "longitude": "8.22306000"
   },
   {
      "name": "Friedewald",
      "countryCode": "DE",
      "stateCode": "RP",
      "latitude": "50.71106000",
      "longitude": "7.96040000"
   },
   {
      "name": "Friesenhagen",
      "countryCode": "DE",
      "stateCode": "RP",
      "latitude": "50.90377000",
      "longitude": "7.80961000"
   },
   {
      "name": "Fußgönheim",
      "countryCode": "DE",
      "stateCode": "RP",
      "latitude": "49.46111000",
      "longitude": "8.29222000"
   },
   {
      "name": "Föhren",
      "countryCode": "DE",
      "stateCode": "RP",
      "latitude": "49.85929000",
      "longitude": "6.76480000"
   },
   {
      "name": "Fürfeld",
      "countryCode": "DE",
      "stateCode": "RP",
      "latitude": "49.77737000",
      "longitude": "7.89264000"
   },
   {
      "name": "Fürthen",
      "countryCode": "DE",
      "stateCode": "RP",
      "latitude": "50.78333000",
      "longitude": "7.66667000"
   },
   {
      "name": "Gartenstadt",
      "countryCode": "DE",
      "stateCode": "RP",
      "latitude": "49.45937000",
      "longitude": "8.40377000"
   },
   {
      "name": "Gau-Algesheim",
      "countryCode": "DE",
      "stateCode": "RP",
      "latitude": "49.95669000",
      "longitude": "8.01569000"
   },
   {
      "name": "Gau-Bickelheim",
      "countryCode": "DE",
      "stateCode": "RP",
      "latitude": "49.83528000",
      "longitude": "8.02056000"
   },
   {
      "name": "Gau-Bischofsheim",
      "countryCode": "DE",
      "stateCode": "RP",
      "latitude": "49.91583000",
      "longitude": "8.27278000"
   },
   {
      "name": "Gau-Odernheim",
      "countryCode": "DE",
      "stateCode": "RP",
      "latitude": "49.78472000",
      "longitude": "8.19417000"
   },
   {
      "name": "Gebhardshain",
      "countryCode": "DE",
      "stateCode": "RP",
      "latitude": "50.75000000",
      "longitude": "7.81667000"
   },
   {
      "name": "Gemünden",
      "countryCode": "DE",
      "stateCode": "RP",
      "latitude": "49.89444000",
      "longitude": "7.47750000"
   },
   {
      "name": "Gensingen",
      "countryCode": "DE",
      "stateCode": "RP",
      "latitude": "49.90000000",
      "longitude": "7.93333000"
   },
   {
      "name": "Germersheim",
      "countryCode": "DE",
      "stateCode": "RP",
      "latitude": "49.22306000",
      "longitude": "8.36389000"
   },
   {
      "name": "Gerolsheim",
      "countryCode": "DE",
      "stateCode": "RP",
      "latitude": "49.54778000",
      "longitude": "8.26389000"
   },
   {
      "name": "Gerolstein",
      "countryCode": "DE",
      "stateCode": "RP",
      "latitude": "50.22224000",
      "longitude": "6.65984000"
   },
   {
      "name": "Gillenfeld",
      "countryCode": "DE",
      "stateCode": "RP",
      "latitude": "50.12790000",
      "longitude": "6.90383000"
   },
   {
      "name": "Gimbsheim",
      "countryCode": "DE",
      "stateCode": "RP",
      "latitude": "49.77778000",
      "longitude": "8.37500000"
   },
   {
      "name": "Girod",
      "countryCode": "DE",
      "stateCode": "RP",
      "latitude": "50.45000000",
      "longitude": "7.91667000"
   },
   {
      "name": "Glan-Münchweiler",
      "countryCode": "DE",
      "stateCode": "RP",
      "latitude": "49.47222000",
      "longitude": "7.44204000"
   },
   {
      "name": "Gommersheim",
      "countryCode": "DE",
      "stateCode": "RP",
      "latitude": "49.29111000",
      "longitude": "8.26583000"
   },
   {
      "name": "Gondershausen",
      "countryCode": "DE",
      "stateCode": "RP",
      "latitude": "50.15000000",
      "longitude": "7.50000000"
   },
   {
      "name": "Gossersweiler-Stein",
      "countryCode": "DE",
      "stateCode": "RP",
      "latitude": "49.15000000",
      "longitude": "7.93333000"
   },
   {
      "name": "Greimerath",
      "countryCode": "DE",
      "stateCode": "RP",
      "latitude": "49.56155000",
      "longitude": "6.68374000"
   },
   {
      "name": "Gries",
      "countryCode": "DE",
      "stateCode": "RP",
      "latitude": "49.41667000",
      "longitude": "7.40000000"
   },
   {
      "name": "Grolsheim",
      "countryCode": "DE",
      "stateCode": "RP",
      "latitude": "49.90834000",
      "longitude": "7.91599000"
   },
   {
      "name": "Großholbach",
      "countryCode": "DE",
      "stateCode": "RP",
      "latitude": "50.45000000",
      "longitude": "7.88333000"
   },
   {
      "name": "Großkarlbach",
      "countryCode": "DE",
      "stateCode": "RP",
      "latitude": "49.53833000",
      "longitude": "8.22472000"
   },
   {
      "name": "Großlittgen",
      "countryCode": "DE",
      "stateCode": "RP",
      "latitude": "50.02787000",
      "longitude": "6.79865000"
   },
   {
      "name": "Großmaischeid",
      "countryCode": "DE",
      "stateCode": "RP",
      "latitude": "50.50000000",
      "longitude": "7.63333000"
   },
   {
      "name": "Großniedesheim",
      "countryCode": "DE",
      "stateCode": "RP",
      "latitude": "49.57528000",
      "longitude": "8.31222000"
   },
   {
      "name": "Grünstadt",
      "countryCode": "DE",
      "stateCode": "RP",
      "latitude": "49.56302000",
      "longitude": "8.16279000"
   },
   {
      "name": "Gundersheim",
      "countryCode": "DE",
      "stateCode": "RP",
      "latitude": "49.69611000",
      "longitude": "8.20250000"
   },
   {
      "name": "Guntersblum",
      "countryCode": "DE",
      "stateCode": "RP",
      "latitude": "49.79750000",
      "longitude": "8.34556000"
   },
   {
      "name": "Gusenburg",
      "countryCode": "DE",
      "stateCode": "RP",
      "latitude": "49.63333000",
      "longitude": "6.90000000"
   },
   {
      "name": "Gusterath",
      "countryCode": "DE",
      "stateCode": "RP",
      "latitude": "49.70000000",
      "longitude": "6.71667000"
   },
   {
      "name": "Gutenberg",
      "countryCode": "DE",
      "stateCode": "RP",
      "latitude": "49.88333000",
      "longitude": "7.80000000"
   },
   {
      "name": "Göllheim",
      "countryCode": "DE",
      "stateCode": "RP",
      "latitude": "49.59500000",
      "longitude": "8.05083000"
   },
   {
      "name": "Gönnheim",
      "countryCode": "DE",
      "stateCode": "RP",
      "latitude": "49.44806000",
      "longitude": "8.23861000"
   },
   {
      "name": "Gückingen",
      "countryCode": "DE",
      "stateCode": "RP",
      "latitude": "50.39091000",
      "longitude": "8.00726000"
   },
   {
      "name": "Hachenburg",
      "countryCode": "DE",
      "stateCode": "RP",
      "latitude": "50.65998000",
      "longitude": "7.82276000"
   },
   {
      "name": "Hackenheim",
      "countryCode": "DE",
      "stateCode": "RP",
      "latitude": "49.82524000",
      "longitude": "7.89907000"
   },
   {
      "name": "Hagenbach",
      "countryCode": "DE",
      "stateCode": "RP",
      "latitude": "49.01734000",
      "longitude": "8.25024000"
   },
   {
      "name": "Hahnheim",
      "countryCode": "DE",
      "stateCode": "RP",
      "latitude": "49.86083000",
      "longitude": "8.23694000"
   },
   {
      "name": "Hahnstätten",
      "countryCode": "DE",
      "stateCode": "RP",
      "latitude": "50.30000000",
      "longitude": "8.06667000"
   },
   {
      "name": "Halsenbach",
      "countryCode": "DE",
      "stateCode": "RP",
      "latitude": "50.17174000",
      "longitude": "7.55673000"
   },
   {
      "name": "Hamm",
      "countryCode": "DE",
      "stateCode": "RP",
      "latitude": "50.76531000",
      "longitude": "7.67761000"
   },
   {
      "name": "Hanhofen",
      "countryCode": "DE",
      "stateCode": "RP",
      "latitude": "49.31667000",
      "longitude": "8.34083000"
   },
   {
      "name": "Hargesheim",
      "countryCode": "DE",
      "stateCode": "RP",
      "latitude": "49.86230000",
      "longitude": "7.82881000"
   },
   {
      "name": "Harthausen",
      "countryCode": "DE",
      "stateCode": "RP",
      "latitude": "49.29417000",
      "longitude": "8.34500000"
   },
   {
      "name": "Harxheim",
      "countryCode": "DE",
      "stateCode": "RP",
      "latitude": "49.90528000",
      "longitude": "8.26417000"
   },
   {
      "name": "Hattert",
      "countryCode": "DE",
      "stateCode": "RP",
      "latitude": "50.66667000",
      "longitude": "7.76667000"
   },
   {
      "name": "Hatzenbühl",
      "countryCode": "DE",
      "stateCode": "RP",
      "latitude": "49.11111000",
      "longitude": "8.24528000"
   },
   {
      "name": "Hauenstein",
      "countryCode": "DE",
      "stateCode": "RP",
      "latitude": "49.19211000",
      "longitude": "7.85492000"
   },
   {
      "name": "Hauptstuhl",
      "countryCode": "DE",
      "stateCode": "RP",
      "latitude": "49.40000000",
      "longitude": "7.48333000"
   },
   {
      "name": "Hausen",
      "countryCode": "DE",
      "stateCode": "RP",
      "latitude": "50.54242000",
      "longitude": "7.40703000"
   },
   {
      "name": "Haßloch",
      "countryCode": "DE",
      "stateCode": "RP",
      "latitude": "49.36278000",
      "longitude": "8.25806000"
   },
   {
      "name": "Heidesheim",
      "countryCode": "DE",
      "stateCode": "RP",
      "latitude": "49.58247000",
      "longitude": "8.19537000"
   },
   {
      "name": "Heiligenroth",
      "countryCode": "DE",
      "stateCode": "RP",
      "latitude": "50.45000000",
      "longitude": "7.86667000"
   },
   {
      "name": "Heimbach",
      "countryCode": "DE",
      "stateCode": "RP",
      "latitude": "50.45000000",
      "longitude": "7.53333000"
   },
   {
      "name": "Heistenbach",
      "countryCode": "DE",
      "stateCode": "RP",
      "latitude": "50.37933000",
      "longitude": "7.98629000"
   },
   {
      "name": "Helferskirchen",
      "countryCode": "DE",
      "stateCode": "RP",
      "latitude": "50.51028000",
      "longitude": "7.81184000"
   },
   {
      "name": "Hellenhahn-Schellenberg",
      "countryCode": "DE",
      "stateCode": "RP",
      "latitude": "50.61278000",
      "longitude": "8.02639000"
   },
   {
      "name": "Heltersberg",
      "countryCode": "DE",
      "stateCode": "RP",
      "latitude": "49.31667000",
      "longitude": "7.71667000"
   },
   {
      "name": "Hennweiler",
      "countryCode": "DE",
      "stateCode": "RP",
      "latitude": "49.81667000",
      "longitude": "7.43333000"
   },
   {
      "name": "Herdorf",
      "countryCode": "DE",
      "stateCode": "RP",
      "latitude": "50.77704000",
      "longitude": "7.95366000"
   },
   {
      "name": "Herforst",
      "countryCode": "DE",
      "stateCode": "RP",
      "latitude": "49.95000000",
      "longitude": "6.70000000"
   },
   {
      "name": "Hermersberg",
      "countryCode": "DE",
      "stateCode": "RP",
      "latitude": "49.31667000",
      "longitude": "7.63333000"
   },
   {
      "name": "Hermeskeil",
      "countryCode": "DE",
      "stateCode": "RP",
      "latitude": "49.65528000",
      "longitude": "6.94407000"
   },
   {
      "name": "Herschweiler-Pettersheim",
      "countryCode": "DE",
      "stateCode": "RP",
      "latitude": "49.48333000",
      "longitude": "7.35000000"
   },
   {
      "name": "Herxheim am Berg",
      "countryCode": "DE",
      "stateCode": "RP",
      "latitude": "49.50917000",
      "longitude": "8.17917000"
   },
   {
      "name": "Hettenleidelheim",
      "countryCode": "DE",
      "stateCode": "RP",
      "latitude": "49.53556000",
      "longitude": "8.07361000"
   },
   {
      "name": "Hetzerath",
      "countryCode": "DE",
      "stateCode": "RP",
      "latitude": "49.88333000",
      "longitude": "6.81667000"
   },
   {
      "name": "Heuchelheim bei Frankenthal",
      "countryCode": "DE",
      "stateCode": "RP",
      "latitude": "49.56306000",
      "longitude": "8.29083000"
   },
   {
      "name": "Heßheim",
      "countryCode": "DE",
      "stateCode": "RP",
      "latitude": "49.54583000",
      "longitude": "8.30778000"
   },
   {
      "name": "Hilgert",
      "countryCode": "DE",
      "stateCode": "RP",
      "latitude": "50.45634000",
      "longitude": "7.68735000"
   },
   {
      "name": "Hillesheim",
      "countryCode": "DE",
      "stateCode": "RP",
      "latitude": "50.29177000",
      "longitude": "6.66963000"
   },
   {
      "name": "Hillscheid",
      "countryCode": "DE",
      "stateCode": "RP",
      "latitude": "50.40639000",
      "longitude": "7.69861000"
   },
   {
      "name": "Hinterweidenthal",
      "countryCode": "DE",
      "stateCode": "RP",
      "latitude": "49.20000000",
      "longitude": "7.75000000"
   },
   {
      "name": "Hochdorf-Assenheim",
      "countryCode": "DE",
      "stateCode": "RP",
      "latitude": "49.41944000",
      "longitude": "8.28167000"
   },
   {
      "name": "Hochspeyer",
      "countryCode": "DE",
      "stateCode": "RP",
      "latitude": "49.44207000",
      "longitude": "7.89504000"
   },
   {
      "name": "Hochstadt",
      "countryCode": "DE",
      "stateCode": "RP",
      "latitude": "49.24750000",
      "longitude": "8.20889000"
   },
   {
      "name": "Hochstetten-Dhaun",
      "countryCode": "DE",
      "stateCode": "RP",
      "latitude": "49.80000000",
      "longitude": "7.50000000"
   },
   {
      "name": "Hof",
      "countryCode": "DE",
      "stateCode": "RP",
      "latitude": "50.66667000",
      "longitude": "8.01667000"
   },
   {
      "name": "Holler",
      "countryCode": "DE",
      "stateCode": "RP",
      "latitude": "50.41667000",
      "longitude": "7.83333000"
   },
   {
      "name": "Holzappel",
      "countryCode": "DE",
      "stateCode": "RP",
      "latitude": "50.35000000",
      "longitude": "7.90000000"
   },
   {
      "name": "Holzhausen an der Haide",
      "countryCode": "DE",
      "stateCode": "RP",
      "latitude": "50.21855000",
      "longitude": "7.90973000"
   },
   {
      "name": "Hoppstädten-Weiersbach",
      "countryCode": "DE",
      "stateCode": "RP",
      "latitude": "49.61667000",
      "longitude": "7.20000000"
   },
   {
      "name": "Horhausen",
      "countryCode": "DE",
      "stateCode": "RP",
      "latitude": "50.58745000",
      "longitude": "7.53028000"
   },
   {
      "name": "Hornbach",
      "countryCode": "DE",
      "stateCode": "RP",
      "latitude": "49.18778000",
      "longitude": "7.36883000"
   },
   {
      "name": "Hundsangen",
      "countryCode": "DE",
      "stateCode": "RP",
      "latitude": "50.45000000",
      "longitude": "7.98333000"
   },
   {
      "name": "Höheinöd",
      "countryCode": "DE",
      "stateCode": "RP",
      "latitude": "49.28966000",
      "longitude": "7.60673000"
   },
   {
      "name": "Höheischweiler",
      "countryCode": "DE",
      "stateCode": "RP",
      "latitude": "49.23333000",
      "longitude": "7.55000000"
   },
   {
      "name": "Höhn",
      "countryCode": "DE",
      "stateCode": "RP",
      "latitude": "50.61667000",
      "longitude": "7.98333000"
   },
   {
      "name": "Höhr-Grenzhausen",
      "countryCode": "DE",
      "stateCode": "RP",
      "latitude": "50.43474000",
      "longitude": "7.66903000"
   },
   {
      "name": "Hördt",
      "countryCode": "DE",
      "stateCode": "RP",
      "latitude": "49.16583000",
      "longitude": "8.32639000"
   },
   {
      "name": "Hüffelsheim",
      "countryCode": "DE",
      "stateCode": "RP",
      "latitude": "49.81667000",
      "longitude": "7.80000000"
   },
   {
      "name": "Hütschenhausen",
      "countryCode": "DE",
      "stateCode": "RP",
      "latitude": "49.41667000",
      "longitude": "7.48333000"
   },
   {
      "name": "Idar-Oberstein",
      "countryCode": "DE",
      "stateCode": "RP",
      "latitude": "49.71443000",
      "longitude": "7.30776000"
   },
   {
      "name": "Igel",
      "countryCode": "DE",
      "stateCode": "RP",
      "latitude": "49.71033000",
      "longitude": "6.55498000"
   },
   {
      "name": "Ilbesheim",
      "countryCode": "DE",
      "stateCode": "RP",
      "latitude": "49.18277000",
      "longitude": "8.05363000"
   },
   {
      "name": "Imsbach",
      "countryCode": "DE",
      "stateCode": "RP",
      "latitude": "49.58333000",
      "longitude": "7.88333000"
   },
   {
      "name": "Ingelheim am Rhein",
      "countryCode": "DE",
      "stateCode": "RP",
      "latitude": "49.97078000",
      "longitude": "8.05883000"
   },
   {
      "name": "Insheim",
      "countryCode": "DE",
      "stateCode": "RP",
      "latitude": "49.15806000",
      "longitude": "8.14722000"
   },
   {
      "name": "Irrel",
      "countryCode": "DE",
      "stateCode": "RP",
      "latitude": "49.84539000",
      "longitude": "6.45705000"
   },
   {
      "name": "Irsch",
      "countryCode": "DE",
      "stateCode": "RP",
      "latitude": "49.72620000",
      "longitude": "6.69806000"
   },
   {
      "name": "Jockgrim",
      "countryCode": "DE",
      "stateCode": "RP",
      "latitude": "49.09288000",
      "longitude": "8.27468000"
   },
   {
      "name": "Jugenheim",
      "countryCode": "DE",
      "stateCode": "RP",
      "latitude": "49.89362000",
      "longitude": "8.08468000"
   },
   {
      "name": "Jünkerath",
      "countryCode": "DE",
      "stateCode": "RP",
      "latitude": "50.34412000",
      "longitude": "6.58138000"
   },
   {
      "name": "Kadenbach",
      "countryCode": "DE",
      "stateCode": "RP",
      "latitude": "50.38333000",
      "longitude": "7.73333000"
   },
   {
      "name": "Kaisersesch",
      "countryCode": "DE",
      "stateCode": "RP",
      "latitude": "50.23148000",
      "longitude": "7.13864000"
   },
   {
      "name": "Kaiserslautern",
      "countryCode": "DE",
      "stateCode": "RP",
      "latitude": "49.44300000",
      "longitude": "7.77161000"
   },
   {
      "name": "Kallstadt",
      "countryCode": "DE",
      "stateCode": "RP",
      "latitude": "49.49083000",
      "longitude": "8.17611000"
   },
   {
      "name": "Kaltenengers",
      "countryCode": "DE",
      "stateCode": "RP",
      "latitude": "50.41667000",
      "longitude": "7.55000000"
   },
   {
      "name": "Kamp-Bornhofen",
      "countryCode": "DE",
      "stateCode": "RP",
      "latitude": "50.22282000",
      "longitude": "7.62364000"
   },
   {
      "name": "Kandel",
      "countryCode": "DE",
      "stateCode": "RP",
      "latitude": "49.08277000",
      "longitude": "8.19720000"
   },
   {
      "name": "Kapsweyer",
      "countryCode": "DE",
      "stateCode": "RP",
      "latitude": "49.04389000",
      "longitude": "8.02167000"
   },
   {
      "name": "Kasbach-Ohlenberg",
      "countryCode": "DE",
      "stateCode": "RP",
      "latitude": "50.58333000",
      "longitude": "7.26667000"
   },
   {
      "name": "Kasel",
      "countryCode": "DE",
      "stateCode": "RP",
      "latitude": "49.76170000",
      "longitude": "6.73222000"
   },
   {
      "name": "Kastellaun",
      "countryCode": "DE",
      "stateCode": "RP",
      "latitude": "50.06922000",
      "longitude": "7.44154000"
   },
   {
      "name": "Katzenelnbogen",
      "countryCode": "DE",
      "stateCode": "RP",
      "latitude": "50.26745000",
      "longitude": "7.97322000"
   },
   {
      "name": "Katzweiler",
      "countryCode": "DE",
      "stateCode": "RP",
      "latitude": "49.50000000",
      "longitude": "7.70000000"
   },
   {
      "name": "Katzwinkel",
      "countryCode": "DE",
      "stateCode": "RP",
      "latitude": "50.81470000",
      "longitude": "7.82236000"
   },
   {
      "name": "Kaub",
      "countryCode": "DE",
      "stateCode": "RP",
      "latitude": "50.08831000",
      "longitude": "7.76069000"
   },
   {
      "name": "Kehrig",
      "countryCode": "DE",
      "stateCode": "RP",
      "latitude": "50.28333000",
      "longitude": "7.21667000"
   },
   {
      "name": "Kelberg",
      "countryCode": "DE",
      "stateCode": "RP",
      "latitude": "50.29164000",
      "longitude": "6.91950000"
   },
   {
      "name": "Kell",
      "countryCode": "DE",
      "stateCode": "RP",
      "latitude": "49.63425000",
      "longitude": "6.82390000"
   },
   {
      "name": "Kempenich",
      "countryCode": "DE",
      "stateCode": "RP",
      "latitude": "50.42024000",
      "longitude": "7.11698000"
   },
   {
      "name": "Kenn",
      "countryCode": "DE",
      "stateCode": "RP",
      "latitude": "49.80000000",
      "longitude": "6.71667000"
   },
   {
      "name": "Kerzenheim",
      "countryCode": "DE",
      "stateCode": "RP",
      "latitude": "49.57639000",
      "longitude": "8.05972000"
   },
   {
      "name": "Kettig",
      "countryCode": "DE",
      "stateCode": "RP",
      "latitude": "50.40000000",
      "longitude": "7.46667000"
   },
   {
      "name": "Kindenheim",
      "countryCode": "DE",
      "stateCode": "RP",
      "latitude": "49.61111000",
      "longitude": "8.16417000"
   },
   {
      "name": "Kinderbeuern",
      "countryCode": "DE",
      "stateCode": "RP",
      "latitude": "50.00935000",
      "longitude": "7.02355000"
   },
   {
      "name": "Kindsbach",
      "countryCode": "DE",
      "stateCode": "RP",
      "latitude": "49.41667000",
      "longitude": "7.61667000"
   },
   {
      "name": "Kirchberg",
      "countryCode": "DE",
      "stateCode": "RP",
      "latitude": "49.94395000",
      "longitude": "7.40700000"
   },
   {
      "name": "Kirchen",
      "countryCode": "DE",
      "stateCode": "RP",
      "latitude": "50.80849000",
      "longitude": "7.88634000"
   },
   {
      "name": "Kirchheim an der Weinstraße",
      "countryCode": "DE",
      "stateCode": "RP",
      "latitude": "49.53722000",
      "longitude": "8.18083000"
   },
   {
      "name": "Kirchheimbolanden",
      "countryCode": "DE",
      "stateCode": "RP",
      "latitude": "49.66249000",
      "longitude": "8.01513000"
   },
   {
      "name": "Kirchwald",
      "countryCode": "DE",
      "stateCode": "RP",
      "latitude": "50.36667000",
      "longitude": "7.15000000"
   },
   {
      "name": "Kirn",
      "countryCode": "DE",
      "stateCode": "RP",
      "latitude": "49.78912000",
      "longitude": "7.45765000"
   },
   {
      "name": "Kirrweiler",
      "countryCode": "DE",
      "stateCode": "RP",
      "latitude": "49.30124000",
      "longitude": "8.16288000"
   },
   {
      "name": "Kirschweiler",
      "countryCode": "DE",
      "stateCode": "RP",
      "latitude": "49.75000000",
      "longitude": "7.25000000"
   },
   {
      "name": "Klausen",
      "countryCode": "DE",
      "stateCode": "RP",
      "latitude": "49.90000000",
      "longitude": "6.88333000"
   },
   {
      "name": "Klein-Winternheim",
      "countryCode": "DE",
      "stateCode": "RP",
      "latitude": "49.93833000",
      "longitude": "8.21194000"
   },
   {
      "name": "Kleinmaischeid",
      "countryCode": "DE",
      "stateCode": "RP",
      "latitude": "50.51345000",
      "longitude": "7.60830000"
   },
   {
      "name": "Klingenmünster",
      "countryCode": "DE",
      "stateCode": "RP",
      "latitude": "49.14056000",
      "longitude": "8.01861000"
   },
   {
      "name": "Klotten",
      "countryCode": "DE",
      "stateCode": "RP",
      "latitude": "50.16667000",
      "longitude": "7.20000000"
   },
   {
      "name": "Klüsserath",
      "countryCode": "DE",
      "stateCode": "RP",
      "latitude": "49.84500000",
      "longitude": "6.85086000"
   },
   {
      "name": "Knittelsheim",
      "countryCode": "DE",
      "stateCode": "RP",
      "latitude": "49.19167000",
      "longitude": "8.25139000"
   },
   {
      "name": "Kobern-Gondorf",
      "countryCode": "DE",
      "stateCode": "RP",
      "latitude": "50.30230000",
      "longitude": "7.45612000"
   },
   {
      "name": "Koblenz",
      "countryCode": "DE",
      "stateCode": "RP",
      "latitude": "50.35357000",
      "longitude": "7.57883000"
   },
   {
      "name": "Konz",
      "countryCode": "DE",
      "stateCode": "RP",
      "latitude": "49.70045000",
      "longitude": "6.57652000"
   },
   {
      "name": "Kordel",
      "countryCode": "DE",
      "stateCode": "RP",
      "latitude": "49.83333000",
      "longitude": "6.63333000"
   },
   {
      "name": "Kottenheim",
      "countryCode": "DE",
      "stateCode": "RP",
      "latitude": "50.35000000",
      "longitude": "7.25000000"
   },
   {
      "name": "Kottweiler-Schwanden",
      "countryCode": "DE",
      "stateCode": "RP",
      "latitude": "49.48333000",
      "longitude": "7.53333000"
   },
   {
      "name": "Krickenbach",
      "countryCode": "DE",
      "stateCode": "RP",
      "latitude": "49.36667000",
      "longitude": "7.66667000"
   },
   {
      "name": "Kriegsfeld",
      "countryCode": "DE",
      "stateCode": "RP",
      "latitude": "49.70992000",
      "longitude": "7.91687000"
   },
   {
      "name": "Kruft",
      "countryCode": "DE",
      "stateCode": "RP",
      "latitude": "50.38333000",
      "longitude": "7.33333000"
   },
   {
      "name": "Kröv",
      "countryCode": "DE",
      "stateCode": "RP",
      "latitude": "49.98333000",
      "longitude": "7.08333000"
   },
   {
      "name": "Kuhardt",
      "countryCode": "DE",
      "stateCode": "RP",
      "latitude": "49.14583000",
      "longitude": "8.31444000"
   },
   {
      "name": "Kusel",
      "countryCode": "DE",
      "stateCode": "RP",
      "latitude": "49.53772000",
      "longitude": "7.40472000"
   },
   {
      "name": "Kyllburg",
      "countryCode": "DE",
      "stateCode": "RP",
      "latitude": "50.03864000",
      "longitude": "6.59478000"
   },
   {
      "name": "Kölbingen",
      "countryCode": "DE",
      "stateCode": "RP",
      "latitude": "50.55000000",
      "longitude": "7.93333000"
   },
   {
      "name": "Köngernheim",
      "countryCode": "DE",
      "stateCode": "RP",
      "latitude": "49.84583000",
      "longitude": "8.24667000"
   },
   {
      "name": "Körperich",
      "countryCode": "DE",
      "stateCode": "RP",
      "latitude": "49.92449000",
      "longitude": "6.25973000"
   },
   {
      "name": "Lachen-Speyerdorf",
      "countryCode": "DE",
      "stateCode": "RP",
      "latitude": "49.33049000",
      "longitude": "8.19983000"
   },
   {
      "name": "Lahnstein",
      "countryCode": "DE",
      "stateCode": "RP",
      "latitude": "50.30000000",
      "longitude": "7.61667000"
   },
   {
      "name": "Lambrecht",
      "countryCode": "DE",
      "stateCode": "RP",
      "latitude": "49.37055000",
      "longitude": "8.07264000"
   },
   {
      "name": "Lambsheim",
      "countryCode": "DE",
      "stateCode": "RP",
      "latitude": "49.51361000",
      "longitude": "8.28778000"
   },
   {
      "name": "Landau in der Pfalz",
      "countryCode": "DE",
      "stateCode": "RP",
      "latitude": "49.19844000",
      "longitude": "8.11692000"
   },
   {
      "name": "Landscheid",
      "countryCode": "DE",
      "stateCode": "RP",
      "latitude": "49.98333000",
      "longitude": "6.76667000"
   },
   {
      "name": "Landstuhl",
      "countryCode": "DE",
      "stateCode": "RP",
      "latitude": "49.41306000",
      "longitude": "7.57021000"
   },
   {
      "name": "Langenbach bei Marienberg",
      "countryCode": "DE",
      "stateCode": "RP",
      "latitude": "50.63806000",
      "longitude": "7.94787000"
   },
   {
      "name": "Langenhahn",
      "countryCode": "DE",
      "stateCode": "RP",
      "latitude": "50.58333000",
      "longitude": "7.91667000"
   },
   {
      "name": "Langenlonsheim",
      "countryCode": "DE",
      "stateCode": "RP",
      "latitude": "49.90000000",
      "longitude": "7.90000000"
   },
   {
      "name": "Langsur",
      "countryCode": "DE",
      "stateCode": "RP",
      "latitude": "49.72442000",
      "longitude": "6.49906000"
   },
   {
      "name": "Laubach",
      "countryCode": "DE",
      "stateCode": "RP",
      "latitude": "50.23277000",
      "longitude": "7.07333000"
   },
   {
      "name": "Lauterecken",
      "countryCode": "DE",
      "stateCode": "RP",
      "latitude": "49.64993000",
      "longitude": "7.59265000"
   },
   {
      "name": "Lehmen",
      "countryCode": "DE",
      "stateCode": "RP",
      "latitude": "50.28333000",
      "longitude": "7.45000000"
   },
   {
      "name": "Leimersheim",
      "countryCode": "DE",
      "stateCode": "RP",
      "latitude": "49.12421000",
      "longitude": "8.34531000"
   },
   {
      "name": "Leiwen",
      "countryCode": "DE",
      "stateCode": "RP",
      "latitude": "49.81667000",
      "longitude": "6.88333000"
   },
   {
      "name": "Lemberg",
      "countryCode": "DE",
      "stateCode": "RP",
      "latitude": "49.17309000",
      "longitude": "7.65111000"
   },
   {
      "name": "Leubsdorf",
      "countryCode": "DE",
      "stateCode": "RP",
      "latitude": "50.55000000",
      "longitude": "7.30000000"
   },
   {
      "name": "Leutesdorf",
      "countryCode": "DE",
      "stateCode": "RP",
      "latitude": "50.45000000",
      "longitude": "7.38333000"
   },
   {
      "name": "Lieser",
      "countryCode": "DE",
      "stateCode": "RP",
      "latitude": "49.91667000",
      "longitude": "7.01667000"
   },
   {
      "name": "Limburgerhof",
      "countryCode": "DE",
      "stateCode": "RP",
      "latitude": "49.42444000",
      "longitude": "8.39194000"
   },
   {
      "name": "Linden",
      "countryCode": "DE",
      "stateCode": "RP",
      "latitude": "49.35000000",
      "longitude": "7.65000000"
   },
   {
      "name": "Lindenberg",
      "countryCode": "DE",
      "stateCode": "RP",
      "latitude": "49.38028000",
      "longitude": "8.09861000"
   },
   {
      "name": "Lingenfeld",
      "countryCode": "DE",
      "stateCode": "RP",
      "latitude": "49.25389000",
      "longitude": "8.33861000"
   },
   {
      "name": "Linz am Rhein",
      "countryCode": "DE",
      "stateCode": "RP",
      "latitude": "50.56884000",
      "longitude": "7.28445000"
   },
   {
      "name": "Lissendorf",
      "countryCode": "DE",
      "stateCode": "RP",
      "latitude": "50.31667000",
      "longitude": "6.60000000"
   },
   {
      "name": "Longkamp",
      "countryCode": "DE",
      "stateCode": "RP",
      "latitude": "49.89044000",
      "longitude": "7.11764000"
   },
   {
      "name": "Longuich",
      "countryCode": "DE",
      "stateCode": "RP",
      "latitude": "49.80841000",
      "longitude": "6.76832000"
   },
   {
      "name": "Lonnig",
      "countryCode": "DE",
      "stateCode": "RP",
      "latitude": "50.31002000",
      "longitude": "7.40509000"
   },
   {
      "name": "Ludwigshafen am Rhein",
      "countryCode": "DE",
      "stateCode": "RP",
      "latitude": "49.48121000",
      "longitude": "8.44641000"
   },
   {
      "name": "Lustadt",
      "countryCode": "DE",
      "stateCode": "RP",
      "latitude": "49.24476000",
      "longitude": "8.27407000"
   },
   {
      "name": "Lutzerath",
      "countryCode": "DE",
      "stateCode": "RP",
      "latitude": "50.12695000",
      "longitude": "7.00740000"
   },
   {
      "name": "Löf",
      "countryCode": "DE",
      "stateCode": "RP",
      "latitude": "50.23333000",
      "longitude": "7.43333000"
   },
   {
      "name": "Lörzweiler",
      "countryCode": "DE",
      "stateCode": "RP",
      "latitude": "49.89833000",
      "longitude": "8.29472000"
   },
   {
      "name": "Mackenbach",
      "countryCode": "DE",
      "stateCode": "RP",
      "latitude": "49.46667000",
      "longitude": "7.58333000"
   },
   {
      "name": "Maikammer",
      "countryCode": "DE",
      "stateCode": "RP",
      "latitude": "49.30528000",
      "longitude": "8.13167000"
   },
   {
      "name": "Mainz",
      "countryCode": "DE",
      "stateCode": "RP",
      "latitude": "49.98419000",
      "longitude": "8.27910000"
   },
   {
      "name": "Malborn",
      "countryCode": "DE",
      "stateCode": "RP",
      "latitude": "49.71667000",
      "longitude": "6.98333000"
   },
   {
      "name": "Mammelzen",
      "countryCode": "DE",
      "stateCode": "RP",
      "latitude": "50.70000000",
      "longitude": "7.66667000"
   },
   {
      "name": "Manderscheid",
      "countryCode": "DE",
      "stateCode": "RP",
      "latitude": "50.09672000",
      "longitude": "6.80981000"
   },
   {
      "name": "Marienrachdorf",
      "countryCode": "DE",
      "stateCode": "RP",
      "latitude": "50.55000000",
      "longitude": "7.71667000"
   },
   {
      "name": "Maring-Noviand",
      "countryCode": "DE",
      "stateCode": "RP",
      "latitude": "49.93333000",
      "longitude": "7.00000000"
   },
   {
      "name": "Marnheim",
      "countryCode": "DE",
      "stateCode": "RP",
      "latitude": "49.63278000",
      "longitude": "8.04000000"
   },
   {
      "name": "Martinshöhe",
      "countryCode": "DE",
      "stateCode": "RP",
      "latitude": "49.36667000",
      "longitude": "7.48333000"
   },
   {
      "name": "Masburg",
      "countryCode": "DE",
      "stateCode": "RP",
      "latitude": "50.24065000",
      "longitude": "7.11736000"
   },
   {
      "name": "Mastershausen",
      "countryCode": "DE",
      "stateCode": "RP",
      "latitude": "50.06667000",
      "longitude": "7.35000000"
   },
   {
      "name": "Maxdorf",
      "countryCode": "DE",
      "stateCode": "RP",
      "latitude": "49.48806000",
      "longitude": "8.29167000"
   },
   {
      "name": "Maxsain",
      "countryCode": "DE",
      "stateCode": "RP",
      "latitude": "50.54316000",
      "longitude": "7.78512000"
   },
   {
      "name": "Mayen",
      "countryCode": "DE",
      "stateCode": "RP",
      "latitude": "50.32797000",
      "longitude": "7.22277000"
   },
   {
      "name": "Maßweiler",
      "countryCode": "DE",
      "stateCode": "RP",
      "latitude": "49.26667000",
      "longitude": "7.53333000"
   },
   {
      "name": "Meckenheim",
      "countryCode": "DE",
      "stateCode": "RP",
      "latitude": "49.40444000",
      "longitude": "8.23917000"
   },
   {
      "name": "Meddersheim",
      "countryCode": "DE",
      "stateCode": "RP",
      "latitude": "49.77636000",
      "longitude": "7.61708000"
   },
   {
      "name": "Mehlbach",
      "countryCode": "DE",
      "stateCode": "RP",
      "latitude": "49.51667000",
      "longitude": "7.71667000"
   },
   {
      "name": "Mehlingen",
      "countryCode": "DE",
      "stateCode": "RP",
      "latitude": "49.49136000",
      "longitude": "7.85467000"
   },
   {
      "name": "Mehren",
      "countryCode": "DE",
      "stateCode": "RP",
      "latitude": "50.18333000",
      "longitude": "6.88333000"
   },
   {
      "name": "Mehring",
      "countryCode": "DE",
      "stateCode": "RP",
      "latitude": "49.80000000",
      "longitude": "6.83333000"
   },
   {
      "name": "Meisenheim",
      "countryCode": "DE",
      "stateCode": "RP",
      "latitude": "49.70721000",
      "longitude": "7.66765000"
   },
   {
      "name": "Melsbach",
      "countryCode": "DE",
      "stateCode": "RP",
      "latitude": "50.48333000",
      "longitude": "7.48333000"
   },
   {
      "name": "Mendig",
      "countryCode": "DE",
      "stateCode": "RP",
      "latitude": "50.36667000",
      "longitude": "7.28333000"
   },
   {
      "name": "Mertesdorf",
      "countryCode": "DE",
      "stateCode": "RP",
      "latitude": "49.77212000",
      "longitude": "6.73290000"
   },
   {
      "name": "Mertloch",
      "countryCode": "DE",
      "stateCode": "RP",
      "latitude": "50.26948000",
      "longitude": "7.30814000"
   },
   {
      "name": "Merxheim",
      "countryCode": "DE",
      "stateCode": "RP",
      "latitude": "49.79297000",
      "longitude": "7.56010000"
   },
   {
      "name": "Merzalben",
      "countryCode": "DE",
      "stateCode": "RP",
      "latitude": "49.24467000",
      "longitude": "7.73077000"
   },
   {
      "name": "Mettendorf",
      "countryCode": "DE",
      "stateCode": "RP",
      "latitude": "49.94784000",
      "longitude": "6.33003000"
   },
   {
      "name": "Mettenheim",
      "countryCode": "DE",
      "stateCode": "RP",
      "latitude": "49.74000000",
      "longitude": "8.32583000"
   },
   {
      "name": "Meudt",
      "countryCode": "DE",
      "stateCode": "RP",
      "latitude": "50.49889000",
      "longitude": "7.89500000"
   },
   {
      "name": "Miehlen",
      "countryCode": "DE",
      "stateCode": "RP",
      "latitude": "50.22574000",
      "longitude": "7.83196000"
   },
   {
      "name": "Minfeld",
      "countryCode": "DE",
      "stateCode": "RP",
      "latitude": "49.07167000",
      "longitude": "8.14528000"
   },
   {
      "name": "Mittelhof",
      "countryCode": "DE",
      "stateCode": "RP",
      "latitude": "50.77517000",
      "longitude": "7.80466000"
   },
   {
      "name": "Mogendorf",
      "countryCode": "DE",
      "stateCode": "RP",
      "latitude": "50.49444000",
      "longitude": "7.75972000"
   },
   {
      "name": "Mommenheim",
      "countryCode": "DE",
      "stateCode": "RP",
      "latitude": "49.88028000",
      "longitude": "8.26500000"
   },
   {
      "name": "Monsheim",
      "countryCode": "DE",
      "stateCode": "RP",
      "latitude": "49.63722000",
      "longitude": "8.21194000"
   },
   {
      "name": "Montabaur",
      "countryCode": "DE",
      "stateCode": "RP",
      "latitude": "50.43588000",
      "longitude": "7.82320000"
   },
   {
      "name": "Monzelfeld",
      "countryCode": "DE",
      "stateCode": "RP",
      "latitude": "49.89237000",
      "longitude": "7.07318000"
   },
   {
      "name": "Monzingen",
      "countryCode": "DE",
      "stateCode": "RP",
      "latitude": "49.79763000",
      "longitude": "7.59284000"
   },
   {
      "name": "Morbach",
      "countryCode": "DE",
      "stateCode": "RP",
      "latitude": "49.80772000",
      "longitude": "7.12714000"
   },
   {
      "name": "Mudersbach",
      "countryCode": "DE",
      "stateCode": "RP",
      "latitude": "50.82515000",
      "longitude": "7.94347000"
   },
   {
      "name": "Mutterstadt",
      "countryCode": "DE",
      "stateCode": "RP",
      "latitude": "49.44139000",
      "longitude": "8.35611000"
   },
   {
      "name": "Mülheim-Kärlich",
      "countryCode": "DE",
      "stateCode": "RP",
      "latitude": "50.38510000",
      "longitude": "7.49890000"
   },
   {
      "name": "Münchweiler an der Alsenz",
      "countryCode": "DE",
      "stateCode": "RP",
      "latitude": "49.55000000",
      "longitude": "7.88333000"
   },
   {
      "name": "Münchweiler an der Rodalbe",
      "countryCode": "DE",
      "stateCode": "RP",
      "latitude": "49.21798000",
      "longitude": "7.70295000"
   },
   {
      "name": "Münster-Sarmsheim",
      "countryCode": "DE",
      "stateCode": "RP",
      "latitude": "49.94341000",
      "longitude": "7.89426000"
   },
   {
      "name": "Münstermaifeld",
      "countryCode": "DE",
      "stateCode": "RP",
      "latitude": "50.24638000",
      "longitude": "7.36208000"
   },
   {
      "name": "Müschenbach",
      "countryCode": "DE",
      "stateCode": "RP",
      "latitude": "50.68333000",
      "longitude": "7.78333000"
   },
   {
      "name": "Nackenheim",
      "countryCode": "DE",
      "stateCode": "RP",
      "latitude": "49.91528000",
      "longitude": "8.33889000"
   },
   {
      "name": "Nanzdietschweiler",
      "countryCode": "DE",
      "stateCode": "RP",
      "latitude": "49.45000000",
      "longitude": "7.45000000"
   },
   {
      "name": "Nassau",
      "countryCode": "DE",
      "stateCode": "RP",
      "latitude": "50.31453000",
      "longitude": "7.80025000"
   },
   {
      "name": "Nastätten",
      "countryCode": "DE",
      "stateCode": "RP",
      "latitude": "50.19883000",
      "longitude": "7.85892000"
   },
   {
      "name": "Nauort",
      "countryCode": "DE",
      "stateCode": "RP",
      "latitude": "50.46667000",
      "longitude": "7.63333000"
   },
   {
      "name": "Nauroth",
      "countryCode": "DE",
      "stateCode": "RP",
      "latitude": "50.69927000",
      "longitude": "7.87543000"
   },
   {
      "name": "Nentershausen",
      "countryCode": "DE",
      "stateCode": "RP",
      "latitude": "50.41667000",
      "longitude": "7.93333000"
   },
   {
      "name": "Neuburg",
      "countryCode": "DE",
      "stateCode": "RP",
      "latitude": "48.98933000",
      "longitude": "8.24715000"
   },
   {
      "name": "Neuerburg",
      "countryCode": "DE",
      "stateCode": "RP",
      "latitude": "50.00102000",
      "longitude": "6.94828000"
   },
   {
      "name": "Neuhofen",
      "countryCode": "DE",
      "stateCode": "RP",
      "latitude": "49.42778000",
      "longitude": "8.42472000"
   },
   {
      "name": "Neuhäusel",
      "countryCode": "DE",
      "stateCode": "RP",
      "latitude": "50.38360000",
      "longitude": "7.70960000"
   },
   {
      "name": "Neumagen-Dhron",
      "countryCode": "DE",
      "stateCode": "RP",
      "latitude": "49.85553000",
      "longitude": "6.89777000"
   },
   {
      "name": "Neunkhausen",
      "countryCode": "DE",
      "stateCode": "RP",
      "latitude": "50.70722000",
      "longitude": "7.90278000"
   },
   {
      "name": "Neupotz",
      "countryCode": "DE",
      "stateCode": "RP",
      "latitude": "49.11778000",
      "longitude": "8.31944000"
   },
   {
      "name": "Neustadt",
      "countryCode": "DE",
      "stateCode": "RP",
      "latitude": "49.35009000",
      "longitude": "8.13886000"
   },
   {
      "name": "Neuwied",
      "countryCode": "DE",
      "stateCode": "RP",
      "latitude": "50.43360000",
      "longitude": "7.47057000"
   },
   {
      "name": "Newel",
      "countryCode": "DE",
      "stateCode": "RP",
      "latitude": "49.81240000",
      "longitude": "6.58304000"
   },
   {
      "name": "Nickenich",
      "countryCode": "DE",
      "stateCode": "RP",
      "latitude": "50.41421000",
      "longitude": "7.32728000"
   },
   {
      "name": "Nieder-Ingelheim",
      "countryCode": "DE",
      "stateCode": "RP",
      "latitude": "49.97756000",
      "longitude": "8.07246000"
   },
   {
      "name": "Nieder-Olm",
      "countryCode": "DE",
      "stateCode": "RP",
      "latitude": "49.91166000",
      "longitude": "8.20533000"
   },
   {
      "name": "Niederbreitbach",
      "countryCode": "DE",
      "stateCode": "RP",
      "latitude": "50.53051000",
      "longitude": "7.42099000"
   },
   {
      "name": "Niederdreisbach",
      "countryCode": "DE",
      "stateCode": "RP",
      "latitude": "50.74955000",
      "longitude": "7.92352000"
   },
   {
      "name": "Niederdürenbach",
      "countryCode": "DE",
      "stateCode": "RP",
      "latitude": "50.45000000",
      "longitude": "7.18333000"
   },
   {
      "name": "Niederelbert",
      "countryCode": "DE",
      "stateCode": "RP",
      "latitude": "50.40775000",
      "longitude": "7.80990000"
   },
   {
      "name": "Niedererbach",
      "countryCode": "DE",
      "stateCode": "RP",
      "latitude": "50.42610000",
      "longitude": "7.97425000"
   },
   {
      "name": "Niederfell",
      "countryCode": "DE",
      "stateCode": "RP",
      "latitude": "50.28333000",
      "longitude": "7.46667000"
   },
   {
      "name": "Niederfischbach",
      "countryCode": "DE",
      "stateCode": "RP",
      "latitude": "50.85000000",
      "longitude": "7.86667000"
   },
   {
      "name": "Niederkirchen",
      "countryCode": "DE",
      "stateCode": "RP",
      "latitude": "49.58333000",
      "longitude": "7.70000000"
   },
   {
      "name": "Niederkirchen bei Deidesheim",
      "countryCode": "DE",
      "stateCode": "RP",
      "latitude": "49.41500000",
      "longitude": "8.21000000"
   },
   {
      "name": "Niedermohr",
      "countryCode": "DE",
      "stateCode": "RP",
      "latitude": "49.45899000",
      "longitude": "7.46955000"
   },
   {
      "name": "Niederneisen",
      "countryCode": "DE",
      "stateCode": "RP",
      "latitude": "50.33333000",
      "longitude": "8.05000000"
   },
   {
      "name": "Niederwerth",
      "countryCode": "DE",
      "stateCode": "RP",
      "latitude": "50.40000000",
      "longitude": "7.61667000"
   },
   {
      "name": "Niederzissen",
      "countryCode": "DE",
      "stateCode": "RP",
      "latitude": "50.45876000",
      "longitude": "7.21810000"
   },
   {
      "name": "Nierstein",
      "countryCode": "DE",
      "stateCode": "RP",
      "latitude": "49.87003000",
      "longitude": "8.33647000"
   },
   {
      "name": "Nister",
      "countryCode": "DE",
      "stateCode": "RP",
      "latitude": "50.67583000",
      "longitude": "7.83833000"
   },
   {
      "name": "Nittel",
      "countryCode": "DE",
      "stateCode": "RP",
      "latitude": "49.65000000",
      "longitude": "6.45000000"
   },
   {
      "name": "Norheim",
      "countryCode": "DE",
      "stateCode": "RP",
      "latitude": "49.81091000",
      "longitude": "7.81478000"
   },
   {
      "name": "Nörtershausen",
      "countryCode": "DE",
      "stateCode": "RP",
      "latitude": "50.21667000",
      "longitude": "7.48333000"
   },
   {
      "name": "Ober-Flörsheim",
      "countryCode": "DE",
      "stateCode": "RP",
      "latitude": "49.68306000",
      "longitude": "8.15528000"
   },
   {
      "name": "Ober-Olm",
      "countryCode": "DE",
      "stateCode": "RP",
      "latitude": "49.93722000",
      "longitude": "8.18889000"
   },
   {
      "name": "Ober-Saulheim",
      "countryCode": "DE",
      "stateCode": "RP",
      "latitude": "49.86376000",
      "longitude": "8.13526000"
   },
   {
      "name": "Oberelbert",
      "countryCode": "DE",
      "stateCode": "RP",
      "latitude": "50.39167000",
      "longitude": "7.81722000"
   },
   {
      "name": "Oberfell",
      "countryCode": "DE",
      "stateCode": "RP",
      "latitude": "50.26038000",
      "longitude": "7.44461000"
   },
   {
      "name": "Obermoschel",
      "countryCode": "DE",
      "stateCode": "RP",
      "latitude": "49.72797000",
      "longitude": "7.77266000"
   },
   {
      "name": "Obernheim-Kirchenarnbach",
      "countryCode": "DE",
      "stateCode": "RP",
      "latitude": "49.35000000",
      "longitude": "7.58333000"
   },
   {
      "name": "Oberotterbach",
      "countryCode": "DE",
      "stateCode": "RP",
      "latitude": "49.07044000",
      "longitude": "7.96955000"
   },
   {
      "name": "Oberwesel",
      "countryCode": "DE",
      "stateCode": "RP",
      "latitude": "50.10777000",
      "longitude": "7.72522000"
   },
   {
      "name": "Oberzissen",
      "countryCode": "DE",
      "stateCode": "RP",
      "latitude": "50.45000000",
      "longitude": "7.20000000"
   },
   {
      "name": "Obrigheim",
      "countryCode": "DE",
      "stateCode": "RP",
      "latitude": "49.59161000",
      "longitude": "8.20483000"
   },
   {
      "name": "Ochtendung",
      "countryCode": "DE",
      "stateCode": "RP",
      "latitude": "50.35000000",
      "longitude": "7.38333000"
   },
   {
      "name": "Ockenfels",
      "countryCode": "DE",
      "stateCode": "RP",
      "latitude": "50.57610000",
      "longitude": "7.27535000"
   },
   {
      "name": "Ockenheim",
      "countryCode": "DE",
      "stateCode": "RP",
      "latitude": "49.94371000",
      "longitude": "7.97127000"
   },
   {
      "name": "Odernheim",
      "countryCode": "DE",
      "stateCode": "RP",
      "latitude": "49.76511000",
      "longitude": "7.70427000"
   },
   {
      "name": "Offenbach an der Queich",
      "countryCode": "DE",
      "stateCode": "RP",
      "latitude": "49.19546000",
      "longitude": "8.19779000"
   },
   {
      "name": "Offenbach-Hundheim",
      "countryCode": "DE",
      "stateCode": "RP",
      "latitude": "49.61729000",
      "longitude": "7.55117000"
   },
   {
      "name": "Offstein",
      "countryCode": "DE",
      "stateCode": "RP",
      "latitude": "49.60611000",
      "longitude": "8.23806000"
   },
   {
      "name": "Olsbrücken",
      "countryCode": "DE",
      "stateCode": "RP",
      "latitude": "49.53884000",
      "longitude": "7.65857000"
   },
   {
      "name": "Oppenheim",
      "countryCode": "DE",
      "stateCode": "RP",
      "latitude": "49.85470000",
      "longitude": "8.35974000"
   },
   {
      "name": "Orenhofen",
      "countryCode": "DE",
      "stateCode": "RP",
      "latitude": "49.90000000",
      "longitude": "6.65000000"
   },
   {
      "name": "Osann-Monzel",
      "countryCode": "DE",
      "stateCode": "RP",
      "latitude": "49.91667000",
      "longitude": "6.95000000"
   },
   {
      "name": "Osburg",
      "countryCode": "DE",
      "stateCode": "RP",
      "latitude": "49.71667000",
      "longitude": "6.78333000"
   },
   {
      "name": "Osterspai",
      "countryCode": "DE",
      "stateCode": "RP",
      "latitude": "50.24453000",
      "longitude": "7.61227000"
   },
   {
      "name": "Osthofen",
      "countryCode": "DE",
      "stateCode": "RP",
      "latitude": "49.70382000",
      "longitude": "8.32419000"
   },
   {
      "name": "Otterbach",
      "countryCode": "DE",
      "stateCode": "RP",
      "latitude": "49.48554000",
      "longitude": "7.73450000"
   },
   {
      "name": "Otterberg",
      "countryCode": "DE",
      "stateCode": "RP",
      "latitude": "49.50301000",
      "longitude": "7.76995000"
   },
   {
      "name": "Ottersheim",
      "countryCode": "DE",
      "stateCode": "RP",
      "latitude": "49.19129000",
      "longitude": "8.23176000"
   },
   {
      "name": "Otterstadt",
      "countryCode": "DE",
      "stateCode": "RP",
      "latitude": "49.37222000",
      "longitude": "8.44778000"
   },
   {
      "name": "Palzem",
      "countryCode": "DE",
      "stateCode": "RP",
      "latitude": "49.56667000",
      "longitude": "6.36667000"
   },
   {
      "name": "Partenheim",
      "countryCode": "DE",
      "stateCode": "RP",
      "latitude": "49.88389000",
      "longitude": "8.08222000"
   },
   {
      "name": "Pellingen",
      "countryCode": "DE",
      "stateCode": "RP",
      "latitude": "49.67552000",
      "longitude": "6.67085000"
   },
   {
      "name": "Pelm",
      "countryCode": "DE",
      "stateCode": "RP",
      "latitude": "50.23188000",
      "longitude": "6.69076000"
   },
   {
      "name": "Pfaffen-Schwabenheim",
      "countryCode": "DE",
      "stateCode": "RP",
      "latitude": "49.85000000",
      "longitude": "7.95000000"
   },
   {
      "name": "Pfeffelbach",
      "countryCode": "DE",
      "stateCode": "RP",
      "latitude": "49.53948000",
      "longitude": "7.32768000"
   },
   {
      "name": "Piesport",
      "countryCode": "DE",
      "stateCode": "RP",
      "latitude": "49.88640000",
      "longitude": "6.91649000"
   },
   {
      "name": "Pirmasens",
      "countryCode": "DE",
      "stateCode": "RP",
      "latitude": "49.20145000",
      "longitude": "7.60529000"
   },
   {
      "name": "Plaidt",
      "countryCode": "DE",
      "stateCode": "RP",
      "latitude": "50.39260000",
      "longitude": "7.39251000"
   },
   {
      "name": "Pluwig",
      "countryCode": "DE",
      "stateCode": "RP",
      "latitude": "49.68976000",
      "longitude": "6.71239000"
   },
   {
      "name": "Polch",
      "countryCode": "DE",
      "stateCode": "RP",
      "latitude": "50.29973000",
      "longitude": "7.31315000"
   },
   {
      "name": "Pottum",
      "countryCode": "DE",
      "stateCode": "RP",
      "latitude": "50.60000000",
      "longitude": "8.00000000"
   },
   {
      "name": "Pracht",
      "countryCode": "DE",
      "stateCode": "RP",
      "latitude": "50.76031000",
      "longitude": "7.64871000"
   },
   {
      "name": "Prüm",
      "countryCode": "DE",
      "stateCode": "RP",
      "latitude": "50.20785000",
      "longitude": "6.42019000"
   },
   {
      "name": "Puderbach",
      "countryCode": "DE",
      "stateCode": "RP",
      "latitude": "50.60000000",
      "longitude": "7.61667000"
   },
   {
      "name": "Queidersbach",
      "countryCode": "DE",
      "stateCode": "RP",
      "latitude": "49.36667000",
      "longitude": "7.63333000"
   },
   {
      "name": "Ralingen",
      "countryCode": "DE",
      "stateCode": "RP",
      "latitude": "49.81667000",
      "longitude": "6.50000000"
   },
   {
      "name": "Ramberg",
      "countryCode": "DE",
      "stateCode": "RP",
      "latitude": "49.26028000",
      "longitude": "8.00833000"
   },
   {
      "name": "Rammelsbach",
      "countryCode": "DE",
      "stateCode": "RP",
      "latitude": "49.54170000",
      "longitude": "7.44392000"
   },
   {
      "name": "Ramsen",
      "countryCode": "DE",
      "stateCode": "RP",
      "latitude": "49.53694000",
      "longitude": "8.01333000"
   },
   {
      "name": "Ramstein-Miesenbach",
      "countryCode": "DE",
      "stateCode": "RP",
      "latitude": "49.44452000",
      "longitude": "7.55533000"
   },
   {
      "name": "Ransbach-Baumbach",
      "countryCode": "DE",
      "stateCode": "RP",
      "latitude": "50.46496000",
      "longitude": "7.72830000"
   },
   {
      "name": "Raubach",
      "countryCode": "DE",
      "stateCode": "RP",
      "latitude": "50.57489000",
      "longitude": "7.62496000"
   },
   {
      "name": "Rehe",
      "countryCode": "DE",
      "stateCode": "RP",
      "latitude": "50.63333000",
      "longitude": "8.11667000"
   },
   {
      "name": "Reichenbach-Steegen",
      "countryCode": "DE",
      "stateCode": "RP",
      "latitude": "49.50000000",
      "longitude": "7.55000000"
   },
   {
      "name": "Reil",
      "countryCode": "DE",
      "stateCode": "RP",
      "latitude": "50.01667000",
      "longitude": "7.11667000"
   },
   {
      "name": "Reinsfeld",
      "countryCode": "DE",
      "stateCode": "RP",
      "latitude": "49.68333000",
      "longitude": "6.88333000"
   },
   {
      "name": "Remagen",
      "countryCode": "DE",
      "stateCode": "RP",
      "latitude": "50.57879000",
      "longitude": "7.22703000"
   },
   {
      "name": "Rengsdorf",
      "countryCode": "DE",
      "stateCode": "RP",
      "latitude": "50.50000000",
      "longitude": "7.50000000"
   },
   {
      "name": "Rennerod",
      "countryCode": "DE",
      "stateCode": "RP",
      "latitude": "50.60820000",
      "longitude": "8.06697000"
   },
   {
      "name": "Rhaunen",
      "countryCode": "DE",
      "stateCode": "RP",
      "latitude": "49.86380000",
      "longitude": "7.34198000"
   },
   {
      "name": "Rheinbreitbach",
      "countryCode": "DE",
      "stateCode": "RP",
      "latitude": "50.61667000",
      "longitude": "7.23333000"
   },
   {
      "name": "Rheinbrohl",
      "countryCode": "DE",
      "stateCode": "RP",
      "latitude": "50.50000000",
      "longitude": "7.33333000"
   },
   {
      "name": "Rheinböllen",
      "countryCode": "DE",
      "stateCode": "RP",
      "latitude": "50.01127000",
      "longitude": "7.67249000"
   },
   {
      "name": "Rheinzabern",
      "countryCode": "DE",
      "stateCode": "RP",
      "latitude": "49.11806000",
      "longitude": "8.27806000"
   },
   {
      "name": "Rhens",
      "countryCode": "DE",
      "stateCode": "RP",
      "latitude": "50.28125000",
      "longitude": "7.61750000"
   },
   {
      "name": "Rhodt unter Rietburg",
      "countryCode": "DE",
      "stateCode": "RP",
      "latitude": "49.26972000",
      "longitude": "8.10778000"
   },
   {
      "name": "Rieden",
      "countryCode": "DE",
      "stateCode": "RP",
      "latitude": "50.40000000",
      "longitude": "7.18333000"
   },
   {
      "name": "Rieschweiler-Mühlbach",
      "countryCode": "DE",
      "stateCode": "RP",
      "latitude": "49.23333000",
      "longitude": "7.50000000"
   },
   {
      "name": "Rimschweiler",
      "countryCode": "DE",
      "stateCode": "RP",
      "latitude": "49.21880000",
      "longitude": "7.37571000"
   },
   {
      "name": "Riol",
      "countryCode": "DE",
      "stateCode": "RP",
      "latitude": "49.79301000",
      "longitude": "6.79211000"
   },
   {
      "name": "Rittersdorf",
      "countryCode": "DE",
      "stateCode": "RP",
      "latitude": "50.00000000",
      "longitude": "6.50000000"
   },
   {
      "name": "Rockenhausen",
      "countryCode": "DE",
      "stateCode": "RP",
      "latitude": "49.62974000",
      "longitude": "7.82134000"
   },
   {
      "name": "Rodalben",
      "countryCode": "DE",
      "stateCode": "RP",
      "latitude": "49.23940000",
      "longitude": "7.63962000"
   },
   {
      "name": "Rodenbach",
      "countryCode": "DE",
      "stateCode": "RP",
      "latitude": "49.57414000",
      "longitude": "8.10695000"
   },
   {
      "name": "Rohrbach",
      "countryCode": "DE",
      "stateCode": "RP",
      "latitude": "49.13667000",
      "longitude": "8.12861000"
   },
   {
      "name": "Roth",
      "countryCode": "DE",
      "stateCode": "RP",
      "latitude": "50.76230000",
      "longitude": "7.70016000"
   },
   {
      "name": "Roxheim",
      "countryCode": "DE",
      "stateCode": "RP",
      "latitude": "49.86374000",
      "longitude": "7.80980000"
   },
   {
      "name": "Ruppach-Goldhausen",
      "countryCode": "DE",
      "stateCode": "RP",
      "latitude": "50.46667000",
      "longitude": "7.88333000"
   },
   {
      "name": "Ruppertsberg",
      "countryCode": "DE",
      "stateCode": "RP",
      "latitude": "49.40028000",
      "longitude": "8.19611000"
   },
   {
      "name": "Ruppertsweiler",
      "countryCode": "DE",
      "stateCode": "RP",
      "latitude": "49.19707000",
      "longitude": "7.68957000"
   },
   {
      "name": "Rödersheim-Gronau",
      "countryCode": "DE",
      "stateCode": "RP",
      "latitude": "49.43000000",
      "longitude": "8.26139000"
   },
   {
      "name": "Rüdesheim",
      "countryCode": "DE",
      "stateCode": "RP",
      "latitude": "49.84546000",
      "longitude": "7.81452000"
   },
   {
      "name": "Rülzheim",
      "countryCode": "DE",
      "stateCode": "RP",
      "latitude": "49.15312000",
      "longitude": "8.29287000"
   },
   {
      "name": "Rümmelsheim",
      "countryCode": "DE",
      "stateCode": "RP",
      "latitude": "49.93307000",
      "longitude": "7.85977000"
   },
   {
      "name": "Saarburg",
      "countryCode": "DE",
      "stateCode": "RP",
      "latitude": "49.60641000",
      "longitude": "6.54365000"
   },
   {
      "name": "Saffig",
      "countryCode": "DE",
      "stateCode": "RP",
      "latitude": "50.38333000",
      "longitude": "7.41667000"
   },
   {
      "name": "Salmtal",
      "countryCode": "DE",
      "stateCode": "RP",
      "latitude": "49.93333000",
      "longitude": "6.85000000"
   },
   {
      "name": "Sankt Goar",
      "countryCode": "DE",
      "stateCode": "RP",
      "latitude": "50.14878000",
      "longitude": "7.70720000"
   },
   {
      "name": "Sankt Goarshausen",
      "countryCode": "DE",
      "stateCode": "RP",
      "latitude": "50.15839000",
      "longitude": "7.71374000"
   },
   {
      "name": "Sankt Julian",
      "countryCode": "DE",
      "stateCode": "RP",
      "latitude": "49.61667000",
      "longitude": "7.51667000"
   },
   {
      "name": "Sankt Katharinen",
      "countryCode": "DE",
      "stateCode": "RP",
      "latitude": "50.58333000",
      "longitude": "7.38333000"
   },
   {
      "name": "Sankt Martin",
      "countryCode": "DE",
      "stateCode": "RP",
      "latitude": "49.30028000",
      "longitude": "8.10528000"
   },
   {
      "name": "Sankt Sebastian",
      "countryCode": "DE",
      "stateCode": "RP",
      "latitude": "50.41077000",
      "longitude": "7.56175000"
   },
   {
      "name": "Scheuerfeld",
      "countryCode": "DE",
      "stateCode": "RP",
      "latitude": "50.78736000",
      "longitude": "7.84128000"
   },
   {
      "name": "Schifferstadt",
      "countryCode": "DE",
      "stateCode": "RP",
      "latitude": "49.38417000",
      "longitude": "8.37750000"
   },
   {
      "name": "Schillingen",
      "countryCode": "DE",
      "stateCode": "RP",
      "latitude": "49.63333000",
      "longitude": "6.78333000"
   },
   {
      "name": "Schopp",
      "countryCode": "DE",
      "stateCode": "RP",
      "latitude": "49.35000000",
      "longitude": "7.68333000"
   },
   {
      "name": "Schornsheim",
      "countryCode": "DE",
      "stateCode": "RP",
      "latitude": "49.84583000",
      "longitude": "8.17500000"
   },
   {
      "name": "Schwabenheim",
      "countryCode": "DE",
      "stateCode": "RP",
      "latitude": "49.92879000",
      "longitude": "8.09525000"
   },
   {
      "name": "Schwedelbach",
      "countryCode": "DE",
      "stateCode": "RP",
      "latitude": "49.49557000",
      "longitude": "7.59366000"
   },
   {
      "name": "Schwegenheim",
      "countryCode": "DE",
      "stateCode": "RP",
      "latitude": "49.27000000",
      "longitude": "8.32861000"
   },
   {
      "name": "Schweich",
      "countryCode": "DE",
      "stateCode": "RP",
      "latitude": "49.82215000",
      "longitude": "6.75256000"
   },
   {
      "name": "Schweigen-Rechtenbach",
      "countryCode": "DE",
      "stateCode": "RP",
      "latitude": "49.05314000",
      "longitude": "7.95638000"
   },
   {
      "name": "Schönecken",
      "countryCode": "DE",
      "stateCode": "RP",
      "latitude": "50.15909000",
      "longitude": "6.46820000"
   },
   {
      "name": "Schönenberg-Kübelberg",
      "countryCode": "DE",
      "stateCode": "RP",
      "latitude": "49.40740000",
      "longitude": "7.37233000"
   },
   {
      "name": "Seck",
      "countryCode": "DE",
      "stateCode": "RP",
      "latitude": "50.57722000",
      "longitude": "8.04972000"
   },
   {
      "name": "Seibersbach",
      "countryCode": "DE",
      "stateCode": "RP",
      "latitude": "49.96667000",
      "longitude": "7.71667000"
   },
   {
      "name": "Selters",
      "countryCode": "DE",
      "stateCode": "RP",
      "latitude": "50.53253000",
      "longitude": "7.75577000"
   },
   {
      "name": "Selzen",
      "countryCode": "DE",
      "stateCode": "RP",
      "latitude": "49.86056000",
      "longitude": "8.25528000"
   },
   {
      "name": "Sembach",
      "countryCode": "DE",
      "stateCode": "RP",
      "latitude": "49.51177000",
      "longitude": "7.86661000"
   },
   {
      "name": "Serrig",
      "countryCode": "DE",
      "stateCode": "RP",
      "latitude": "49.57519000",
      "longitude": "6.57454000"
   },
   {
      "name": "Siebeldingen",
      "countryCode": "DE",
      "stateCode": "RP",
      "latitude": "49.20889000",
      "longitude": "8.05139000"
   },
   {
      "name": "Siefersheim",
      "countryCode": "DE",
      "stateCode": "RP",
      "latitude": "49.80000000",
      "longitude": "7.95000000"
   },
   {
      "name": "Siershahn",
      "countryCode": "DE",
      "stateCode": "RP",
      "latitude": "50.48639000",
      "longitude": "7.77972000"
   },
   {
      "name": "Simmern",
      "countryCode": "DE",
      "stateCode": "RP",
      "latitude": "49.98198000",
      "longitude": "7.52351000"
   },
   {
      "name": "Simmertal",
      "countryCode": "DE",
      "stateCode": "RP",
      "latitude": "49.80981000",
      "longitude": "7.52282000"
   },
   {
      "name": "Singhofen",
      "countryCode": "DE",
      "stateCode": "RP",
      "latitude": "50.27440000",
      "longitude": "7.83333000"
   },
   {
      "name": "Sinzig",
      "countryCode": "DE",
      "stateCode": "RP",
      "latitude": "50.54384000",
      "longitude": "7.24639000"
   },
   {
      "name": "Sippersfeld",
      "countryCode": "DE",
      "stateCode": "RP",
      "latitude": "49.55000000",
      "longitude": "7.93333000"
   },
   {
      "name": "Sohren",
      "countryCode": "DE",
      "stateCode": "RP",
      "latitude": "49.93333000",
      "longitude": "7.31667000"
   },
   {
      "name": "Spabrücken",
      "countryCode": "DE",
      "stateCode": "RP",
      "latitude": "49.90000000",
      "longitude": "7.71667000"
   },
   {
      "name": "Spay",
      "countryCode": "DE",
      "stateCode": "RP",
      "latitude": "50.25881000",
      "longitude": "7.64839000"
   },
   {
      "name": "Speicher",
      "countryCode": "DE",
      "stateCode": "RP",
      "latitude": "49.93333000",
      "longitude": "6.63333000"
   },
   {
      "name": "Speyer",
      "countryCode": "DE",
      "stateCode": "RP",
      "latitude": "49.32083000",
      "longitude": "8.43111000"
   },
   {
      "name": "Spiesheim",
      "countryCode": "DE",
      "stateCode": "RP",
      "latitude": "49.81028000",
      "longitude": "8.12750000"
   },
   {
      "name": "Sprendlingen",
      "countryCode": "DE",
      "stateCode": "RP",
      "latitude": "49.86667000",
      "longitude": "7.98333000"
   },
   {
      "name": "Stadecken-Elsheim",
      "countryCode": "DE",
      "stateCode": "RP",
      "latitude": "49.91222000",
      "longitude": "8.12528000"
   },
   {
      "name": "Stadtkyll",
      "countryCode": "DE",
      "stateCode": "RP",
      "latitude": "50.35000000",
      "longitude": "6.53333000"
   },
   {
      "name": "Staudernheim",
      "countryCode": "DE",
      "stateCode": "RP",
      "latitude": "49.77675000",
      "longitude": "7.68890000"
   },
   {
      "name": "Steimel",
      "countryCode": "DE",
      "stateCode": "RP",
      "latitude": "50.61667000",
      "longitude": "7.63333000"
   },
   {
      "name": "Steinfeld",
      "countryCode": "DE",
      "stateCode": "RP",
      "latitude": "49.04833000",
      "longitude": "8.03694000"
   },
   {
      "name": "Steinweiler",
      "countryCode": "DE",
      "stateCode": "RP",
      "latitude": "49.12111000",
      "longitude": "8.14139000"
   },
   {
      "name": "Steinwenden",
      "countryCode": "DE",
      "stateCode": "RP",
      "latitude": "49.45708000",
      "longitude": "7.52726000"
   },
   {
      "name": "Stelzenberg",
      "countryCode": "DE",
      "stateCode": "RP",
      "latitude": "49.37756000",
      "longitude": "7.73814000"
   },
   {
      "name": "Stromberg",
      "countryCode": "DE",
      "stateCode": "RP",
      "latitude": "50.45779000",
      "longitude": "7.60041000"
   },
   {
      "name": "Sulzheim",
      "countryCode": "DE",
      "stateCode": "RP",
      "latitude": "49.84306000",
      "longitude": "8.09167000"
   },
   {
      "name": "Sörgenloch",
      "countryCode": "DE",
      "stateCode": "RP",
      "latitude": "49.88306000",
      "longitude": "8.20111000"
   },
   {
      "name": "Tawern",
      "countryCode": "DE",
      "stateCode": "RP",
      "latitude": "49.66667000",
      "longitude": "6.51667000"
   },
   {
      "name": "Thaleischweiler-Fröschen",
      "countryCode": "DE",
      "stateCode": "RP",
      "latitude": "49.26667000",
      "longitude": "7.58333000"
   },
   {
      "name": "Thalfang",
      "countryCode": "DE",
      "stateCode": "RP",
      "latitude": "49.75000000",
      "longitude": "7.00000000"
   },
   {
      "name": "Thomm",
      "countryCode": "DE",
      "stateCode": "RP",
      "latitude": "49.74140000",
      "longitude": "6.80492000"
   },
   {
      "name": "Thür",
      "countryCode": "DE",
      "stateCode": "RP",
      "latitude": "50.35692000",
      "longitude": "7.27689000"
   },
   {
      "name": "Traben-Trarbach",
      "countryCode": "DE",
      "stateCode": "RP",
      "latitude": "49.95076000",
      "longitude": "7.11562000"
   },
   {
      "name": "Trassem",
      "countryCode": "DE",
      "stateCode": "RP",
      "latitude": "49.57849000",
      "longitude": "6.52540000"
   },
   {
      "name": "Trechtingshausen",
      "countryCode": "DE",
      "stateCode": "RP",
      "latitude": "50.01031000",
      "longitude": "7.84709000"
   },
   {
      "name": "Treis-Karden",
      "countryCode": "DE",
      "stateCode": "RP",
      "latitude": "50.17174000",
      "longitude": "7.30218000"
   },
   {
      "name": "Trier",
      "countryCode": "DE",
      "stateCode": "RP",
      "latitude": "49.75565000",
      "longitude": "6.63935000"
   },
   {
      "name": "Trierweiler",
      "countryCode": "DE",
      "stateCode": "RP",
      "latitude": "49.76231000",
      "longitude": "6.55987000"
   },
   {
      "name": "Trippstadt",
      "countryCode": "DE",
      "stateCode": "RP",
      "latitude": "49.35935000",
      "longitude": "7.77480000"
   },
   {
      "name": "Trittenheim",
      "countryCode": "DE",
      "stateCode": "RP",
      "latitude": "49.82471000",
      "longitude": "6.89929000"
   },
   {
      "name": "Trulben",
      "countryCode": "DE",
      "stateCode": "RP",
      "latitude": "49.13916000",
      "longitude": "7.54370000"
   },
   {
      "name": "Udenheim",
      "countryCode": "DE",
      "stateCode": "RP",
      "latitude": "49.86472000",
      "longitude": "8.17167000"
   },
   {
      "name": "Uelversheim",
      "countryCode": "DE",
      "stateCode": "RP",
      "latitude": "49.81000000",
      "longitude": "8.28861000"
   },
   {
      "name": "Ulmen",
      "countryCode": "DE",
      "stateCode": "RP",
      "latitude": "50.20943000",
      "longitude": "6.97941000"
   },
   {
      "name": "Undenheim",
      "countryCode": "DE",
      "stateCode": "RP",
      "latitude": "49.83806000",
      "longitude": "8.21889000"
   },
   {
      "name": "Unkel",
      "countryCode": "DE",
      "stateCode": "RP",
      "latitude": "50.59653000",
      "longitude": "7.21888000"
   },
   {
      "name": "Unnau",
      "countryCode": "DE",
      "stateCode": "RP",
      "latitude": "50.64881000",
      "longitude": "7.90827000"
   },
   {
      "name": "Urbach-Überdorf",
      "countryCode": "DE",
      "stateCode": "RP",
      "latitude": "50.55690000",
      "longitude": "7.58695000"
   },
   {
      "name": "Urbar",
      "countryCode": "DE",
      "stateCode": "RP",
      "latitude": "50.38333000",
      "longitude": "7.63333000"
   },
   {
      "name": "Urmitz",
      "countryCode": "DE",
      "stateCode": "RP",
      "latitude": "50.41667000",
      "longitude": "7.51667000"
   },
   {
      "name": "Vallendar",
      "countryCode": "DE",
      "stateCode": "RP",
      "latitude": "50.39586000",
      "longitude": "7.62427000"
   },
   {
      "name": "Vettelschoß",
      "countryCode": "DE",
      "stateCode": "RP",
      "latitude": "50.61667000",
      "longitude": "7.35000000"
   },
   {
      "name": "Vinningen",
      "countryCode": "DE",
      "stateCode": "RP",
      "latitude": "49.15635000",
      "longitude": "7.55191000"
   },
   {
      "name": "Volxheim",
      "countryCode": "DE",
      "stateCode": "RP",
      "latitude": "49.81667000",
      "longitude": "7.93333000"
   },
   {
      "name": "Wachenheim",
      "countryCode": "DE",
      "stateCode": "RP",
      "latitude": "49.44045000",
      "longitude": "8.18041000"
   },
   {
      "name": "Wackernheim",
      "countryCode": "DE",
      "stateCode": "RP",
      "latitude": "49.97444000",
      "longitude": "8.11667000"
   },
   {
      "name": "Waldalgesheim",
      "countryCode": "DE",
      "stateCode": "RP",
      "latitude": "49.95000000",
      "longitude": "7.83333000"
   },
   {
      "name": "Waldbreitbach",
      "countryCode": "DE",
      "stateCode": "RP",
      "latitude": "50.55000000",
      "longitude": "7.41667000"
   },
   {
      "name": "Waldböckelheim",
      "countryCode": "DE",
      "stateCode": "RP",
      "latitude": "49.81667000",
      "longitude": "7.71667000"
   },
   {
      "name": "Waldfischbach-Burgalben",
      "countryCode": "DE",
      "stateCode": "RP",
      "latitude": "49.28333000",
      "longitude": "7.66667000"
   },
   {
      "name": "Waldmohr",
      "countryCode": "DE",
      "stateCode": "RP",
      "latitude": "49.38333000",
      "longitude": "7.33333000"
   },
   {
      "name": "Waldrach",
      "countryCode": "DE",
      "stateCode": "RP",
      "latitude": "49.74623000",
      "longitude": "6.74543000"
   },
   {
      "name": "Waldsee",
      "countryCode": "DE",
      "stateCode": "RP",
      "latitude": "49.39528000",
      "longitude": "8.44028000"
   },
   {
      "name": "Wallertheim",
      "countryCode": "DE",
      "stateCode": "RP",
      "latitude": "49.83556000",
      "longitude": "8.05139000"
   },
   {
      "name": "Wallhausen",
      "countryCode": "DE",
      "stateCode": "RP",
      "latitude": "49.88333000",
      "longitude": "7.76667000"
   },
   {
      "name": "Wallmenroth",
      "countryCode": "DE",
      "stateCode": "RP",
      "latitude": "50.80000000",
      "longitude": "7.83333000"
   },
   {
      "name": "Wallmerod",
      "countryCode": "DE",
      "stateCode": "RP",
      "latitude": "50.48333000",
      "longitude": "7.95000000"
   },
   {
      "name": "Wassenach",
      "countryCode": "DE",
      "stateCode": "RP",
      "latitude": "50.43333000",
      "longitude": "7.28333000"
   },
   {
      "name": "Wasserliesch",
      "countryCode": "DE",
      "stateCode": "RP",
      "latitude": "49.70739000",
      "longitude": "6.53944000"
   },