[
   {
      "name": "Amphoe Ban Dan",
      "countryCode": "TH",
      "stateCode": "31",
      "latitude": "15.12363000",
      "longitude": "103.18937000"
   },
   {
      "name": "Amphoe Ban Kruat",
      "countryCode": "TH",
      "stateCode": "31",
      "latitude": "14.39205000",
      "longitude": "103.11494000"
   },
   {
      "name": "Amphoe Ban Mai Chaiyaphot",
      "countryCode": "TH",
      "stateCode": "31",
      "latitude": "15.57857000",
      "longitude": "102.84394000"
   },
   {
      "name": "Amphoe Chaloem Phra Kiat",
      "countryCode": "TH",
      "stateCode": "31",
      "latitude": "14.55725000",
      "longitude": "102.89878000"
   },
   {
      "name": "Amphoe Chamni",
      "countryCode": "TH",
      "stateCode": "31",
      "latitude": "14.78636000",
      "longitude": "102.85386000"
   },
   {
      "name": "Amphoe Huai Rat",
      "countryCode": "TH",
      "stateCode": "31",
      "latitude": "15.00896000",
      "longitude": "103.23499000"
   },
   {
      "name": "Amphoe Khaen Dong",
      "countryCode": "TH",
      "stateCode": "31",
      "latitude": "15.30620000",
      "longitude": "103.13286000"
   },
   {
      "name": "Amphoe Khu Mueang",
      "countryCode": "TH",
      "stateCode": "31",
      "latitude": "15.26844000",
      "longitude": "103.02717000"
   },
   {
      "name": "Amphoe Krasang",
      "countryCode": "TH",
      "stateCode": "31",
      "latitude": "14.94167000",
      "longitude": "103.31898000"
   },
   {
      "name": "Amphoe Lahan Sai",
      "countryCode": "TH",
      "stateCode": "31",
      "latitude": "14.32194000",
      "longitude": "102.87994000"
   },
   {
      "name": "Amphoe Lam Plai Mat",
      "countryCode": "TH",
      "stateCode": "31",
      "latitude": "15.01688000",
      "longitude": "102.87479000"
   },
   {
      "name": "Amphoe Mueang Buriram",
      "countryCode": "TH",
      "stateCode": "31",
      "latitude": "14.94078000",
      "longitude": "103.06244000"
   },
   {
      "name": "Amphoe Na Pho",
      "countryCode": "TH",
      "stateCode": "31",
      "latitude": "15.69565000",
      "longitude": "102.93857000"
   },
   {
      "name": "Amphoe Nang Rong",
      "countryCode": "TH",
      "stateCode": "31",
      "latitude": "14.63333000",
      "longitude": "102.76667000"
   },
   {
      "name": "Amphoe Non Din Daeng",
      "countryCode": "TH",
      "stateCode": "31",
      "latitude": "14.22010000",
      "longitude": "102.68233000"
   },
   {
      "name": "Amphoe Non Suwan",
      "countryCode": "TH",
      "stateCode": "31",
      "latitude": "14.55511000",
      "longitude": "102.58339000"
   },
   {
      "name": "Amphoe Nong Hong",
      "countryCode": "TH",
      "stateCode": "31",
      "latitude": "14.86149000",
      "longitude": "102.67080000"
   },
   {
      "name": "Amphoe Nong Ki",
      "countryCode": "TH",
      "stateCode": "31",
      "latitude": "14.72696000",
      "longitude": "102.55798000"
   },
   {
      "name": "Amphoe Pa Kham",
      "countryCode": "TH",
      "stateCode": "31",
      "latitude": "14.40000000",
      "longitude": "102.66667000"
   },
   {
      "name": "Amphoe Phlapphla Chai",
      "countryCode": "TH",
      "stateCode": "31",
      "latitude": "14.73299000",
      "longitude": "103.17015000"
   },
   {
      "name": "Amphoe Phutthaisong",
      "countryCode": "TH",
      "stateCode": "31",
      "latitude": "15.53249000",
      "longitude": "102.98701000"
   },
   {
      "name": "Amphoe Prakhon Chai",
      "countryCode": "TH",
      "stateCode": "31",
      "latitude": "14.61041000",
      "longitude": "103.06054000"
   },
   {
      "name": "Amphoe Satuek",
      "countryCode": "TH",
      "stateCode": "31",
      "latitude": "15.22699000",
      "longitude": "103.33006000"
   },
   {
      "name": "Buri Ram",
      "countryCode": "TH",
      "stateCode": "31",
      "latitude": "14.99433000",
      "longitude": "103.10392000"
   },
   {
      "name": "Nang Rong",
      "countryCode": "TH",
      "stateCode": "31",
      "latitude": "14.63770000",
      "longitude": "102.79138000"
   },
   {
      "name": "Nong Ki",
      "countryCode": "TH",
      "stateCode": "31",
      "latitude": "14.68679000",
      "longitude": "102.53800000"
   },
   {
      "name": "Prakhon Chai",
      "countryCode": "TH",
      "stateCode": "31",
      "latitude": "14.60592000",
      "longitude": "103.12081000"
   },
   {
      "name": "Satuek",
      "countryCode": "TH",
      "stateCode": "31",
      "latitude": "15.29703000",
      "longitude": "103.29192000"
   }
]