[
   {
      "name": "Banes",
      "countryCode": "CU",
      "stateCode": "11",
      "latitude": "20.96116000",
      "longitude": "-75.72200000"
   },
   {
      "name": "Cacocum",
      "countryCode": "CU",
      "stateCode": "11",
      "latitude": "20.73775000",
      "longitude": "-76.32574000"
   },
   {
      "name": "Cueto",
      "countryCode": "CU",
      "stateCode": "11",
      "latitude": "20.64855000",
      "longitude": "-75.92967000"
   },
   {
      "name": "Gibara",
      "countryCode": "CU",
      "stateCode": "11",
      "latitude": "21.10988000",
      "longitude": "-76.13145000"
   },
   {
      "name": "Holguín",
      "countryCode": "CU",
      "stateCode": "11",
      "latitude": "20.88722000",
      "longitude": "-76.26306000"
   },
   {
      "name": "Jobabo",
      "countryCode": "CU",
      "stateCode": "11",
      "latitude": "20.96917000",
      "longitude": "-76.29944000"
   },
   {
      "name": "Moa",
      "countryCode": "CU",
      "stateCode": "11",
      "latitude": "20.65776000",
      "longitude": "-74.95075000"
   },
   {
      "name": "Municipio de Banes",
      "countryCode": "CU",
      "stateCode": "11",
      "latitude": "20.98008000",
      "longitude": "-75.74933000"
   },
   {
      "name": "Municipio de Holguín",
      "countryCode": "CU",
      "stateCode": "11",
      "latitude": "20.91192000",
      "longitude": "-76.27057000"
   },
   {
      "name": "Sagua de Tánamo",
      "countryCode": "CU",
      "stateCode": "11",
      "latitude": "20.58269000",
      "longitude": "-75.24116000"
   },
   {
      "name": "San Germán",
      "countryCode": "CU",
      "stateCode": "11",
      "latitude": "20.60009000",
      "longitude": "-76.13364000"
   }
]