[
   {
      "name": "Albufeira",
      "countryCode": "PT",
      "stateCode": "08",
      "latitude": "37.08819000",
      "longitude": "-8.25030000"
   },
   {
      "name": "Alcantarilha",
      "countryCode": "PT",
      "stateCode": "08",
      "latitude": "37.13044000",
      "longitude": "-8.34623000"
   },
   {
      "name": "Alcoutim",
      "countryCode": "PT",
      "stateCode": "08",
      "latitude": "37.42400000",
      "longitude": "-7.65456000"
   },
   {
      "name": "Algoz",
      "countryCode": "PT",
      "stateCode": "08",
      "latitude": "37.16301000",
      "longitude": "-8.30359000"
   },
   {
      "name": "Aljezur",
      "countryCode": "PT",
      "stateCode": "08",
      "latitude": "37.31745000",
      "longitude": "-8.80147000"
   },
   {
      "name": "Almancil",
      "countryCode": "PT",
      "stateCode": "08",
      "latitude": "37.08686000",
      "longitude": "-8.03074000"
   },
   {
      "name": "Altura",
      "countryCode": "PT",
      "stateCode": "08",
      "latitude": "37.17560000",
      "longitude": "-7.50064000"
   },
   {
      "name": "Alvor",
      "countryCode": "PT",
      "stateCode": "08",
      "latitude": "37.12994000",
      "longitude": "-8.59174000"
   },
   {
      "name": "Armação de Pêra",
      "countryCode": "PT",
      "stateCode": "08",
      "latitude": "37.10256000",
      "longitude": "-8.35695000"
   },
   {
      "name": "Bensafrim",
      "countryCode": "PT",
      "stateCode": "08",
      "latitude": "37.15583000",
      "longitude": "-8.73520000"
   },
   {
      "name": "Boliqueime",
      "countryCode": "PT",
      "stateCode": "08",
      "latitude": "37.13718000",
      "longitude": "-8.15820000"
   },
   {
      "name": "Cabanas de Tavira",
      "countryCode": "PT",
      "stateCode": "08",
      "latitude": "37.13521000",
      "longitude": "-7.60048000"
   },
   {
      "name": "Carvoeiro",
      "countryCode": "PT",
      "stateCode": "08",
      "latitude": "37.09736000",
      "longitude": "-8.46846000"
   },
   {
      "name": "Castro Marim",
      "countryCode": "PT",
      "stateCode": "08",
      "latitude": "37.25865000",
      "longitude": "-7.50732000"
   },
   {
      "name": "Conceição",
      "countryCode": "PT",
      "stateCode": "08",
      "latitude": "37.14789000",
      "longitude": "-7.60426000"
   },
   {
      "name": "Estói",
      "countryCode": "PT",
      "stateCode": "08",
      "latitude": "37.09503000",
      "longitude": "-7.89445000"
   },
   {
      "name": "Estômbar",
      "countryCode": "PT",
      "stateCode": "08",
      "latitude": "37.14629000",
      "longitude": "-8.48505000"
   },
   {
      "name": "Faro",
      "countryCode": "PT",
      "stateCode": "08",
      "latitude": "37.01869000",
      "longitude": "-7.92716000"
   },
   {
      "name": "Ferragudo",
      "countryCode": "PT",
      "stateCode": "08",
      "latitude": "37.12474000",
      "longitude": "-8.51915000"
   },
   {
      "name": "Ferreiras",
      "countryCode": "PT",
      "stateCode": "08",
      "latitude": "37.12926000",
      "longitude": "-8.23759000"
   },
   {
      "name": "Fuzeta",
      "countryCode": "PT",
      "stateCode": "08",
      "latitude": "37.05429000",
      "longitude": "-7.74699000"
   },
   {
      "name": "Guia",
      "countryCode": "PT",
      "stateCode": "08",
      "latitude": "37.12959000",
      "longitude": "-8.29963000"
   },
   {
      "name": "Lagoa",
      "countryCode": "PT",
      "stateCode": "08",
      "latitude": "37.10505000",
      "longitude": "-8.45974000"
   },
   {
      "name": "Lagos",
      "countryCode": "PT",
      "stateCode": "08",
      "latitude": "37.10202000",
      "longitude": "-8.67422000"
   },
   {
      "name": "Laranjeiro",
      "countryCode": "PT",
      "stateCode": "08",
      "latitude": "37.06799000",
      "longitude": "-7.80780000"
   },
   {
      "name": "Loulé",
      "countryCode": "PT",
      "stateCode": "08",
      "latitude": "37.14399000",
      "longitude": "-8.02345000"
   },
   {
      "name": "Luz",
      "countryCode": "PT",
      "stateCode": "08",
      "latitude": "37.09216000",
      "longitude": "-7.70433000"
   },
   {
      "name": "Manta Rota",
      "countryCode": "PT",
      "stateCode": "08",
      "latitude": "37.16849000",
      "longitude": "-7.51804000"
   },
   {
      "name": "Marmelete",
      "countryCode": "PT",
      "stateCode": "08",
      "latitude": "37.31014000",
      "longitude": "-8.66813000"
   },
   {
      "name": "Mexilhoeira Grande",
      "countryCode": "PT",
      "stateCode": "08",
      "latitude": "37.15858000",
      "longitude": "-8.61487000"
   },
   {
      "name": "Moncarapacho",
      "countryCode": "PT",
      "stateCode": "08",
      "latitude": "37.08360000",
      "longitude": "-7.78763000"
   },
   {
      "name": "Monchique",
      "countryCode": "PT",
      "stateCode": "08",
      "latitude": "37.31664000",
      "longitude": "-8.58340000"
   },
   {
      "name": "Monte Gordo",
      "countryCode": "PT",
      "stateCode": "08",
      "latitude": "37.18192000",
      "longitude": "-7.45225000"
   },
   {
      "name": "Olhos de Água",
      "countryCode": "PT",
      "stateCode": "08",
      "latitude": "37.09024000",
      "longitude": "-8.19168000"
   },
   {
      "name": "Olhão",
      "countryCode": "PT",
      "stateCode": "08",
      "latitude": "37.04509000",
      "longitude": "-7.81032000"
   },
   {
      "name": "Paderne",
      "countryCode": "PT",
      "stateCode": "08",
      "latitude": "37.17935000",
      "longitude": "-8.20150000"
   },
   {
      "name": "Parchal",
      "countryCode": "PT",
      "stateCode": "08",
      "latitude": "37.13827000",
      "longitude": "-8.51703000"
   },
   {
      "name": "Porches",
      "countryCode": "PT",
      "stateCode": "08",
      "latitude": "37.12665000",
      "longitude": "-8.40162000"
   },
   {
      "name": "Portimão",
      "countryCode": "PT",
      "stateCode": "08",
      "latitude": "37.17544000",
      "longitude": "-8.58420000"
   },
   {
      "name": "Pêra",
      "countryCode": "PT",
      "stateCode": "08",
      "latitude": "37.12296000",
      "longitude": "-8.34115000"
   },
   {
      "name": "Quarteira",
      "countryCode": "PT",
      "stateCode": "08",
      "latitude": "37.06946000",
      "longitude": "-8.10064000"
   },
   {
      "name": "Sagres",
      "countryCode": "PT",
      "stateCode": "08",
      "latitude": "37.00864000",
      "longitude": "-8.94311000"
   },
   {
      "name": "Santa Bárbara de Nexe",
      "countryCode": "PT",
      "stateCode": "08",
      "latitude": "37.10619000",
      "longitude": "-7.96648000"
   },
   {
      "name": "Santa Luzia",
      "countryCode": "PT",
      "stateCode": "08",
      "latitude": "37.10224000",
      "longitude": "-7.66202000"
   },
   {
      "name": "Senhora da Luz",
      "countryCode": "PT",
      "stateCode": "08",
      "latitude": "37.08771000",
      "longitude": "-8.72649000"
   },
   {
      "name": "Silves",
      "countryCode": "PT",
      "stateCode": "08",
      "latitude": "37.20343000",
      "longitude": "-8.33472000"
   },
   {
      "name": "São Bartolomeu de Messines",
      "countryCode": "PT",
      "stateCode": "08",
      "latitude": "37.25648000",
      "longitude": "-8.28672000"
   },
   {
      "name": "São Brás de Alportel",
      "countryCode": "PT",
      "stateCode": "08",
      "latitude": "37.19564000",
      "longitude": "-7.87546000"
   },
   {
      "name": "São Marcos da Serra",
      "countryCode": "PT",
      "stateCode": "08",
      "latitude": "37.36100000",
      "longitude": "-8.37764000"
   },
   {
      "name": "Tavira",
      "countryCode": "PT",
      "stateCode": "08",
      "latitude": "37.12734000",
      "longitude": "-7.64861000"
   },
   {
      "name": "Tunes",
      "countryCode": "PT",
      "stateCode": "08",
      "latitude": "37.16592000",
      "longitude": "-8.25919000"
   },
   {
      "name": "Vila Nova De Cacela",
      "countryCode": "PT",
      "stateCode": "08",
      "latitude": "37.17391000",
      "longitude": "-7.53169000"
   },
   {
      "name": "Vila Real de Santo António",
      "countryCode": "PT",
      "stateCode": "08",
      "latitude": "37.19232000",
      "longitude": "-7.42538000"
   },
   {
      "name": "Vila do Bispo",
      "countryCode": "PT",
      "stateCode": "08",
      "latitude": "37.08317000",
      "longitude": "-8.91144000"
   },
   {
      "name": "Vilamoura",
      "countryCode": "PT",
      "stateCode": "08",
      "latitude": "37.08728000",
      "longitude": "-8.11701000"
   }
]