[
   {
      "name": "Abengourou",
      "countryCode": "CI",
      "stateCode": "CM",
      "latitude": "6.72972000",
      "longitude": "-3.49639000"
   },
   {
      "name": "Aboisso",
      "countryCode": "CI",
      "stateCode": "CM",
      "latitude": "5.46779000",
      "longitude": "-3.20711000"
   },
   {
      "name": "Adiaké",
      "countryCode": "CI",
      "stateCode": "CM",
      "latitude": "5.28634000",
      "longitude": "-3.30403000"
   },
   {
      "name": "Agnibilékrou",
      "countryCode": "CI",
      "stateCode": "CM",
      "latitude": "7.13113000",
      "longitude": "-3.20415000"
   },
   {
      "name": "Ayamé",
      "countryCode": "CI",
      "stateCode": "CM",
      "latitude": "5.60520000",
      "longitude": "-3.15709000"
   },
   {
      "name": "Bonoua",
      "countryCode": "CI",
      "stateCode": "CM",
      "latitude": "5.27247000",
      "longitude": "-3.59625000"
   },
   {
      "name": "Grand-Bassam",
      "countryCode": "CI",
      "stateCode": "CM",
      "latitude": "5.21180000",
      "longitude": "-3.73884000"
   },
   {
      "name": "Indénié-Djuablin",
      "countryCode": "CI",
      "stateCode": "CM",
      "latitude": "6.74434000",
      "longitude": "-3.49400000"
   },
   {
      "name": "Sud-Comoé",
      "countryCode": "CI",
      "stateCode": "CM",
      "latitude": "5.49961000",
      "longitude": "-3.24080000"
   }
]