[
   {
      "name": "Abasolo del Valle",
      "countryCode": "MX",
      "stateCode": "VER",
      "latitude": "17.78306000",
      "longitude": "-95.54556000"
   },
   {
      "name": "Abrevadero",
      "countryCode": "MX",
      "stateCode": "VER",
      "latitude": "18.28222000",
      "longitude": "-95.21444000"
   },
   {
      "name": "Acajete",
      "countryCode": "MX",
      "stateCode": "VER",
      "latitude": "19.56815000",
      "longitude": "-97.03333000"
   },
   {
      "name": "Acatla",
      "countryCode": "MX",
      "stateCode": "VER",
      "latitude": "18.74944000",
      "longitude": "-97.21833000"
   },
   {
      "name": "Acatlán",
      "countryCode": "MX",
      "stateCode": "VER",
      "latitude": "19.69648000",
      "longitude": "-96.84367000"
   },
   {
      "name": "Acayucan",
      "countryCode": "MX",
      "stateCode": "VER",
      "latitude": "17.94979000",
      "longitude": "-94.91386000"
   },
   {
      "name": "Acazónica",
      "countryCode": "MX",
      "stateCode": "VER",
      "latitude": "19.21284000",
      "longitude": "-96.58978000"
   },
   {
      "name": "Achotal de Moreno",
      "countryCode": "MX",
      "stateCode": "VER",
      "latitude": "17.73652000",
      "longitude": "-95.13395000"
   },
   {
      "name": "Acontitla",
      "countryCode": "MX",
      "stateCode": "VER",
      "latitude": "20.68206000",
      "longitude": "-97.38469000"
   },
   {
      "name": "Actopan",
      "countryCode": "MX",
      "stateCode": "VER",
      "latitude": "19.50427000",
      "longitude": "-96.61668000"
   },
   {
      "name": "Acula",
      "countryCode": "MX",
      "stateCode": "VER",
      "latitude": "18.50563000",
      "longitude": "-95.77427000"
   },
   {
      "name": "Acultzingo",
      "countryCode": "MX",
      "stateCode": "VER",
      "latitude": "18.71894000",
      "longitude": "-97.30367000"
   },
   {
      "name": "Adolfo Moreno",
      "countryCode": "MX",
      "stateCode": "VER",
      "latitude": "19.72472000",
      "longitude": "-97.23806000"
   },
   {
      "name": "Adolfo Ruíz Cortines",
      "countryCode": "MX",
      "stateCode": "VER",
      "latitude": "20.59585000",
      "longitude": "-97.30585000"
   },
   {
      "name": "Agrícola Lázaro Cárdenas",
      "countryCode": "MX",
      "stateCode": "VER",
      "latitude": "18.81361000",
      "longitude": "-97.19833000"
   },
   {
      "name": "Agua Dulce",
      "countryCode": "MX",
      "stateCode": "VER",
      "latitude": "18.13909000",
      "longitude": "-94.14527000"
   },
   {
      "name": "Aguilera",
      "countryCode": "MX",
      "stateCode": "VER",
      "latitude": "17.81083000",
      "longitude": "-95.01500000"
   },
   {
      "name": "Ahuacatán",
      "countryCode": "MX",
      "stateCode": "VER",
      "latitude": "19.78351000",
      "longitude": "-97.29780000"
   },
   {
      "name": "Ahuateno",
      "countryCode": "MX",
      "stateCode": "VER",
      "latitude": "21.00245000",
      "longitude": "-98.15055000"
   },
   {
      "name": "Ahueyahualco",
      "countryCode": "MX",
      "stateCode": "VER",
      "latitude": "19.71974000",
      "longitude": "-97.25984000"
   },
   {
      "name": "Alborada",
      "countryCode": "MX",
      "stateCode": "VER",
      "latitude": "19.44851000",
      "longitude": "-96.87109000"
   },
   {
      "name": "Allende",
      "countryCode": "MX",
      "stateCode": "VER",
      "latitude": "18.15514000",
      "longitude": "-94.39289000"
   },
   {
      "name": "Almagres",
      "countryCode": "MX",
      "stateCode": "VER",
      "latitude": "17.80750000",
      "longitude": "-94.91750000"
   },
   {
      "name": "Alpatláhuac",
      "countryCode": "MX",
      "stateCode": "VER",
      "latitude": "19.10155000",
      "longitude": "-97.12174000"
   },
   {
      "name": "Alto Lucero",
      "countryCode": "MX",
      "stateCode": "VER",
      "latitude": "20.95361000",
      "longitude": "-97.44194000"
   },
   {
      "name": "Altotonga",
      "countryCode": "MX",
      "stateCode": "VER",
      "latitude": "19.76613000",
      "longitude": "-97.24514000"
   },
   {
      "name": "Alvarado",
      "countryCode": "MX",
      "stateCode": "VER",
      "latitude": "18.77143000",
      "longitude": "-95.76181000"
   },
   {
      "name": "Amatitlán",
      "countryCode": "MX",
      "stateCode": "VER",
      "latitude": "18.43371000",
      "longitude": "-95.68388000"
   },
   {
      "name": "Amatlán",
      "countryCode": "MX",
      "stateCode": "VER",
      "latitude": "21.33519000",
      "longitude": "-97.75704000"
   },
   {
      "name": "Amatlán de los Reyes",
      "countryCode": "MX",
      "stateCode": "VER",
      "latitude": "18.84658000",
      "longitude": "-96.91595000"
   },
   {
      "name": "Anahuac",
      "countryCode": "MX",
      "stateCode": "VER",
      "latitude": "22.20275000",
      "longitude": "-97.85506000"
   },
   {
      "name": "Angel R. Cabada",
      "countryCode": "MX",
      "stateCode": "VER",
      "latitude": "18.60798000",
      "longitude": "-95.39724000"
   },
   {
      "name": "Antonio J Bermúdez",
      "countryCode": "MX",
      "stateCode": "VER",
      "latitude": "22.15046000",
      "longitude": "-98.15873000"
   },
   {
      "name": "Antón Lizardo",
      "countryCode": "MX",
      "stateCode": "VER",
      "latitude": "19.05962000",
      "longitude": "-95.99272000"
   },
   {
      "name": "Apazapan",
      "countryCode": "MX",
      "stateCode": "VER",
      "latitude": "19.33175000",
      "longitude": "-96.65058000"
   },
   {
      "name": "Aquila",
      "countryCode": "MX",
      "stateCode": "VER",
      "latitude": "18.78958000",
      "longitude": "-97.32319000"
   },
   {
      "name": "Aquiles Serdán",
      "countryCode": "MX",
      "stateCode": "VER",
      "latitude": "21.87206000",
      "longitude": "-98.14794000"
   },
   {
      "name": "Arboledas",
      "countryCode": "MX",
      "stateCode": "VER",
      "latitude": "19.20722000",
      "longitude": "-96.21444000"
   },
   {
      "name": "Arbolillo",
      "countryCode": "MX",
      "stateCode": "VER",
      "latitude": "18.81631000",
      "longitude": "-95.83601000"
   },
   {
      "name": "Arenal Santa Ana",
      "countryCode": "MX",
      "stateCode": "VER",
      "latitude": "17.78951000",
      "longitude": "-95.76970000"
   },
   {
      "name": "Arroyo Hondo",
      "countryCode": "MX",
      "stateCode": "VER",
      "latitude": "20.02317000",
      "longitude": "-96.87372000"
   },
   {
      "name": "Arroyo San Isidro",
      "countryCode": "MX",
      "stateCode": "VER",
      "latitude": "18.48667000",
      "longitude": "-95.41333000"
   },
   {
      "name": "Arroyo del Maíz Uno",
      "countryCode": "MX",
      "stateCode": "VER",
      "latitude": "20.53667000",
      "longitude": "-97.41528000"
   },
   {
      "name": "Arroyo del Potrero",
      "countryCode": "MX",
      "stateCode": "VER",
      "latitude": "20.14554000",
      "longitude": "-97.06520000"
   },
   {
      "name": "Astacinga",
      "countryCode": "MX",
      "stateCode": "VER",
      "latitude": "18.56900000",
      "longitude": "-97.10376000"
   },
   {
      "name": "Atlahuilco",
      "countryCode": "MX",
      "stateCode": "VER",
      "latitude": "18.68308000",
      "longitude": "-97.11553000"
   },
   {
      "name": "Atoyac",
      "countryCode": "MX",
      "stateCode": "VER",
      "latitude": "18.93182000",
      "longitude": "-96.80203000"
   },
   {
      "name": "Atzacan",
      "countryCode": "MX",
      "stateCode": "VER",
      "latitude": "18.90724000",
      "longitude": "-97.08307000"
   },
   {
      "name": "Atzalan",
      "countryCode": "MX",
      "stateCode": "VER",
      "latitude": "19.78864000",
      "longitude": "-97.24195000"
   },
   {
      "name": "Axochío",
      "countryCode": "MX",
      "stateCode": "VER",
      "latitude": "18.37175000",
      "longitude": "-95.29985000"
   },
   {
      "name": "Ayahualulco",
      "countryCode": "MX",
      "stateCode": "VER",
      "latitude": "19.38613000",
      "longitude": "-97.14853000"
   },
   {
      "name": "Ayotuxtla",
      "countryCode": "MX",
      "stateCode": "VER",
      "latitude": "20.64885000",
      "longitude": "-98.30264000"
   },
   {
      "name": "Banderas",
      "countryCode": "MX",
      "stateCode": "VER",
      "latitude": "20.99083000",
      "longitude": "-97.39361000"
   },
   {
      "name": "Banderilla",
      "countryCode": "MX",
      "stateCode": "VER",
      "latitude": "19.58893000",
      "longitude": "-96.93727000"
   },
   {
      "name": "Bara de Chachalacas",
      "countryCode": "MX",
      "stateCode": "VER",
      "latitude": "19.40643000",
      "longitude": "-96.34159000"
   },
   {
      "name": "Barra de Cazones",
      "countryCode": "MX",
      "stateCode": "VER",
      "latitude": "20.72307000",
      "longitude": "-97.20320000"
   },
   {
      "name": "Barrancas",
      "countryCode": "MX",
      "stateCode": "VER",
      "latitude": "18.06918000",
      "longitude": "-94.58691000"
   },
   {
      "name": "Barrio de San Miguel",
      "countryCode": "MX",
      "stateCode": "VER",
      "latitude": "19.64333000",
      "longitude": "-97.12389000"
   },
   {
      "name": "Bella Esperanza",
      "countryCode": "MX",
      "stateCode": "VER",
      "latitude": "19.43329000",
      "longitude": "-96.86648000"
   },
   {
      "name": "Benito Juárez",
      "countryCode": "MX",
      "stateCode": "VER",
      "latitude": "20.88635000",
      "longitude": "-98.20594000"
   },
   {
      "name": "Blanca Espuma",
      "countryCode": "MX",
      "stateCode": "VER",
      "latitude": "19.58117000",
      "longitude": "-96.68819000"
   },
   {
      "name": "Boca del Monte",
      "countryCode": "MX",
      "stateCode": "VER",
      "latitude": "19.15451000",
      "longitude": "-96.83270000"
   },
   {
      "name": "Boca del Rio",
      "countryCode": "MX",
      "stateCode": "VER",
      "latitude": "19.10464000",
      "longitude": "-96.10405000"
   },
   {
      "name": "Buena Vista",
      "countryCode": "MX",
      "stateCode": "VER",
      "latitude": "19.04278000",
      "longitude": "-96.85667000"
   },
   {
      "name": "Buenavista",
      "countryCode": "MX",
      "stateCode": "VER",
      "latitude": "18.89306000",
      "longitude": "-97.03694000"
   },
   {
      "name": "Buenos Aires",
      "countryCode": "MX",
      "stateCode": "VER",
      "latitude": "18.46463000",
      "longitude": "-95.24879000"
   },
   {
      "name": "Buenos Aires (San Isidro)",
      "countryCode": "MX",
      "stateCode": "VER",
      "latitude": "20.84028000",
      "longitude": "-97.60139000"
   },
   {
      "name": "Cabezas",
      "countryCode": "MX",
      "stateCode": "VER",
      "latitude": "19.37167000",
      "longitude": "-96.38278000"
   },
   {
      "name": "Cacahuatal",
      "countryCode": "MX",
      "stateCode": "VER",
      "latitude": "18.83098000",
      "longitude": "-96.84192000"
   },
   {
      "name": "Calcahualco",
      "countryCode": "MX",
      "stateCode": "VER",
      "latitude": "19.13698000",
      "longitude": "-97.14201000"
   },
   {
      "name": "Calería",
      "countryCode": "MX",
      "stateCode": "VER",
      "latitude": "18.42883000",
      "longitude": "-95.17737000"
   },
   {
      "name": "Calichar Palma Sola",
      "countryCode": "MX",
      "stateCode": "VER",
      "latitude": "20.44155000",
      "longitude": "-97.55103000"
   },
   {
      "name": "Calzadas",
      "countryCode": "MX",
      "stateCode": "VER",
      "latitude": "18.10121000",
      "longitude": "-94.45524000"
   },
   {
      "name": "Camarón de Tejeda",
      "countryCode": "MX",
      "stateCode": "VER",
      "latitude": "19.00810000",
      "longitude": "-96.56807000"
   },
   {
      "name": "Camerino Z. Mendoza",
      "countryCode": "MX",
      "stateCode": "VER",
      "latitude": "18.78246000",
      "longitude": "-97.16016000"
   },
   {
      "name": "Campo Chico",
      "countryCode": "MX",
      "stateCode": "VER",
      "latitude": "18.83639000",
      "longitude": "-97.02802000"
   },
   {
      "name": "Campo Grande",
      "countryCode": "MX",
      "stateCode": "VER",
      "latitude": "18.82296000",
      "longitude": "-97.01265000"
   },
   {
      "name": "Campo de Águila",
      "countryCode": "MX",
      "stateCode": "VER",
      "latitude": "18.06750000",
      "longitude": "-94.98611000"
   },
   {
      "name": "Capoluca",
      "countryCode": "MX",
      "stateCode": "VER",
      "latitude": "18.80639000",
      "longitude": "-97.02722000"
   },
   {
      "name": "Caristay",
      "countryCode": "MX",
      "stateCode": "VER",
      "latitude": "20.64538000",
      "longitude": "-97.30593000"
   },
   {
      "name": "Carlos A. Carrillo",
      "countryCode": "MX",
      "stateCode": "VER",
      "latitude": "18.37477000",
      "longitude": "-95.75444000"
   },
   {
      "name": "Carrillo Puerto",
      "countryCode": "MX",
      "stateCode": "VER",
      "latitude": "18.81314000",
      "longitude": "-96.58230000"
   },
   {
      "name": "Carrizal",
      "countryCode": "MX",
      "stateCode": "VER",
      "latitude": "20.59552000",
      "longitude": "-97.25676000"
   },
   {
      "name": "Casitas",
      "countryCode": "MX",
      "stateCode": "VER",
      "latitude": "20.25532000",
      "longitude": "-96.80114000"
   },
   {
      "name": "Castillo de Teayo",
      "countryCode": "MX",
      "stateCode": "VER",
      "latitude": "20.74927000",
      "longitude": "-97.63030000"
   },
   {
      "name": "Catemaco",
      "countryCode": "MX",
      "stateCode": "VER",
      "latitude": "18.42131000",
      "longitude": "-95.11398000"
   },
   {
      "name": "Caxapa",
      "countryCode": "MX",
      "stateCode": "VER",
      "latitude": "18.43103000",
      "longitude": "-96.77456000"
   },
   {
      "name": "Cazones de Herrera",
      "countryCode": "MX",
      "stateCode": "VER",
      "latitude": "20.70423000",
      "longitude": "-97.30994000"
   },
   {
      "name": "Cecilio Terán",
      "countryCode": "MX",
      "stateCode": "VER",
      "latitude": "18.81480000",
      "longitude": "-97.22526000"
   },
   {
      "name": "Cementeras del Pital",
      "countryCode": "MX",
      "stateCode": "VER",
      "latitude": "20.17694000",
      "longitude": "-96.89583000"
   },
   {
      "name": "Centro de Readaptación Social",
      "countryCode": "MX",
      "stateCode": "VER",
      "latitude": "19.62500000",
      "longitude": "-97.22028000"
   },
   {
      "name": "Cerritos",
      "countryCode": "MX",
      "stateCode": "VER",
      "latitude": "19.13329000",
      "longitude": "-96.60931000"
   },
   {
      "name": "Cerro Azul",
      "countryCode": "MX",
      "stateCode": "VER",
      "latitude": "21.19200000",
      "longitude": "-97.74088000"
   },
   {
      "name": "Cerro Gordo",
      "countryCode": "MX",
      "stateCode": "VER",
      "latitude": "19.56951000",
      "longitude": "-96.64835000"
   },
   {
      "name": "Cerro Grande",
      "countryCode": "MX",
      "stateCode": "VER",
      "latitude": "20.23861000",
      "longitude": "-97.68194000"
   },
   {
      "name": "Cerro Guzmán",
      "countryCode": "MX",
      "stateCode": "VER",
      "latitude": "19.23543000",
      "longitude": "-96.37856000"
   },
   {
      "name": "Cerro las Iguanas",
      "countryCode": "MX",
      "stateCode": "VER",
      "latitude": "18.41083000",
      "longitude": "-95.19972000"
   },
   {
      "name": "Chacalapa",
      "countryCode": "MX",
      "stateCode": "VER",
      "latitude": "18.07860000",
      "longitude": "-94.70280000"
   },
   {
      "name": "Chacaltianguis",
      "countryCode": "MX",
      "stateCode": "VER",
      "latitude": "18.30528000",
      "longitude": "-95.84167000"
   },
   {
      "name": "Chalma",
      "countryCode": "MX",
      "stateCode": "VER",
      "latitude": "21.20799000",
      "longitude": "-98.37526000"
   },
   {
      "name": "Chapopote Chico",
      "countryCode": "MX",
      "stateCode": "VER",
      "latitude": "21.13704000",
      "longitude": "-98.24780000"
   },
   {
      "name": "Chapopote Núñez",
      "countryCode": "MX",
      "stateCode": "VER",
      "latitude": "20.93167000",
      "longitude": "-97.68274000"
   },
   {
      "name": "Chavarrillo",
      "countryCode": "MX",
      "stateCode": "VER",
      "latitude": "19.42551000",
      "longitude": "-96.79458000"
   },
   {
      "name": "Chavaxtla",
      "countryCode": "MX",
      "stateCode": "VER",
      "latitude": "19.13016000",
      "longitude": "-96.83054000"
   },
   {
      "name": "Chichicaxtle",
      "countryCode": "MX",
      "stateCode": "VER",
      "latitude": "19.34306000",
      "longitude": "-96.46861000"
   },
   {
      "name": "Chicola",
      "countryCode": "MX",
      "stateCode": "VER",
      "latitude": "18.90139000",
      "longitude": "-97.10806000"
   },
   {
      "name": "Chiconamel",
      "countryCode": "MX",
      "stateCode": "VER",
      "latitude": "21.24326000",
      "longitude": "-98.45426000"
   },
   {
      "name": "Chiconquiaco",
      "countryCode": "MX",
      "stateCode": "VER",
      "latitude": "19.74208000",
      "longitude": "-96.81851000"
   },
   {
      "name": "Chicontepec",
      "countryCode": "MX",
      "stateCode": "VER",
      "latitude": "20.97214000",
      "longitude": "-98.17239000"
   },
   {
      "name": "Chicualoque",
      "countryCode": "MX",
      "stateCode": "VER",
      "latitude": "20.38272000",
      "longitude": "-97.66163000"
   },
   {
      "name": "Chicuasen",
      "countryCode": "MX",
      "stateCode": "VER",
      "latitude": "19.52785000",
      "longitude": "-96.67224000"
   },
   {
      "name": "Chilapa",
      "countryCode": "MX",
      "stateCode": "VER",
      "latitude": "18.98861000",
      "longitude": "-97.15417000"
   },
   {
      "name": "Chiltoyac",
      "countryCode": "MX",
      "stateCode": "VER",
      "latitude": "19.57708000",
      "longitude": "-96.86660000"
   },
   {
      "name": "Chinameca",
      "countryCode": "MX",
      "stateCode": "VER",
      "latitude": "18.02195000",
      "longitude": "-94.67945000"
   },
   {
      "name": "Chinampa de Gorostiza",
      "countryCode": "MX",
      "stateCode": "VER",
      "latitude": "21.35959000",
      "longitude": "-97.73484000"
   },
   {
      "name": "Chocamán",
      "countryCode": "MX",
      "stateCode": "VER",
      "latitude": "19.01214000",
      "longitude": "-97.03291000"
   },
   {
      "name": "Chonegal",
      "countryCode": "MX",
      "stateCode": "VER",
      "latitude": "18.57523000",
      "longitude": "-95.39347000"
   },
   {
      "name": "Chontla",
      "countryCode": "MX",
      "stateCode": "VER",
      "latitude": "21.39198000",
      "longitude": "-97.97877000"
   },
   {
      "name": "Chumatlán",
      "countryCode": "MX",
      "stateCode": "VER",
      "latitude": "20.20574000",
      "longitude": "-97.59402000"
   },
   {
      "name": "Chuniapan de Arriba",
      "countryCode": "MX",
      "stateCode": "VER",
      "latitude": "18.34803000",
      "longitude": "-95.18156000"
   },
   {
      "name": "Citlaltépec",
      "countryCode": "MX",
      "stateCode": "VER",
      "latitude": "21.32912000",
      "longitude": "-97.87861000"
   },
   {
      "name": "Citlaltépetl",
      "countryCode": "MX",
      "stateCode": "VER",
      "latitude": "21.34351000",
      "longitude": "-97.89201000"
   },
   {
      "name": "Ciudad Cuauhtémoc",
      "countryCode": "MX",
      "stateCode": "VER",
      "latitude": "22.18439000",
      "longitude": "-97.83472000"
   },
   {
      "name": "Ciudad Mendoza",
      "countryCode": "MX",
      "stateCode": "VER",
      "latitude": "18.80645000",
      "longitude": "-97.17870000"
   },
   {
      "name": "Coacoatzintla",
      "countryCode": "MX",
      "stateCode": "VER",
      "latitude": "19.65163000",
      "longitude": "-96.94043000"
   },
   {
      "name": "Coacotla",
      "countryCode": "MX",
      "stateCode": "VER",
      "latitude": "17.93656000",
      "longitude": "-94.66711000"
   },
   {
      "name": "Coahuitlán",
      "countryCode": "MX",
      "stateCode": "VER",
      "latitude": "20.27543000",
      "longitude": "-97.70022000"
   },
   {
      "name": "Coatepec",
      "countryCode": "MX",
      "stateCode": "VER",
      "latitude": "19.45229000",
      "longitude": "-96.96148000"
   },
   {
      "name": "Coatzacoalcos",
      "countryCode": "MX",
      "stateCode": "VER",
      "latitude": "18.14905000",
      "longitude": "-94.44470000"
   },
   {
      "name": "Coatzintla",
      "countryCode": "MX",
      "stateCode": "VER",
      "latitude": "20.48699000",
      "longitude": "-97.46823000"
   },
   {
      "name": "Coetzala",
      "countryCode": "MX",
      "stateCode": "VER",
      "latitude": "18.78521000",
      "longitude": "-96.91697000"
   },
   {
      "name": "Colatlán",
      "countryCode": "MX",
      "stateCode": "VER",
      "latitude": "20.81642000",
      "longitude": "-98.09697000"
   },
   {
      "name": "Colipa",
      "countryCode": "MX",
      "stateCode": "VER",
      "latitude": "19.92323000",
      "longitude": "-96.72713000"
   },
   {
      "name": "Colonia Adolfo Ruiz Cortines (Colonia Obrera)",
      "countryCode": "MX",
      "stateCode": "VER",
      "latitude": "18.25694000",
      "longitude": "-96.16139000"
   },
   {
      "name": "Colonia Chalchihuecan",
      "countryCode": "MX",
      "stateCode": "VER",
      "latitude": "19.21417000",
      "longitude": "-96.21444000"
   },
   {
      "name": "Colonia Lealtad",
      "countryCode": "MX",
      "stateCode": "VER",
      "latitude": "17.96306000",
      "longitude": "-94.90250000"
   },
   {
      "name": "Colonia Libertad",
      "countryCode": "MX",
      "stateCode": "VER",
      "latitude": "19.67734000",
      "longitude": "-97.21262000"
   },
   {
      "name": "Colonia Manuel González",
      "countryCode": "MX",
      "stateCode": "VER",
      "latitude": "19.11495000",
      "longitude": "-96.85939000"
   },
   {
      "name": "Colonia Santa Bárbara",
      "countryCode": "MX",
      "stateCode": "VER",
      "latitude": "19.50191000",
      "longitude": "-96.87817000"
   },
   {
      "name": "Colonia el Renacimiento",
      "countryCode": "MX",
      "stateCode": "VER",
      "latitude": "19.21889000",
      "longitude": "-96.21639000"
   },
   {
      "name": "Colonia las Flores",
      "countryCode": "MX",
      "stateCode": "VER",
      "latitude": "21.36167000",
      "longitude": "-97.69306000"
   },
   {
      "name": "Colonia Úrsulo Galván",
      "countryCode": "MX",
      "stateCode": "VER",
      "latitude": "19.42862000",
      "longitude": "-96.97842000"
   },
   {
      "name": "Colonias Pedernales",
      "countryCode": "MX",
      "stateCode": "VER",
      "latitude": "20.04583000",
      "longitude": "-97.05139000"
   },
   {
      "name": "Colorines",
      "countryCode": "MX",
      "stateCode": "VER",
      "latitude": "18.88472000",
      "longitude": "-96.97833000"
   },
   {
      "name": "Comapa",
      "countryCode": "MX",
      "stateCode": "VER",
      "latitude": "19.13889000",
      "longitude": "-96.71374000"
   },
   {
      "name": "Comején",
      "countryCode": "MX",
      "stateCode": "VER",
      "latitude": "18.06126000",
      "longitude": "-94.88552000"
   },
   {
      "name": "Comoapan",
      "countryCode": "MX",
      "stateCode": "VER",
      "latitude": "18.40684000",
      "longitude": "-95.17415000"
   },
   {
      "name": "Congregación Hidalgo",
      "countryCode": "MX",
      "stateCode": "VER",
      "latitude": "17.93750000",
      "longitude": "-94.97056000"
   },
   {
      "name": "Congregación el Tajín",
      "countryCode": "MX",
      "stateCode": "VER",
      "latitude": "20.43047000",
      "longitude": "-97.38183000"
   },
   {
      "name": "Corozal",
      "countryCode": "MX",
      "stateCode": "VER",
      "latitude": "21.54627000",
      "longitude": "-98.55444000"
   },
   {
      "name": "Corral Nuevo",
      "countryCode": "MX",
      "stateCode": "VER",
      "latitude": "18.11461000",
      "longitude": "-95.11542000"
   },
   {
      "name": "Corralillos",
      "countryCode": "MX",
      "stateCode": "VER",
      "latitude": "20.48273000",
      "longitude": "-97.52582000"
   },
   {
      "name": "Cosamaloapan",
      "countryCode": "MX",
      "stateCode": "VER",
      "latitude": "18.36759000",
      "longitude": "-95.79857000"
   },
   {
      "name": "Cosamaloapan de Carpio",
      "countryCode": "MX",
      "stateCode": "VER",
      "latitude": "18.30163000",
      "longitude": "-95.95967000"
   },
   {
      "name": "Cosautlán",
      "countryCode": "MX",
      "stateCode": "VER",
      "latitude": "19.33196000",
      "longitude": "-96.99030000"
   },
   {
      "name": "Cosautlán de Carvajal",
      "countryCode": "MX",
      "stateCode": "VER",
      "latitude": "19.32878000",
      "longitude": "-96.97719000"
   },
   {
      "name": "Coscomatepec de Bravo",
      "countryCode": "MX",
      "stateCode": "VER",
      "latitude": "19.07275000",
      "longitude": "-97.04685000"
   },
   {
      "name": "Cosolapa",
      "countryCode": "MX",
      "stateCode": "VER",
      "latitude": "18.60055000",
      "longitude": "-96.68524000"
   },
   {
      "name": "Cosoleacaque",
      "countryCode": "MX",
      "stateCode": "VER",
      "latitude": "17.99913000",
      "longitude": "-94.63590000"
   },
   {
      "name": "Cotaxtla",
      "countryCode": "MX",
      "stateCode": "VER",
      "latitude": "18.83555000",
      "longitude": "-96.39640000"
   },
   {
      "name": "Coxquihui",
      "countryCode": "MX",
      "stateCode": "VER",
      "latitude": "20.18398000",
      "longitude": "-97.58568000"
   },
   {
      "name": "Coyolito",
      "countryCode": "MX",
      "stateCode": "VER",
      "latitude": "19.22777000",
      "longitude": "-96.87039000"
   },
   {
      "name": "Coyutla",
      "countryCode": "MX",
      "stateCode": "VER",
      "latitude": "20.24720000",
      "longitude": "-97.65824000"
   },
   {
      "name": "Cruz Blanca",
      "countryCode": "MX",
      "stateCode": "VER",
      "latitude": "19.63744000",
      "longitude": "-97.16691000"
   },
   {
      "name": "Cruz Verde",
      "countryCode": "MX",
      "stateCode": "VER",
      "latitude": "19.13750000",
      "longitude": "-97.10861000"
   },
   {
      "name": "Cruz del Milagro",
      "countryCode": "MX",
      "stateCode": "VER",
      "latitude": "17.90833000",
      "longitude": "-95.01083000"
   },
   {
      "name": "Cuauhtamingo",
      "countryCode": "MX",
      "stateCode": "VER",
      "latitude": "19.76472000",
      "longitude": "-97.31417000"
   },
   {
      "name": "Cuautlapán",
      "countryCode": "MX",
      "stateCode": "VER",
      "latitude": "18.87747000",
      "longitude": "-97.02291000"
   },
   {
      "name": "Cucharas",
      "countryCode": "MX",
      "stateCode": "VER",
      "latitude": "21.61568000",
      "longitude": "-97.66099000"
   },
   {
      "name": "Cuesta Amarilla",
      "countryCode": "MX",
      "stateCode": "VER",
      "latitude": "18.34667000",
      "longitude": "-95.23389000"
   },
   {
      "name": "Cuesta de Laja",
      "countryCode": "MX",
      "stateCode": "VER",
      "latitude": "18.29333000",
      "longitude": "-95.22111000"
   },
   {
      "name": "Cuichapa",
      "countryCode": "MX",
      "stateCode": "VER",
      "latitude": "17.93889000",
      "longitude": "-94.28000000"
   },
   {
      "name": "Cuitláhuac",
      "countryCode": "MX",
      "stateCode": "VER",
      "latitude": "18.81429000",
      "longitude": "-96.72281000"
   },
   {
      "name": "Cuiyachapa",
      "countryCode": "MX",
      "stateCode": "VER",
      "latitude": "19.04569000",
      "longitude": "-97.17436000"
   },
   {
      "name": "Córdoba",
      "countryCode": "MX",
      "stateCode": "VER",
      "latitude": "18.88420000",
      "longitude": "-96.92559000"
   },
   {
      "name": "Córdoba (Santa Leticia)",
      "countryCode": "MX",
      "stateCode": "VER",
      "latitude": "18.90861000",
      "longitude": "-96.97889000"
   },
   {
      "name": "Dehesa",
      "countryCode": "MX",
      "stateCode": "VER",
      "latitude": "17.94167000",
      "longitude": "-94.99806000"
   },
   {
      "name": "Delfino Victoria (Santa Fe)",
      "countryCode": "MX",
      "stateCode": "VER",
      "latitude": "19.20750000",
      "longitude": "-96.27333000"
   },
   {
      "name": "Doctor Montes de Oca",
      "countryCode": "MX",
      "stateCode": "VER",
      "latitude": "20.93477000",
      "longitude": "-97.55585000"
   },
   {
      "name": "Dos Bocas",
      "countryCode": "MX",
      "stateCode": "VER",
      "latitude": "18.41087000",
      "longitude": "-95.70732000"
   },
   {
      "name": "Dos Ríos",
      "countryCode": "MX",
      "stateCode": "VER",
      "latitude": "19.48417000",
      "longitude": "-96.79944000"
   },
   {
      "name": "Ejidal",
      "countryCode": "MX",
      "stateCode": "VER",
      "latitude": "18.90380000",
      "longitude": "-96.22583000"
   },
   {
      "name": "Ejido la Piña (Maromilla)",
      "countryCode": "MX",
      "stateCode": "VER",
      "latitude": "19.02861000",
      "longitude": "-96.78361000"
   },
   {
      "name": "El Aguacate",
      "countryCode": "MX",
      "stateCode": "VER",
      "latitude": "18.19808000",
      "longitude": "-94.97053000"
   },
   {
      "name": "El Anono",
      "countryCode": "MX",
      "stateCode": "VER",
      "latitude": "21.25559000",
      "longitude": "-97.65648000"
   },
   {
      "name": "El Arenal",
      "countryCode": "MX",
      "stateCode": "VER",
      "latitude": "20.26829000",
      "longitude": "-97.59250000"
   },
   {
      "name": "El Blanco",
      "countryCode": "MX",
      "stateCode": "VER",
      "latitude": "18.07418000",
      "longitude": "-95.28053000"
   },
   {
      "name": "El Castillo",
      "countryCode": "MX",
      "stateCode": "VER",
      "latitude": "19.54661000",
      "longitude": "-96.86425000"
   },
   {
      "name": "El Chico",
      "countryCode": "MX",
      "stateCode": "VER",
      "latitude": "19.46570000",
      "longitude": "-96.83642000"
   },
   {
      "name": "El Chote",
      "countryCode": "MX",
      "stateCode": "VER",
      "latitude": "20.40167000",
      "longitude": "-97.34389000"
   },
   {
      "name": "El Cocuite",
      "countryCode": "MX",
      "stateCode": "VER",
      "latitude": "18.71765000",
      "longitude": "-96.08442000"
   },
   {
      "name": "El Conejo",
      "countryCode": "MX",
      "stateCode": "VER",
      "latitude": "19.53140000",
      "longitude": "-97.15383000"
   },
   {
      "name": "El Corte",
      "countryCode": "MX",
      "stateCode": "VER",
      "latitude": "18.45226000",
      "longitude": "-95.73510000"
   },
   {
      "name": "El Escobillo",
      "countryCode": "MX",
      "stateCode": "VER",
      "latitude": "19.51450000",
      "longitude": "-97.19791000"
   },
   {
      "name": "El Espinal",
      "countryCode": "MX",
      "stateCode": "VER",
      "latitude": "19.62444000",
      "longitude": "-96.87250000"
   },
   {
      "name": "El Hatito",
      "countryCode": "MX",
      "stateCode": "VER",
      "latitude": "19.27750000",
      "longitude": "-96.39361000"
   },
   {
      "name": "El Higo",
      "countryCode": "MX",
      "stateCode": "VER",
      "latitude": "21.76708000",
      "longitude": "-98.45186000"
   },
   {
      "name": "El Huidero",
      "countryCode": "MX",
      "stateCode": "VER",
      "latitude": "18.38750000",
      "longitude": "-95.17917000"
   },
   {
      "name": "El Humo",
      "countryCode": "MX",
      "stateCode": "VER",
      "latitude": "21.17568000",
      "longitude": "-97.94169000"
   },
   {
      "name": "El Huérfano",
      "countryCode": "MX",
      "stateCode": "VER",
      "latitude": "19.74082000",
      "longitude": "-96.74528000"
   },
   {
      "name": "El Jobo",
      "countryCode": "MX",
      "stateCode": "VER",
      "latitude": "20.01405000",
      "longitude": "-97.16461000"
   },
   {
      "name": "El Juile",
      "countryCode": "MX",
      "stateCode": "VER",
      "latitude": "17.74412000",
      "longitude": "-94.98946000"
   },
   {
      "name": "El Laurel",
      "countryCode": "MX",
      "stateCode": "VER",
      "latitude": "18.27409000",
      "longitude": "-95.32900000"
   },
   {
      "name": "El Lencero",
      "countryCode": "MX",
      "stateCode": "VER",
      "latitude": "19.48897000",
      "longitude": "-96.81622000"
   },
   {
      "name": "El Lindero",
      "countryCode": "MX",
      "stateCode": "VER",
      "latitude": "21.31278000",
      "longitude": "-98.22000000"
   },
   {
      "name": "El Maguey",
      "countryCode": "MX",
      "stateCode": "VER",
      "latitude": "18.83295000",
      "longitude": "-96.73434000"
   },
   {
      "name": "El Mirador",
      "countryCode": "MX",
      "stateCode": "VER",
      "latitude": "21.01168000",
      "longitude": "-97.94387000"
   },
   {
      "name": "El Molino",
      "countryCode": "MX",
      "stateCode": "VER",
      "latitude": "21.91602000",
      "longitude": "-98.29885000"
   },
   {
      "name": "El Mollejon",
      "countryCode": "MX",
      "stateCode": "VER",
      "latitude": "20.54222000",
      "longitude": "-97.41111000"
   },
   {
      "name": "El Naranjito",
      "countryCode": "MX",
      "stateCode": "VER",
      "latitude": "17.99785000",
      "longitude": "-94.60666000"
   },
   {
      "name": "El Nigromante",
      "countryCode": "MX",
      "stateCode": "VER",
      "latitude": "17.76472000",
      "longitude": "-95.75722000"
   },
   {
      "name": "El Palmar",
      "countryCode": "MX",
      "stateCode": "VER",
      "latitude": "18.80330000",
      "longitude": "-96.66560000"
   },
   {
      "name": "El Panorama",
      "countryCode": "MX",
      "stateCode": "VER",
      "latitude": "20.28918000",
      "longitude": "-97.63554000"
   },
   {
      "name": "El Paraíso",
      "countryCode": "MX",
      "stateCode": "VER",
      "latitude": "17.51592000",
      "longitude": "-95.14271000"
   },
   {
      "name": "El Paraíso (La Charca)",
      "countryCode": "MX",
      "stateCode": "VER",
      "latitude": "19.42889000",
      "longitude": "-96.35500000"
   },
   {
      "name": "El Pital",
      "countryCode": "MX",
      "stateCode": "VER",
      "latitude": "20.15695000",
      "longitude": "-96.89805000"
   },
   {
      "name": "El Porvenir",
      "countryCode": "MX",
      "stateCode": "VER",
      "latitude": "18.92083000",
      "longitude": "-96.92583000"
   },
   {
      "name": "El Potrero",
      "countryCode": "MX",
      "stateCode": "VER",
      "latitude": "18.67822000",
      "longitude": "-97.25499000"
   },
   {
      "name": "El Progreso",
      "countryCode": "MX",
      "stateCode": "VER",
      "latitude": "20.11417000",
      "longitude": "-97.01444000"
   },
   {
      "name": "El Pueblito",
      "countryCode": "MX",
      "stateCode": "VER",
      "latitude": "18.88639000",
      "longitude": "-96.96946000"
   },
   {
      "name": "El Pueblito (Garbanzal)",
      "countryCode": "MX",
      "stateCode": "VER",
      "latitude": "19.59389000",
      "longitude": "-96.92417000"
   },
   {
      "name": "El Remolino",
      "countryCode": "MX",
      "stateCode": "VER",
      "latitude": "20.38921000",
      "longitude": "-97.21213000"
   },
   {
      "name": "El Salto de Eyipantla",
      "countryCode": "MX",
      "stateCode": "VER",
      "latitude": "18.38954000",
      "longitude": "-95.20285000"
   },
   {
      "name": "El Tejar",
      "countryCode": "MX",
      "stateCode": "VER",
      "latitude": "19.07433000",
      "longitude": "-96.16097000"
   },
   {
      "name": "El Terrero",
      "countryCode": "MX",
      "stateCode": "VER",
      "latitude": "19.53709000",
      "longitude": "-96.79907000"
   },
   {
      "name": "El Triunfo",
      "countryCode": "MX",
      "stateCode": "VER",
      "latitude": "19.42136000",
      "longitude": "-97.22002000"
   },
   {
      "name": "El Tulín",
      "countryCode": "MX",
      "stateCode": "VER",
      "latitude": "18.24750000",
      "longitude": "-94.95373000"
   },
   {
      "name": "El Volador",
      "countryCode": "MX",
      "stateCode": "VER",
      "latitude": "20.64294000",
      "longitude": "-97.24885000"
   },
   {
      "name": "El Zapote Bravo",
      "countryCode": "MX",
      "stateCode": "VER",
      "latitude": "20.66200000",
      "longitude": "-97.99907000"
   },
   {
      "name": "El Águila",
      "countryCode": "MX",
      "stateCode": "VER",
      "latitude": "20.63072000",
      "longitude": "-97.45632000"
   },
   {
      "name": "Elotepec",
      "countryCode": "MX",
      "stateCode": "VER",
      "latitude": "19.18820000",
      "longitude": "-97.03768000"
   },
   {
      "name": "Emiliano Zapata",
      "countryCode": "MX",
      "stateCode": "VER",
      "latitude": "19.45766000",
      "longitude": "-96.76584000"
   },
   {
      "name": "Entabladero",
      "countryCode": "MX",
      "stateCode": "VER",
      "latitude": "20.27515000",
      "longitude": "-97.55114000"
   },
   {
      "name": "Escolín de Olarte",
      "countryCode": "MX",
      "stateCode": "VER",
      "latitude": "20.49840000",
      "longitude": "-97.42336000"
   },
   {
      "name": "Espinal",
      "countryCode": "MX",
      "stateCode": "VER",
      "latitude": "20.26997000",
      "longitude": "-97.48927000"
   },
   {
      "name": "Estación Dobladero",
      "countryCode": "MX",
      "stateCode": "VER",
      "latitude": "18.11500000",
      "longitude": "-95.76611000"
   },
   {
      "name": "Estación Juanita",
      "countryCode": "MX",
      "stateCode": "VER",
      "latitude": "17.80889000",
      "longitude": "-95.21750000"
   },
   {
      "name": "Estanzuela",
      "countryCode": "MX",
      "stateCode": "VER",
      "latitude": "19.46081000",
      "longitude": "-96.85819000"
   },
   {
      "name": "Estero de Milpas",
      "countryCode": "MX",
      "stateCode": "VER",
      "latitude": "21.25370000",
      "longitude": "-97.45082000"
   },
   {
      "name": "Estero del Ídolo",
      "countryCode": "MX",
      "stateCode": "VER",
      "latitude": "20.88953000",
      "longitude": "-97.65878000"
   },
   {
      "name": "Ex-hacienda la Concepción",
      "countryCode": "MX",
      "stateCode": "VER",
      "latitude": "18.84855000",
      "longitude": "-96.82437000"
   },
   {
      "name": "Excola",
      "countryCode": "MX",
      "stateCode": "VER",
      "latitude": "19.13876000",
      "longitude": "-97.12251000"
   },
   {
      "name": "Felipe Carrillo Puerto",
      "countryCode": "MX",
      "stateCode": "VER",
      "latitude": "20.13578000",
      "longitude": "-96.95164000"
   },
   {
      "name": "Filomeno Mata",
      "countryCode": "MX",
      "stateCode": "VER",
      "latitude": "20.20004000",
      "longitude": "-97.70392000"
   },
   {
      "name": "Fortín de las Flores",
      "countryCode": "MX",
      "stateCode": "VER",
      "latitude": "18.90806000",
      "longitude": "-97.00000000"
   },
   {
      "name": "Fraccionamiento Arboledas San Ramón",
      "countryCode": "MX",
      "stateCode": "VER",
      "latitude": "19.09417000",
      "longitude": "-96.15667000"
   },
   {
      "name": "Fraccionamiento Ciudad Olmeca",
      "countryCode": "MX",
      "stateCode": "VER",
      "latitude": "18.15056000",
      "longitude": "-94.55250000"
   },
   {
      "name": "Fraccionamiento Costa Dorada",
      "countryCode": "MX",
      "stateCode": "VER",
      "latitude": "19.20833000",
      "longitude": "-96.21639000"
   },
   {
      "name": "Fraccionamiento Geovillas los Pinos",
      "countryCode": "MX",
      "stateCode": "VER",
      "latitude": "19.21722000",
      "longitude": "-96.22639000"
   },
   {
      "name": "Fraccionamiento Santa Cruz",
      "countryCode": "MX",
      "stateCode": "VER",
      "latitude": "17.97194000",
      "longitude": "-94.89500000"
   },
   {
      "name": "Fraccionamiento Valle Dorado",
      "countryCode": "MX",
      "stateCode": "VER",
      "latitude": "18.86889000",
      "longitude": "-97.12222000"
   },
   {
      "name": "Fraccionamiento Villas de la Llave",
      "countryCode": "MX",
      "stateCode": "VER",
      "latitude": "18.91583000",
      "longitude": "-96.99111000"
   },
   {
      "name": "Fraccionamiento la Florida",
      "countryCode": "MX",
      "stateCode": "VER",
      "latitude": "20.58667000",
      "longitude": "-97.42833000"
   },
   {
      "name": "Fraccionamiento las Fuentes",
      "countryCode": "MX",
      "stateCode": "VER",
      "latitude": "19.49611000",
      "longitude": "-96.88639000"
   },
   {
      "name": "Fraccionamiento los Prados",
      "countryCode": "MX",
      "stateCode": "VER",
      "latitude": "17.97778000",
      "longitude": "-94.63917000"
   },
   {
      "name": "Fraccionamiento los Álamos",
      "countryCode": "MX",
      "stateCode": "VER",
      "latitude": "18.92389000",
      "longitude": "-96.97528000"
   },
   {
      "name": "Francisco I. Madero",
      "countryCode": "MX",
      "stateCode": "VER",
      "latitude": "19.52718000",
      "longitude": "-97.27067000"
   },
   {
      "name": "Fredepo",
      "countryCode": "MX",
      "stateCode": "VER",
      "latitude": "18.88056000",
      "longitude": "-96.97694000"
   },
   {
      "name": "Gabino Barreda",
      "countryCode": "MX",
      "stateCode": "VER",
      "latitude": "18.17922000",
      "longitude": "-96.09162000"
   },
   {
      "name": "General Alatriste (San Joaquín)",
      "countryCode": "MX",
      "stateCode": "VER",
      "latitude": "18.84028000",
      "longitude": "-96.79361000"
   },
   {
      "name": "General Juan José Baz (San José del Corral)",
      "countryCode": "MX",
      "stateCode": "VER",
      "latitude": "18.82167000",
      "longitude": "-96.81806000"
   },
   {
      "name": "General Miguel Alemán",
      "countryCode": "MX",
      "stateCode": "VER",
      "latitude": "18.89346000",
      "longitude": "-96.79239000"
   },
   {
      "name": "Guadalupe",
      "countryCode": "MX",
      "stateCode": "VER",
      "latitude": "18.81560000",
      "longitude": "-96.92444000"
   },
   {
      "name": "Guadalupe Victoria",
      "countryCode": "MX",
      "stateCode": "VER",
      "latitude": "19.55472000",
      "longitude": "-96.96056000"
   },
   {
      "name": "Guayalejo",
      "countryCode": "MX",
      "stateCode": "VER",
      "latitude": "22.38306000",
      "longitude": "-98.48306000"
   },
   {
      "name": "Guillermo Prieto",
      "countryCode": "MX",
      "stateCode": "VER",
      "latitude": "18.16077000",
      "longitude": "-94.27658000"
   },
   {
      "name": "Gutiérrez Zamora",
      "countryCode": "MX",
      "stateCode": "VER",
      "latitude": "20.45347000",
      "longitude": "-97.08588000"
   },
   {
      "name": "Hacienda Sotavento",
      "countryCode": "MX",
      "stateCode": "VER",
      "latitude": "19.13361000",
      "longitude": "-96.18139000"
   },
   {
      "name": "Helio García Alfaro",
      "countryCode": "MX",
      "stateCode": "VER",
      "latitude": "17.25968000",
      "longitude": "-94.28849000"
   },
   {
      "name": "Hermanos Cedillo",
      "countryCode": "MX",
      "stateCode": "VER",
      "latitude": "17.25194000",
      "longitude": "-94.61129000"
   },
   {
      "name": "Hermenegildo J. Aldana",
      "countryCode": "MX",
      "stateCode": "VER",
      "latitude": "18.00611000",
      "longitude": "-94.61222000"
   },
   {
      "name": "Hidalgo Amajac",
      "countryCode": "MX",
      "stateCode": "VER",
      "latitude": "20.90500000",
      "longitude": "-97.62944000"
   },
   {
      "name": "Hidalgotitlán",
      "countryCode": "MX",
      "stateCode": "VER",
      "latitude": "17.77051000",
      "longitude": "-94.64703000"
   },
   {
      "name": "Hornitos",
      "countryCode": "MX",
      "stateCode": "VER",
      "latitude": "19.46083000",
      "longitude": "-96.42111000"
   },
   {
      "name": "Huatusco",
      "countryCode": "MX",
      "stateCode": "VER",
      "latitude": "19.14876000",
      "longitude": "-96.96760000"
   },
   {
      "name": "Huayacanes",
      "countryCode": "MX",
      "stateCode": "VER",
      "latitude": "17.91844000",
      "longitude": "-95.27767000"
   },
   {
      "name": "Huayacocotla",
      "countryCode": "MX",
      "stateCode": "VER",
      "latitude": "20.53671000",
      "longitude": "-98.48080000"
   },
   {
      "name": "Huazuntlán",
      "countryCode": "MX",
      "stateCode": "VER",
      "latitude": "18.15667000",
      "longitude": "-94.79306000"
   },
   {
      "name": "Huexotitla",
      "countryCode": "MX",
      "stateCode": "VER",
      "latitude": "20.76984000",
      "longitude": "-98.08872000"
   },
   {
      "name": "Hueyapan de Ocampo",
      "countryCode": "MX",
      "stateCode": "VER",
      "latitude": "18.14479000",
      "longitude": "-95.14873000"
   },
   {
      "name": "Hueytepec",
      "countryCode": "MX",
      "stateCode": "VER",
      "latitude": "20.32635000",
      "longitude": "-97.02680000"
   },
   {
      "name": "Huiloapan",
      "countryCode": "MX",
      "stateCode": "VER",
      "latitude": "18.75000000",
      "longitude": "-97.31667000"
   },
   {
      "name": "Huiloapan de Cuauhtémoc",
      "countryCode": "MX",
      "stateCode": "VER",
      "latitude": "18.81722000",
      "longitude": "-97.15444000"
   },
   {
      "name": "Huitzila",
      "countryCode": "MX",
      "stateCode": "VER",
      "latitude": "18.71898000",
      "longitude": "-97.17033000"
   },
   {
      "name": "Huixcolotla",
      "countryCode": "MX",
      "stateCode": "VER",
      "latitude": "18.66556000",
      "longitude": "-96.49750000"
   },
   {
      "name": "Ignacio Zaragoza",
      "countryCode": "MX",
      "stateCode": "VER",
      "latitude": "19.71222000",
      "longitude": "-97.22500000"
   },
   {
      "name": "Ignacio de la Llave",
      "countryCode": "MX",
      "stateCode": "VER",
      "latitude": "18.72580000",
      "longitude": "-95.98696000"
   },
   {
      "name": "Ilamatlán",
      "countryCode": "MX",
      "stateCode": "VER",
      "latitude": "20.78053000",
      "longitude": "-98.44320000"
   },
   {
      "name": "Isla",
      "countryCode": "MX",
      "stateCode": "VER",
      "latitude": "18.06369000",
      "longitude": "-95.55320000"
   },
   {
      "name": "Ixcapantla",
      "countryCode": "MX",
      "stateCode": "VER",
      "latitude": "19.02571000",
      "longitude": "-96.97052000"
   },
   {
      "name": "Ixcatepec",
      "countryCode": "MX",
      "stateCode": "VER",
      "latitude": "21.23695000",
      "longitude": "-98.00689000"
   },
   {
      "name": "Ixcatla",
      "countryCode": "MX",
      "stateCode": "VER",
      "latitude": "19.07528000",
      "longitude": "-96.91889000"
   },
   {
      "name": "Ixhuacán de los Reyes",
      "countryCode": "MX",
      "stateCode": "VER",
      "latitude": "19.35526000",
      "longitude": "-97.11751000"
   },
   {
      "name": "Ixhuapan",
      "countryCode": "MX",
      "stateCode": "VER",
      "latitude": "18.01333000",
      "longitude": "-94.87667000"
   },
   {
      "name": "Ixhuatlancillo",
      "countryCode": "MX",
      "stateCode": "VER",
      "latitude": "18.89766000",
      "longitude": "-97.14899000"
   },
   {
      "name": "Ixhuatlán de Madero",
      "countryCode": "MX",
      "stateCode": "VER",
      "latitude": "20.68879000",
      "longitude": "-98.01177000"
   },
   {
      "name": "Ixhuatlán del Café",
      "countryCode": "MX",
      "stateCode": "VER",
      "latitude": "19.04179000",
      "longitude": "-96.92694000"
   },
   {
      "name": "Ixhuatlán del Sureste",
      "countryCode": "MX",
      "stateCode": "VER",
      "latitude": "18.01368000",
      "longitude": "-94.37794000"
   },
   {
      "name": "Ixpila",
      "countryCode": "MX",
      "stateCode": "VER",
      "latitude": "19.11837000",
      "longitude": "-96.96675000"
   },
   {
      "name": "Ixtacapa el Chico",
      "countryCode": "MX",
      "stateCode": "VER",
      "latitude": "18.49001000",
      "longitude": "-96.74246000"
   },
   {
      "name": "Ixtaczoquitlán",
      "countryCode": "MX",
      "stateCode": "VER",
      "latitude": "18.85364000",
      "longitude": "-97.06229000"
   },
   {
      "name": "Jacarandas",
      "countryCode": "MX",
      "stateCode": "VER",
      "latitude": "19.49556000",
      "longitude": "-96.85278000"
   },
   {
      "name": "Jalacingo",
      "countryCode": "MX",
      "stateCode": "VER",
      "latitude": "19.80333000",
      "longitude": "-97.30830000"
   },
   {
      "name": "Jalapilla",
      "countryCode": "MX",
      "stateCode": "VER",
      "latitude": "18.82642000",
      "longitude": "-97.08865000"
   },
   {
      "name": "Jalcomulco",
      "countryCode": "MX",
      "stateCode": "VER",
      "latitude": "19.33185000",
      "longitude": "-96.76250000"
   },
   {
      "name": "Jamapa",
      "countryCode": "MX",
      "stateCode": "VER",
      "latitude": "19.04179000",
      "longitude": "-96.24143000"
   },
   {
      "name": "Jesús Carranza",
      "countryCode": "MX",
      "stateCode": "VER",
      "latitude": "17.43526000",
      "longitude": "-95.02637000"
   },
   {
      "name": "Jilotepec",
      "countryCode": "MX",
      "stateCode": "VER",
      "latitude": "19.61184000",
      "longitude": "-96.95169000"
   },
   {
      "name": "Joachín",
      "countryCode": "MX",
      "stateCode": "VER",
      "latitude": "18.63855000",
      "longitude": "-96.23318000"
   },
   {
      "name": "José Cardel",
      "countryCode": "MX",
      "stateCode": "VER",
      "latitude": "19.36810000",
      "longitude": "-96.36951000"
   },
   {
      "name": "José F. Gutiérrez",
      "countryCode": "MX",
      "stateCode": "VER",
      "latitude": "18.02526000",
      "longitude": "-94.61028000"
   },
   {
      "name": "Juan Díaz Covarrubias",
      "countryCode": "MX",
      "stateCode": "VER",
      "latitude": "18.15964000",
      "longitude": "-95.18675000"
   },
   {
      "name": "Juan Jacobo Torres [Bodega de Totontepec]",
      "countryCode": "MX",
      "stateCode": "VER",
      "latitude": "18.33645000",
      "longitude": "-95.26033000"
   },
   {
      "name": "Juan Marcos (San José Buenavista)",
      "countryCode": "MX",
      "stateCode": "VER",
      "latitude": "19.72917000",
      "longitude": "-97.19667000"
   },
   {
      "name": "Juan Rodríguez Clara",
      "countryCode": "MX",
      "stateCode": "VER",
      "latitude": "17.99283000",
      "longitude": "-95.40099000"
   },
   {
      "name": "Juchique de Ferrer",
      "countryCode": "MX",
      "stateCode": "VER",
      "latitude": "19.83985000",
      "longitude": "-96.69463000"
   },
   {
      "name": "Jáltipan de Morelos",
      "countryCode": "MX",
      "stateCode": "VER",
      "latitude": "17.96542000",
      "longitude": "-94.71396000"
   },
   {
      "name": "La Antigua",
      "countryCode": "MX",
      "stateCode": "VER",
      "latitude": "19.31619000",
      "longitude": "-96.31736000"
   },
   {
      "name": "La Camelia",
      "countryCode": "MX",
      "stateCode": "VER",
      "latitude": "20.89631000",
      "longitude": "-97.77247000"
   },
   {
      "name": "La Capilla",
      "countryCode": "MX",
      "stateCode": "VER",
      "latitude": "18.89442000",
      "longitude": "-96.24132000"
   },
   {
      "name": "La Cerquilla",
      "countryCode": "MX",
      "stateCode": "VER",
      "latitude": "17.90786000",
      "longitude": "-95.05497000"
   },
   {
      "name": "La Colonia Guadalupe",
      "countryCode": "MX",
      "stateCode": "VER",
      "latitude": "20.34387000",
      "longitude": "-97.62223000"
   },
   {
      "name": "La Concepción",
      "countryCode": "MX",
      "stateCode": "VER",
      "latitude": "19.60620000",
      "longitude": "-96.90016000"
   },
   {
      "name": "La Cuesta",
      "countryCode": "MX",
      "stateCode": "VER",
      "latitude": "18.79028000",
      "longitude": "-97.16806000"
   },
   {
      "name": "La Defensa",
      "countryCode": "MX",
      "stateCode": "VER",
      "latitude": "20.10507000",
      "longitude": "-96.96079000"
   },
   {
      "name": "La Gloria",
      "countryCode": "MX",
      "stateCode": "VER",
      "latitude": "19.42631000",
      "longitude": "-96.40211000"
   },
   {
      "name": "La Guadalupe",
      "countryCode": "MX",
      "stateCode": "VER",
      "latitude": "20.37336000",
      "longitude": "-96.91925000"
   },
   {
      "name": "La Guásima",
      "countryCode": "MX",
      "stateCode": "VER",
      "latitude": "20.53973000",
      "longitude": "-97.24950000"
   },
   {
      "name": "La Horqueta (Poblado Doce)",
      "countryCode": "MX",
      "stateCode": "VER",
      "latitude": "17.21012000",
      "longitude": "-94.20249000"
   },
   {
      "name": "La Isla",
      "countryCode": "MX",
      "stateCode": "VER",
      "latitude": "18.60000000",
      "longitude": "-96.15000000"
   },
   {
      "name": "La Isla (Kilómetro 10)",
      "countryCode": "MX",
      "stateCode": "VER",
      "latitude": "20.60806000",
      "longitude": "-97.50139000"
   },
   {
      "name": "La Isla Km 10",
      "countryCode": "MX",
      "stateCode": "VER",
      "latitude": "20.60677000",
      "longitude": "-97.49950000"
   },
   {
      "name": "La Isla de Chapachapa",
      "countryCode": "MX",
      "stateCode": "VER",
      "latitude": "20.12186000",
      "longitude": "-96.88208000"
   },
   {
      "name": "La Joya",
      "countryCode": "MX",
      "stateCode": "VER",
      "latitude": "19.61099000",
      "longitude": "-97.02687000"
   },
   {
      "name": "La Junta",
      "countryCode": "MX",
      "stateCode": "VER",
      "latitude": "18.49136000",
      "longitude": "-96.65720000"
   },
   {
      "name": "La Laguna",
      "countryCode": "MX",
      "stateCode": "VER",
      "latitude": "19.48214000",
      "longitude": "-96.93366000"
   },
   {
      "name": "La Laguna y Monte del Castillo",
      "countryCode": "MX",
      "stateCode": "VER",
      "latitude": "18.98334000",
      "longitude": "-96.07806000"
   },
   {
      "name": "La Libertad",
      "countryCode": "MX",
      "stateCode": "VER",
      "latitude": "20.05345000",
      "longitude": "-96.97314000"
   },
   {
      "name": "La Nueva Era",
      "countryCode": "MX",
      "stateCode": "VER",
      "latitude": "17.69861000",
      "longitude": "-95.80833000"
   },
   {
      "name": "La Nueva Victoria",
      "countryCode": "MX",
      "stateCode": "VER",
      "latitude": "18.65639000",
      "longitude": "-95.25806000"
   },
   {
      "name": "La Orduña",
      "countryCode": "MX",
      "stateCode": "VER",
      "latitude": "19.45141000",
      "longitude": "-96.93598000"
   },
   {
      "name": "La Palma",
      "countryCode": "MX",
      "stateCode": "VER",
      "latitude": "20.17941000",
      "longitude": "-97.06718000"
   },
   {
      "name": "La Palmilla",
      "countryCode": "MX",
      "stateCode": "VER",
      "latitude": "20.02041000",
      "longitude": "-97.14553000"
   },
   {
      "name": "La Perla",
      "countryCode": "MX",
      "stateCode": "VER",
      "latitude": "18.92817000",
      "longitude": "-97.13362000"
   },
   {
      "name": "La Providencia",
      "countryCode": "MX",
      "stateCode": "VER",
      "latitude": "18.75304000",
      "longitude": "-96.77087000"
   },
   {
      "name": "La Reforma",
      "countryCode": "MX",
      "stateCode": "VER",
      "latitude": "19.59664000",
      "longitude": "-96.63302000"
   },
   {
      "name": "La Sidra",
      "countryCode": "MX",
      "stateCode": "VER",
      "latitude": "18.93380000",
      "longitude": "-97.07989000"
   },
   {
      "name": "La Sombra",
      "countryCode": "MX",
      "stateCode": "VER",
      "latitude": "19.75076000",
      "longitude": "-96.71420000"
   },
   {
      "name": "La Tinaja",
      "countryCode": "MX",
      "stateCode": "VER",
      "latitude": "18.76082000",
      "longitude": "-96.46283000"
   },
   {
      "name": "La Toma",
      "countryCode": "MX",
      "stateCode": "VER",
      "latitude": "19.45278000",
      "longitude": "-97.19361000"
   },
   {
      "name": "La Unión",
      "countryCode": "MX",
      "stateCode": "VER",
      "latitude": "20.89222000",
      "longitude": "-97.66528000"
   },
   {
      "name": "La Unión Paso Largo",
      "countryCode": "MX",
      "stateCode": "VER",
      "latitude": "20.14224000",
      "longitude": "-96.99995000"
   },
   {
      "name": "La Victoria",
      "countryCode": "MX",
      "stateCode": "VER",
      "latitude": "18.37486000",
      "longitude": "-95.12213000"
   },
   {
      "name": "La Victoria (La Peñita)",
      "countryCode": "MX",
      "stateCode": "VER",
      "latitude": "20.93694000",
      "longitude": "-97.37250000"
   },
   {
      "name": "Laguna Chica (Pueblo Nuevo)",
      "countryCode": "MX",
      "stateCode": "VER",
      "latitude": "18.54306000",
      "longitude": "-96.73306000"
   },
   {
      "name": "Laguna de Farfán",
      "countryCode": "MX",
      "stateCode": "VER",
      "latitude": "19.80327000",
      "longitude": "-96.64386000"
   },
   {
      "name": "Laguneta",
      "countryCode": "MX",
      "stateCode": "VER",
      "latitude": "18.34298000",
      "longitude": "-95.15181000"
   },
   {
      "name": "Landero y Coss",
      "countryCode": "MX",
      "stateCode": "VER",
      "latitude": "19.73935000",
      "longitude": "-96.85009000"
   },
   {
      "name": "Las Amapolas",
      "countryCode": "MX",
      "stateCode": "VER",
      "latitude": "19.15194000",
      "longitude": "-96.19778000"
   },
   {
      "name": "Las Barrillas",
      "countryCode": "MX",
      "stateCode": "VER",
      "latitude": "18.18617000",
      "longitude": "-94.59542000"
   },
   {
      "name": "Las Choapas",
      "countryCode": "MX",
      "stateCode": "VER",
      "latitude": "17.91177000",
      "longitude": "-94.09646000"
   },
   {
      "name": "Las Higueras",
      "countryCode": "MX",
      "stateCode": "VER",
      "latitude": "20.03693000",
      "longitude": "-96.62199000"
   },
   {
      "name": "Las Lomas",
      "countryCode": "MX",
      "stateCode": "VER",
      "latitude": "20.26067000",
      "longitude": "-97.61528000"
   },
   {
      "name": "Las Lomas de Tacamichapan",
      "countryCode": "MX",
      "stateCode": "VER",
      "latitude": "17.86611000",
      "longitude": "-94.70833000"
   },
   {
      "name": "Las Minas",
      "countryCode": "MX",
      "stateCode": "VER",
      "latitude": "19.70449000",
      "longitude": "-97.14699000"
   },
   {
      "name": "Las Sabanetas",
      "countryCode": "MX",
      "stateCode": "VER",
      "latitude": "18.12661000",
      "longitude": "-95.82265000"
   },
   {
      "name": "Las Sabinas",
      "countryCode": "MX",
      "stateCode": "VER",
      "latitude": "21.31806000",
      "longitude": "-97.88083000"
   },
   {
      "name": "Las Trancas",
      "countryCode": "MX",
      "stateCode": "VER",
      "latitude": "19.50444000",
      "longitude": "-96.86444000"
   },
   {
      "name": "Las Vigas de Ramírez",
      "countryCode": "MX",
      "stateCode": "VER",
      "latitude": "19.63722000",
      "longitude": "-97.09821000"
   },
   {
      "name": "Lerdo de Tejada",
      "countryCode": "MX",
      "stateCode": "VER",
      "latitude": "18.62936000",
      "longitude": "-95.51968000"
   },
   {
      "name": "Limones",
      "countryCode": "MX",
      "stateCode": "VER",
      "latitude": "19.33820000",
      "longitude": "-96.92336000"
   },
   {
      "name": "Lindavista",
      "countryCode": "MX",
      "stateCode": "VER",
      "latitude": "18.08899000",
      "longitude": "-95.77597000"
   },
   {
      "name": "Llano Grande",
      "countryCode": "MX",
      "stateCode": "VER",
      "latitude": "19.37035000",
      "longitude": "-96.88002000"
   },
   {
      "name": "Llano de Enmedio",
      "countryCode": "MX",
      "stateCode": "VER",
      "latitude": "20.78328000",
      "longitude": "-98.01364000"
   },
   {
      "name": "Loma Angosta",
      "countryCode": "MX",
      "stateCode": "VER",
      "latitude": "18.78309000",
      "longitude": "-96.67588000"
   },
   {
      "name": "Loma Grande",
      "countryCode": "MX",
      "stateCode": "VER",
      "latitude": "18.92250000",
      "longitude": "-97.23083000"
   },
   {
      "name": "Loma de Sogotegoyo",
      "countryCode": "MX",
      "stateCode": "VER",
      "latitude": "18.21896000",
      "longitude": "-94.97373000"
   },
   {
      "name": "Loma de los Carmona",
      "countryCode": "MX",
      "stateCode": "VER",
      "latitude": "19.10556000",
      "longitude": "-96.39369000"
   },
   {
      "name": "Lomas Verdes",
      "countryCode": "MX",
      "stateCode": "VER",
      "latitude": "19.50446000",
      "longitude": "-96.88899000"
   },
   {
      "name": "Lomas de Barrillas",
      "countryCode": "MX",
      "stateCode": "VER",
      "latitude": "18.14806000",
      "longitude": "-94.52639000"
   },
   {
      "name": "Lomas de Río Medio Cuatro",
      "countryCode": "MX",
      "stateCode": "VER",
      "latitude": "19.19333000",
      "longitude": "-96.21056000"
   },
   {
      "name": "Los Altos",
      "countryCode": "MX",
      "stateCode": "VER",
      "latitude": "21.50976000",
      "longitude": "-97.75705000"
   },
   {
      "name": "Los Cerritos",
      "countryCode": "MX",
      "stateCode": "VER",
      "latitude": "18.07884000",
      "longitude": "-94.61668000"
   },
   {
      "name": "Los Lirios",
      "countryCode": "MX",
      "stateCode": "VER",
      "latitude": "18.50058000",
      "longitude": "-95.38828000"
   },
   {
      "name": "Los Mangos",
      "countryCode": "MX",
      "stateCode": "VER",
      "latitude": "18.24361000",
      "longitude": "-95.12222000"
   },
   {
      "name": "Los Molinos",
      "countryCode": "MX",
      "stateCode": "VER",
      "latitude": "19.59565000",
      "longitude": "-97.21513000"
   },
   {
      "name": "Los Naranjos",
      "countryCode": "MX",
      "stateCode": "VER",
      "latitude": "18.33111000",
      "longitude": "-95.24167000"
   },
   {
      "name": "Los Pescados",
      "countryCode": "MX",
      "stateCode": "VER",
      "latitude": "19.56114000",
      "longitude": "-97.14848000"
   },
   {
      "name": "Los Pinos",
      "countryCode": "MX",
      "stateCode": "VER",
      "latitude": "18.44389000",
      "longitude": "-95.24333000"
   },
   {
      "name": "Los Reyes",
      "countryCode": "MX",
      "stateCode": "VER",
      "latitude": "18.67428000",
      "longitude": "-97.03851000"
   },
   {
      "name": "Los Robles",
      "countryCode": "MX",
      "stateCode": "VER",
      "latitude": "18.97305000",
      "longitude": "-96.11768000"
   },
   {
      "name": "Los Tigres (San Marcos)",
      "countryCode": "MX",
      "stateCode": "VER",
      "latitude": "17.89056000",
      "longitude": "-95.34944000"
   },
   {
      "name": "Los Torrentes",
      "countryCode": "MX",
      "stateCode": "VER",
      "latitude": "19.20194000",
      "longitude": "-96.21139000"
   },
   {
      "name": "Los Ídolos",
      "countryCode": "MX",
      "stateCode": "VER",
      "latitude": "19.41173000",
      "longitude": "-96.51808000"
   },
   {
      "name": "Lázaro Cárdenas (Santana)",
      "countryCode": "MX",
      "stateCode": "VER",
      "latitude": "20.22500000",
      "longitude": "-97.59306000"
   },
   {
      "name": "Macedonio Alonso",
      "countryCode": "MX",
      "stateCode": "VER",
      "latitude": "20.27417000",
      "longitude": "-97.69194000"
   },
   {
      "name": "Mafafas",
      "countryCode": "MX",
      "stateCode": "VER",
      "latitude": "19.65866000",
      "longitude": "-96.75591000"
   },
   {
      "name": "Magdalena",
      "countryCode": "MX",
      "stateCode": "VER",
      "latitude": "18.76066000",
      "longitude": "-97.04385000"
   },
   {
      "name": "Mahuixtlan",
      "countryCode": "MX",
      "stateCode": "VER",
      "latitude": "19.40948000",
      "longitude": "-96.91750000"
   },
   {
      "name": "Maltrata",
      "countryCode": "MX",
      "stateCode": "VER",
      "latitude": "18.81091000",
      "longitude": "-97.27538000"
   },
   {
      "name": "Manuel León",
      "countryCode": "MX",
      "stateCode": "VER",
      "latitude": "18.85365000",
      "longitude": "-96.87124000"
   },
   {
      "name": "Manuel María Contreras",
      "countryCode": "MX",
      "stateCode": "VER",
      "latitude": "20.44617000",
      "longitude": "-97.48329000"
   },
   {
      "name": "Mapachapa",
      "countryCode": "MX",
      "stateCode": "VER",
      "latitude": "18.02979000",
      "longitude": "-94.56700000"
   },
   {
      "name": "Mariano Escobedo",
      "countryCode": "MX",
      "stateCode": "VER",
      "latitude": "18.91333000",
      "longitude": "-97.13000000"
   },
   {
      "name": "Martínez de la Torre",
      "countryCode": "MX",
      "stateCode": "VER",
      "latitude": "20.07082000",
      "longitude": "-97.06078000"
   },
   {
      "name": "María de la Torre",
      "countryCode": "MX",
      "stateCode": "VER",
      "latitude": "20.12915000",
      "longitude": "-96.99544000"
   },
   {
      "name": "Mata Loma",
      "countryCode": "MX",
      "stateCode": "VER",
      "latitude": "19.13172000",
      "longitude": "-96.29587000"
   },
   {
      "name": "Mata Naranjo",
      "countryCode": "MX",
      "stateCode": "VER",
      "latitude": "18.77746000",
      "longitude": "-96.71333000"
   },
   {
      "name": "Mata Obscura",
      "countryCode": "MX",
      "stateCode": "VER",
      "latitude": "19.21795000",
      "longitude": "-96.85426000"
   },
   {
      "name": "Mata Tenatito (Casco Hacienda)",
      "countryCode": "MX",
      "stateCode": "VER",
      "latitude": "18.72187000",
      "longitude": "-96.66288000"
   },
   {
      "name": "Mata de Indio",
      "countryCode": "MX",
      "stateCode": "VER",
      "latitude": "19.23028000",
      "longitude": "-96.84136000"
   },
   {
      "name": "Matacapan",
      "countryCode": "MX",
      "stateCode": "VER",
      "latitude": "18.43472000",
      "longitude": "-95.16583000"
   },
   {
      "name": "Mazumiapam",
      "countryCode": "MX",
      "stateCode": "VER",
      "latitude": "18.30744000",
      "longitude": "-95.33044000"
   },
   {
      "name": "Mecatlán",
      "countryCode": "MX",
      "stateCode": "VER",
      "latitude": "20.21349000",
      "longitude": "-97.65741000"
   },
   {
      "name": "Mecayapan",
      "countryCode": "MX",
      "stateCode": "VER",
      "latitude": "18.22001000",
      "longitude": "-94.83794000"
   },
   {
      "name": "Medellín",
      "countryCode": "MX",
      "stateCode": "VER",
      "latitude": "19.00418000",
      "longitude": "-96.15836000"
   },
   {
      "name": "Medellín de Bravo",
      "countryCode": "MX",
      "stateCode": "VER",
      "latitude": "19.05869000",
      "longitude": "-96.15781000"
   },
   {
      "name": "Medias Aguas",
      "countryCode": "MX",
      "stateCode": "VER",
      "latitude": "17.66776000",
      "longitude": "-95.02857000"
   },
   {
      "name": "Melchor Ocampo",
      "countryCode": "MX",
      "stateCode": "VER",
      "latitude": "19.83972000",
      "longitude": "-97.30667000"
   },
   {
      "name": "Mequetla",
      "countryCode": "MX",
      "stateCode": "VER",
      "latitude": "20.79468000",
      "longitude": "-97.68855000"
   },
   {
      "name": "Mesa de Guadalupe",
      "countryCode": "MX",
      "stateCode": "VER",
      "latitude": "19.56403000",
      "longitude": "-96.69948000"
   },
   {
      "name": "Metlac Hernández (Metlac Primero)",
      "countryCode": "MX",
      "stateCode": "VER",
      "latitude": "18.97750000",
      "longitude": "-97.14306000"
   },
   {
      "name": "Mexcala",
      "countryCode": "MX",
      "stateCode": "VER",
      "latitude": "18.69556000",
      "longitude": "-97.16472000"
   },
   {
      "name": "Miahuatlán",
      "countryCode": "MX",
      "stateCode": "VER",
      "latitude": "19.73629000",
      "longitude": "-96.88062000"
   },
   {
      "name": "Miguel Hidalgo",
      "countryCode": "MX",
      "stateCode": "VER",
      "latitude": "20.55316000",
      "longitude": "-97.50200000"
   },
   {
      "name": "Minatitlán",
      "countryCode": "MX",
      "stateCode": "VER",
      "latitude": "18.00011000",
      "longitude": "-94.55690000"
   },
   {
      "name": "Minzapan",
      "countryCode": "MX",
      "stateCode": "VER",
      "latitude": "18.13873000",
      "longitude": "-94.72733000"
   },
   {
      "name": "Misantla",
      "countryCode": "MX",
      "stateCode": "VER",
      "latitude": "19.92992000",
      "longitude": "-96.85194000"
   },
   {
      "name": "Mixquiapan",
      "countryCode": "MX",
      "stateCode": "VER",
      "latitude": "19.70111000",
      "longitude": "-97.27839000"
   },
   {
      "name": "Mixtla de Altamirano",
      "countryCode": "MX",
      "stateCode": "VER",
      "latitude": "18.59591000",
      "longitude": "-96.99293000"
   },
   {
      "name": "Moloacán",
      "countryCode": "MX",
      "stateCode": "VER",
      "latitude": "17.98544000",
      "longitude": "-94.34714000"
   },
   {
      "name": "Monte Blanco",
      "countryCode": "MX",
      "stateCode": "VER",
      "latitude": "18.96642000",
      "longitude": "-97.01684000"
   },
   {
      "name": "Monte Salas",
      "countryCode": "MX",
      "stateCode": "VER",
      "latitude": "18.93722000",
      "longitude": "-97.01833000"
   },
   {
      "name": "Monte Verde Chivería",
      "countryCode": "MX",
      "stateCode": "VER",
      "latitude": "19.70304000",
      "longitude": "-96.69601000"
   },
   {
      "name": "Moralillo",
      "countryCode": "MX",
      "stateCode": "VER",
      "latitude": "22.22552000",
      "longitude": "-97.91213000"
   },
   {
      "name": "Morelos",
      "countryCode": "MX",
      "stateCode": "VER",
      "latitude": "18.17986000",
      "longitude": "-94.94981000"
   },
   {
      "name": "Motzorongo",
      "countryCode": "MX",
      "stateCode": "VER",
      "latitude": "18.64252000",
      "longitude": "-96.72949000"
   },
   {
      "name": "Moyoapan",
      "countryCode": "MX",
      "stateCode": "VER",
      "latitude": "18.91681000",
      "longitude": "-97.04559000"
   },
   {
      "name": "Mozomboa",
      "countryCode": "MX",
      "stateCode": "VER",
      "latitude": "19.50437000",
      "longitude": "-96.47738000"
   },
   {
      "name": "Mundo Nuevo",
      "countryCode": "MX",
      "stateCode": "VER",
      "latitude": "18.08831000",
      "longitude": "-94.39024000"
   },
   {
      "name": "Nanchital de Lázaro Cárdenas del Río",
      "countryCode": "MX",
      "stateCode": "VER",
      "latitude": "18.07117000",
      "longitude": "-94.40756000"
   },
   {
      "name": "Naolinco",
      "countryCode": "MX",
      "stateCode": "VER",
      "latitude": "19.63666000",
      "longitude": "-96.85254000"
   },
   {
      "name": "Naolinco de Victoria",
      "countryCode": "MX",
      "stateCode": "VER",
      "latitude": "19.65474000",
      "longitude": "-96.87320000"
   },
   {
      "name": "Naranjal",
      "countryCode": "MX",
      "stateCode": "VER",
      "latitude": "18.79836000",
      "longitude": "-96.95972000"
   },
   {
      "name": "Naranjos",
      "countryCode": "MX",
      "stateCode": "VER",
      "latitude": "21.35087000",
      "longitude": "-97.68656000"
   },
   {
      "name": "Naranjos Amatlán",
      "countryCode": "MX",
      "stateCode": "VER",
      "latitude": "21.31139000",
      "longitude": "-97.69131000"
   },
   {
      "name": "Nautla",
      "countryCode": "MX",
      "stateCode": "VER",
      "latitude": "20.20795000",
      "longitude": "-96.77305000"
   },
   {
      "name": "Necoxtla",
      "countryCode": "MX",
      "stateCode": "VER",
      "latitude": "18.77861000",
      "longitude": "-97.15361000"
   },
   {
      "name": "Nicolás Blanco (San Pancho)",
      "countryCode": "MX",
      "stateCode": "VER",
      "latitude": "19.35250000",
      "longitude": "-96.33833000"
   },
   {
      "name": "Niños Héroes",
      "countryCode": "MX",
      "stateCode": "VER",
      "latitude": "17.43493000",
      "longitude": "-94.49884000"
   },
   {
      "name": "Nogales",
      "countryCode": "MX",
      "stateCode": "VER",
      "latitude": "18.82776000",
      "longitude": "-97.16311000"
   },
   {
      "name": "Nopalapan",
      "countryCode": "MX",
      "stateCode": "VER",
      "latitude": "18.11211000",
      "longitude": "-95.33093000"
   },
   {
      "name": "Nopaltepec",
      "countryCode": "MX",
      "stateCode": "VER",
      "latitude": "18.27686000",
      "longitude": "-95.99921000"
   },
   {
      "name": "Novara",
      "countryCode": "MX",
      "stateCode": "VER",
      "latitude": "18.19968000",
      "longitude": "-96.10806000"
   },
   {
      "name": "Nuevo Progreso",
      "countryCode": "MX",
      "stateCode": "VER",
      "latitude": "20.61820000",
      "longitude": "-97.50756000"
   },
   {
      "name": "Nuevo San José Independencia",
      "countryCode": "MX",
      "stateCode": "VER",
      "latitude": "18.38968000",
      "longitude": "-96.06138000"
   },
   {
      "name": "Oasis",
      "countryCode": "MX",
      "stateCode": "VER",
      "latitude": "19.20167000",
      "longitude": "-96.21917000"
   },
   {
      "name": "Ocelota",
      "countryCode": "MX",
      "stateCode": "VER",
      "latitude": "18.39920000",
      "longitude": "-95.28333000"
   },
   {
      "name": "Ocotal Chico",
      "countryCode": "MX",
      "stateCode": "VER",
      "latitude": "18.25771000",
      "longitude": "-94.86047000"
   },
   {
      "name": "Ocotitlán",
      "countryCode": "MX",
      "stateCode": "VER",
      "latitude": "19.04256000",
      "longitude": "-96.90832000"
   },
   {
      "name": "Ocozotepec",
      "countryCode": "MX",
      "stateCode": "VER",
      "latitude": "18.25895000",
      "longitude": "-94.91040000"
   },
   {
      "name": "Ohuapan",
      "countryCode": "MX",
      "stateCode": "VER",
      "latitude": "19.25077000",
      "longitude": "-96.98686000"
   },
   {
      "name": "Ohuilapam",
      "countryCode": "MX",
      "stateCode": "VER",
      "latitude": "18.40204000",
      "longitude": "-95.26279000"
   },
   {
      "name": "Ojite Rancho Nuevo",
      "countryCode": "MX",
      "stateCode": "VER",
      "latitude": "20.96944000",
      "longitude": "-97.52806000"
   },
   {
      "name": "Oluta",
      "countryCode": "MX",
      "stateCode": "VER",
      "latitude": "17.92972000",
      "longitude": "-94.89662000"
   },
   {
      "name": "Omealca",
      "countryCode": "MX",
      "stateCode": "VER",
      "latitude": "18.74732000",
      "longitude": "-96.78520000"
   },
   {
      "name": "Orilla del Monte",
      "countryCode": "MX",
      "stateCode": "VER",
      "latitude": "19.66078000",
      "longitude": "-97.29274000"
   },
   {
      "name": "Orizaba",
      "countryCode": "MX",
      "stateCode": "VER",
      "latitude": "18.85195000",
      "longitude": "-97.09957000"
   },
   {
      "name": "Otates",
      "countryCode": "MX",
      "stateCode": "VER",
      "latitude": "19.52100000",
      "longitude": "-96.71576000"
   },
   {
      "name": "Otatitlán",
      "countryCode": "MX",
      "stateCode": "VER",
      "latitude": "18.17706000",
      "longitude": "-96.03350000"
   },
   {
      "name": "Oteapan",
      "countryCode": "MX",
      "stateCode": "VER",
      "latitude": "18.00173000",
      "longitude": "-94.66615000"
   },
   {
      "name": "Otilpan",
      "countryCode": "MX",
      "stateCode": "VER",
      "latitude": "19.55722000",
      "longitude": "-96.97667000"
   },
   {
      "name": "Oviedo",
      "countryCode": "MX",
      "stateCode": "VER",
      "latitude": "22.04478000",
      "longitude": "-98.40043000"
   },
   {
      "name": "Ozuluama de Mascareñas",
      "countryCode": "MX",
      "stateCode": "VER",
      "latitude": "21.66040000",
      "longitude": "-97.85049000"
   },
   {
      "name": "Pacho Nuevo",
      "countryCode": "MX",
      "stateCode": "VER",
      "latitude": "19.47717000",
      "longitude": "-96.87842000"
   },
   {
      "name": "Pacho Viejo",
      "countryCode": "MX",
      "stateCode": "VER",
      "latitude": "19.48239000",
      "longitude": "-96.91659000"
   },
   {
      "name": "Pahua Hueca",
      "countryCode": "MX",
      "stateCode": "VER",
      "latitude": "19.96139000",
      "longitude": "-97.05511000"
   },
   {
      "name": "Pajapan",
      "countryCode": "MX",
      "stateCode": "VER",
      "latitude": "18.26267000",
      "longitude": "-94.69172000"
   },
   {
      "name": "Palma Sola",
      "countryCode": "MX",
      "stateCode": "VER",
      "latitude": "19.77132000",
      "longitude": "-96.43225000"
   },
   {
      "name": "Palmar Grande",
      "countryCode": "MX",
      "stateCode": "VER",
      "latitude": "18.51511000",
      "longitude": "-96.77880000"
   },
   {
      "name": "Palmas de Abajo",
      "countryCode": "MX",
      "stateCode": "VER",
      "latitude": "19.59001000",
      "longitude": "-96.43659000"
   },
   {
      "name": "Palmillas",
      "countryCode": "MX",
      "stateCode": "VER",
      "latitude": "18.81525000",
      "longitude": "-96.77167000"
   },
   {
      "name": "Palmira",
      "countryCode": "MX",
      "stateCode": "VER",
      "latitude": "18.88278000",
      "longitude": "-97.11139000"
   },
   {
      "name": "Palo Bendito",
      "countryCode": "MX",
      "stateCode": "VER",
      "latitude": "20.45710000",
      "longitude": "-98.50017000"
   },
   {
      "name": "Palo Gacho",
      "countryCode": "MX",
      "stateCode": "VER",
      "latitude": "19.39104000",
      "longitude": "-96.63675000"
   },
   {
      "name": "Papantla de Olarte",
      "countryCode": "MX",
      "stateCode": "VER",
      "latitude": "20.44655000",
      "longitude": "-97.32494000"
   },
   {
      "name": "Paraiso Novillero",
      "countryCode": "MX",
      "stateCode": "VER",
      "latitude": "18.25294000",
      "longitude": "-95.93610000"
   },
   {
      "name": "Paraje Nuevo",
      "countryCode": "MX",
      "stateCode": "VER",
      "latitude": "18.87886000",
      "longitude": "-96.86066000"
   },
   {
      "name": "Paso Nacional",
      "countryCode": "MX",
      "stateCode": "VER",
      "latitude": "18.76639000",
      "longitude": "-95.74861000"
   },
   {
      "name": "Paso de Ovejas",
      "countryCode": "MX",
      "stateCode": "VER",
      "latitude": "19.28450000",
      "longitude": "-96.44037000"
   },
   {
      "name": "Paso de Valencia",
      "countryCode": "MX",
      "stateCode": "VER",
      "latitude": "20.27186000",
      "longitude": "-97.33346000"
   },
   {
      "name": "Paso del Correo",
      "countryCode": "MX",
      "stateCode": "VER",
      "latitude": "20.31619000",
      "longitude": "-97.27216000"
   },
   {
      "name": "Paso del Macho",
      "countryCode": "MX",
      "stateCode": "VER",
      "latitude": "18.97098000",
      "longitude": "-96.72419000"
   },
   {
      "name": "Paso del Toro",
      "countryCode": "MX",
      "stateCode": "VER",
      "latitude": "19.03500000",
      "longitude": "-96.13555000"
   },
   {
      "name": "Perote",
      "countryCode": "MX",
      "stateCode": "VER",
      "latitude": "19.56233000",
      "longitude": "-97.24235000"
   },
   {
      "name": "Perseverancia",
      "countryCode": "MX",
      "stateCode": "VER",
      "latitude": "22.21990000",
      "longitude": "-97.99627000"
   },
   {
      "name": "Peñuela",
      "countryCode": "MX",
      "stateCode": "VER",
      "latitude": "18.86432000",
      "longitude": "-96.89327000"
   },
   {
      "name": "Piedra Parada",
      "countryCode": "MX",
      "stateCode": "VER",
      "latitude": "19.34654000",
      "longitude": "-96.96013000"
   },
   {
      "name": "Piedra Pinta",
      "countryCode": "MX",
      "stateCode": "VER",
      "latitude": "19.99115000",
      "longitude": "-97.19538000"
   },
   {
      "name": "Piedras Negras",
      "countryCode": "MX",
      "stateCode": "VER",
      "latitude": "18.77026000",
      "longitude": "-96.17178000"
   },
   {
      "name": "Piletas",
      "countryCode": "MX",
      "stateCode": "VER",
      "latitude": "19.58806000",
      "longitude": "-96.97861000"
   },
   {
      "name": "Pisaflores",
      "countryCode": "MX",
      "stateCode": "VER",
      "latitude": "20.60941000",
      "longitude": "-97.92782000"
   },
   {
      "name": "Plan de Arroyos",
      "countryCode": "MX",
      "stateCode": "VER",
      "latitude": "19.89297000",
      "longitude": "-97.10888000"
   },
   {
      "name": "Plan de Ayala",
      "countryCode": "MX",
      "stateCode": "VER",
      "latitude": "20.54889000",
      "longitude": "-97.47129000"
   },
   {
      "name": "Plan de Iguala",
      "countryCode": "MX",
      "stateCode": "VER",
      "latitude": "22.03638000",
      "longitude": "-98.46457000"
   },
   {
      "name": "Plan de las Hayas",
      "countryCode": "MX",
      "stateCode": "VER",
      "latitude": "19.75963000",
      "longitude": "-96.67594000"
   },
   {
      "name": "Plan del Río",
      "countryCode": "MX",
      "stateCode": "VER",
      "latitude": "19.40184000",
      "longitude": "-96.65250000"
   },
   {
      "name": "Platón Sánchez",
      "countryCode": "MX",
      "stateCode": "VER",
      "latitude": "21.27182000",
      "longitude": "-98.37456000"
   },
   {
      "name": "Playa Vicente",
      "countryCode": "MX",
      "stateCode": "VER",
      "latitude": "17.83107000",
      "longitude": "-95.81189000"
   },
   {
      "name": "Playa de Chachalacas",
      "countryCode": "MX",
      "stateCode": "VER",
      "latitude": "19.42352000",
      "longitude": "-96.32280000"
   },
   {
      "name": "Playa de la Libertad",
      "countryCode": "MX",
      "stateCode": "VER",
      "latitude": "19.08306000",
      "longitude": "-96.09778000"
   },
   {
      "name": "Poblado 10",
      "countryCode": "MX",
      "stateCode": "VER",
      "latitude": "17.27722000",
      "longitude": "-94.45194000"
   },
   {
      "name": "Poblado Cinco",
      "countryCode": "MX",
      "stateCode": "VER",
      "latitude": "17.27453000",
      "longitude": "-94.55152000"
   },
   {
      "name": "Poblado Dos",
      "countryCode": "MX",
      "stateCode": "VER",
      "latitude": "18.31895000",
      "longitude": "-96.03986000"
   },
   {
      "name": "Poblado Tres",
      "countryCode": "MX",
      "stateCode": "VER",
      "latitude": "18.28929000",
      "longitude": "-96.09114000"
   },
   {
      "name": "Polutla",
      "countryCode": "MX",
      "stateCode": "VER",
      "latitude": "20.52799000",
      "longitude": "-97.25884000"
   },
   {
      "name": "Potrero Viejo",
      "countryCode": "MX",
      "stateCode": "VER",
      "latitude": "18.87733000",
      "longitude": "-96.84357000"
   },
   {
      "name": "Potrero del Llano",
      "countryCode": "MX",
      "stateCode": "VER",
      "latitude": "21.07970000",
      "longitude": "-97.72814000"
   },
   {
      "name": "Poza Rica de Hidalgo",
      "countryCode": "MX",
      "stateCode": "VER",
      "latitude": "20.53315000",
      "longitude": "-97.45946000"
   },
   {
      "name": "Presidio",
      "countryCode": "MX",
      "stateCode": "VER",
      "latitude": "19.06933000",
      "longitude": "-96.97209000"
   },
   {
      "name": "Presidio (Plan de Libres)",
      "countryCode": "MX",
      "stateCode": "VER",
      "latitude": "18.68056000",
      "longitude": "-96.77194000"
   },
   {
      "name": "Primero de Mayo",
      "countryCode": "MX",
      "stateCode": "VER",
      "latitude": "22.22524000",
      "longitude": "-97.81940000"
   },
   {
      "name": "Progreso de Zaragoza",
      "countryCode": "MX",
      "stateCode": "VER",
      "latitude": "20.27490000",
      "longitude": "-97.71163000"
   },
   {
      "name": "Pueblillo",
      "countryCode": "MX",
      "stateCode": "VER",
      "latitude": "20.25438000",
      "longitude": "-97.25523000"
   },
   {
      "name": "Pueblo Viejo",
      "countryCode": "MX",
      "stateCode": "VER",
      "latitude": "22.16081000",
      "longitude": "-97.91013000"
   },
   {
      "name": "Puente Jula",
      "countryCode": "MX",
      "stateCode": "VER",
      "latitude": "19.20018000",
      "longitude": "-96.34828000"
   },
   {
      "name": "Puente de Piedra",
      "countryCode": "MX",
      "stateCode": "VER",
      "latitude": "20.60550000",
      "longitude": "-97.19601000"
   },
   {
      "name": "Puerto Esmeralda",
      "countryCode": "MX",
      "stateCode": "VER",
      "latitude": "18.14778000",
      "longitude": "-94.51778000"
   },
   {
      "name": "Puntilla Aldama",
      "countryCode": "MX",
      "stateCode": "VER",
      "latitude": "20.18915000",
      "longitude": "-96.90693000"
   },
   {
      "name": "Pánuco",
      "countryCode": "MX",
      "stateCode": "VER",
      "latitude": "22.05373000",
      "longitude": "-98.18498000"
   },
   {
      "name": "Quiamoloapan",
      "countryCode": "MX",
      "stateCode": "VER",
      "latitude": "18.06180000",
      "longitude": "-94.99574000"
   },
   {
      "name": "Rafael Delgado",
      "countryCode": "MX",
      "stateCode": "VER",
      "latitude": "18.81014000",
      "longitude": "-97.07172000"
   },
   {
      "name": "Rafael Lucio",
      "countryCode": "MX",
      "stateCode": "VER",
      "latitude": "19.59308000",
      "longitude": "-96.99023000"
   },
   {
      "name": "Rancho Alegre",
      "countryCode": "MX",
      "stateCode": "VER",
      "latitude": "20.20722000",
      "longitude": "-97.63889000"
   },
   {
      "name": "Rancho Nuevo",
      "countryCode": "MX",
      "stateCode": "VER",
      "latitude": "20.67250000",
      "longitude": "-97.20611000"
   },
   {
      "name": "Rancho Viejo",
      "countryCode": "MX",
      "stateCode": "VER",
      "latitude": "19.44451000",
      "longitude": "-96.78168000"
   },
   {
      "name": "Rancho del Padre",
      "countryCode": "MX",
      "stateCode": "VER",
      "latitude": "19.06553000",
      "longitude": "-96.17281000"
   },
   {
      "name": "Residencial Tajín",
      "countryCode": "MX",
      "stateCode": "VER",
      "latitude": "20.59806000",
      "longitude": "-97.41694000"
   },
   {
      "name": "Residencial las Olas",
      "countryCode": "MX",
      "stateCode": "VER",
      "latitude": "18.11861000",
      "longitude": "-94.56611000"
   },
   {
      "name": "Ricardo Flores Magón",
      "countryCode": "MX",
      "stateCode": "VER",
      "latitude": "20.51444000",
      "longitude": "-97.49500000"
   },
   {
      "name": "Rinconada",
      "countryCode": "MX",
      "stateCode": "VER",
      "latitude": "19.35438000",
      "longitude": "-96.56581000"
   },
   {
      "name": "Rincón de Barrabás",
      "countryCode": "MX",
      "stateCode": "VER",
      "latitude": "19.00590000",
      "longitude": "-96.53640000"
   },
   {
      "name": "Rincón de Buena Vista",
      "countryCode": "MX",
      "stateCode": "VER",
      "latitude": "18.75556000",
      "longitude": "-96.86861000"
   },
   {
      "name": "Rodríguez Tejeda",
      "countryCode": "MX",
      "stateCode": "VER",
      "latitude": "18.63198000",
      "longitude": "-96.41526000"
   },
   {
      "name": "Río Blanco",
      "countryCode": "MX",
      "stateCode": "VER",
      "latitude": "18.83036000",
      "longitude": "-97.15600000"
   },
   {
      "name": "Río Medio [Granja]",
      "countryCode": "MX",
      "stateCode": "VER",
      "latitude": "19.20972000",
      "longitude": "-96.20889000"
   },
   {
      "name": "Sabanas de Xalostoc",
      "countryCode": "MX",
      "stateCode": "VER",
      "latitude": "20.22223000",
      "longitude": "-97.53525000"
   },
   {
      "name": "Sabaneta",
      "countryCode": "MX",
      "stateCode": "VER",
      "latitude": "18.22325000",
      "longitude": "-95.08082000"
   },
   {
      "name": "Saladero",
      "countryCode": "MX",
      "stateCode": "VER",
      "latitude": "21.42380000",
      "longitude": "-97.54381000"
   },
   {
      "name": "Salinas",
      "countryCode": "MX",
      "stateCode": "VER",
      "latitude": "18.89022000",
      "longitude": "-95.94299000"
   },
   {
      "name": "Saltabarranca",
      "countryCode": "MX",
      "stateCode": "VER",
      "latitude": "18.59119000",
      "longitude": "-95.53226000"
   },
   {
      "name": "Saltillo",
      "countryCode": "MX",
      "stateCode": "VER",
      "latitude": "18.15893000",
      "longitude": "-94.85325000"
   },
   {
      "name": "Salvador Díaz Mirón",
      "countryCode": "MX",
      "stateCode": "VER",
      "latitude": "19.78580000",
      "longitude": "-96.87314000"
   },
   {
      "name": "San Agustín del Palmar",
      "countryCode": "MX",
      "stateCode": "VER",
      "latitude": "18.51679000",
      "longitude": "-96.72085000"
   },
   {
      "name": "San Andrés Tenejapan",
      "countryCode": "MX",
      "stateCode": "VER",
      "latitude": "18.77389000",
      "longitude": "-97.08583000"
   },
   {
      "name": "San Andrés Tuxtla",
      "countryCode": "MX",
      "stateCode": "VER",
      "latitude": "18.44870000",
      "longitude": "-95.21327000"
   },
   {
      "name": "San Antonio Xoquitla",
      "countryCode": "MX",
      "stateCode": "VER",
      "latitude": "19.34056000",
      "longitude": "-97.16500000"
   },
   {
      "name": "San Cristóbal",
      "countryCode": "MX",
      "stateCode": "VER",
      "latitude": "18.82979000",
      "longitude": "-97.12392000"
   },
   {
      "name": "San Fernando",
      "countryCode": "MX",
      "stateCode": "VER",
      "latitude": "18.26900000",
      "longitude": "-94.88483000"
   },
   {
      "name": "San Francisco",
      "countryCode": "MX",
      "stateCode": "VER",
      "latitude": "20.55254000",
      "longitude": "-98.00209000"
   },
   {
      "name": "San Francisco (Mata Clara)",
      "countryCode": "MX",
      "stateCode": "VER",
      "latitude": "18.81444000",
      "longitude": "-96.74611000"
   },
   {
      "name": "San Francisco Nacaxtle",
      "countryCode": "MX",
      "stateCode": "VER",
      "latitude": "19.11083000",
      "longitude": "-96.59583000"
   },
   {
      "name": "San Isidro",
      "countryCode": "MX",
      "stateCode": "VER",
      "latitude": "18.89111000",
      "longitude": "-97.12583000"
   },
   {
      "name": "San Isidro Palotal",
      "countryCode": "MX",
      "stateCode": "VER",
      "latitude": "18.94417000",
      "longitude": "-96.96583000"
   },
   {
      "name": "San Isidro Xoteapan (San Isidro Texcaltitán)",
      "countryCode": "MX",
      "stateCode": "VER",
      "latitude": "18.46778000",
      "longitude": "-95.23806000"
   },
   {
      "name": "San Isidro el Berro",
      "countryCode": "MX",
      "stateCode": "VER",
      "latitude": "18.92722000",
      "longitude": "-97.20556000"
   },
   {
      "name": "San José Independencia",
      "countryCode": "MX",
      "stateCode": "VER",
      "latitude": "18.75583000",
      "longitude": "-96.94500000"
   },
   {
      "name": "San José Neria",
      "countryCode": "MX",
      "stateCode": "VER",
      "latitude": "18.99333000",
      "longitude": "-96.99917000"
   },
   {
      "name": "San José Súchil",
      "countryCode": "MX",
      "stateCode": "VER",
      "latitude": "18.88778000",
      "longitude": "-97.23722000"
   },
   {
      "name": "San José Tenejapa",
      "countryCode": "MX",
      "stateCode": "VER",
      "latitude": "19.01556000",
      "longitude": "-96.84306000"
   },
   {
      "name": "San José de Abajo",
      "countryCode": "MX",
      "stateCode": "VER",
      "latitude": "18.77583000",
      "longitude": "-96.77722000"
   },
   {
      "name": "San José de Abajo [Unidad Habitacional]",
      "countryCode": "MX",
      "stateCode": "VER",
      "latitude": "18.91972000",
      "longitude": "-96.96361000"
   },
   {
      "name": "San José de Tapia",
      "countryCode": "MX",
      "stateCode": "VER",
      "latitude": "18.84722000",
      "longitude": "-96.95389000"
   },
   {
      "name": "San Juan Evangelista",
      "countryCode": "MX",
      "stateCode": "VER",
      "latitude": "17.88615000",
      "longitude": "-95.13961000"
   },
   {
      "name": "San Juan Seco de Valencia",
      "countryCode": "MX",
      "stateCode": "VER",
      "latitude": "18.30946000",
      "longitude": "-95.15605000"
   },
   {
      "name": "San Juan Volador",
      "countryCode": "MX",
      "stateCode": "VER",
      "latitude": "18.26355000",
      "longitude": "-94.65180000"
   },
   {
      "name": "San Juan de los Reyes (Luis Valenzuela)",
      "countryCode": "MX",
      "stateCode": "VER",
      "latitude": "18.51778000",
      "longitude": "-95.44889000"
   },
   {
      "name": "San Julián",
      "countryCode": "MX",
      "stateCode": "VER",
      "latitude": "19.25680000",
      "longitude": "-96.26717000"
   },
   {
      "name": "San Leoncio Jamaya",
      "countryCode": "MX",
      "stateCode": "VER",
      "latitude": "20.31288000",
      "longitude": "-97.58127000"
   },
   {
      "name": "San Lorenzo Tenochtitlán",
      "countryCode": "MX",
      "stateCode": "VER",
      "latitude": "17.75500000",
      "longitude": "-94.76028000"
   },
   {
      "name": "San Marcos Atesquilapan",
      "countryCode": "MX",
      "stateCode": "VER",
      "latitude": "19.68972000",
      "longitude": "-96.88537000"
   },
   {
      "name": "San Marcos de León",
      "countryCode": "MX",
      "stateCode": "VER",
      "latitude": "19.42377000",
      "longitude": "-96.96442000"
   },
   {
      "name": "San Miguel Mecatepec",
      "countryCode": "MX",
      "stateCode": "VER",
      "latitude": "20.52896000",
      "longitude": "-97.48744000"
   },
   {
      "name": "San Miguel Tlalpoalán",
      "countryCode": "MX",
      "stateCode": "VER",
      "latitude": "19.73981000",
      "longitude": "-97.22662000"
   },
   {
      "name": "San Pedro Coyutla",
      "countryCode": "MX",
      "stateCode": "VER",
      "latitude": "21.22410000",
      "longitude": "-98.43002000"
   },
   {
      "name": "San Pedro Mártir",
      "countryCode": "MX",
      "stateCode": "VER",
      "latitude": "17.97870000",
      "longitude": "-94.61033000"
   },
   {
      "name": "San Pedro Tlanixco",
      "countryCode": "MX",
      "stateCode": "VER",
      "latitude": "19.06259000",
      "longitude": "-99.65237000"
   },
   {
      "name": "San Pedro Tlapacoyan",
      "countryCode": "MX",
      "stateCode": "VER",
      "latitude": "20.05806000",
      "longitude": "-97.09833000"
   },
   {
      "name": "San Rafael",
      "countryCode": "MX",
      "stateCode": "VER",
      "latitude": "20.18862000",
      "longitude": "-96.86737000"
   },
   {
      "name": "San Rafael Calería",
      "countryCode": "MX",
      "stateCode": "VER",
      "latitude": "18.94039000",
      "longitude": "-96.94394000"
   },
   {
      "name": "San Rafael Río Seco",
      "countryCode": "MX",
      "stateCode": "VER",
      "latitude": "18.87608000",
      "longitude": "-96.88127000"
   },
   {
      "name": "San Sebastián",
      "countryCode": "MX",
      "stateCode": "VER",
      "latitude": "21.21724000",
      "longitude": "-98.13271000"
   },
   {
      "name": "Santa Catalina",
      "countryCode": "MX",
      "stateCode": "VER",
      "latitude": "18.16353000",
      "longitude": "-95.20779000"
   },
   {
      "name": "Santa Isabel",
      "countryCode": "MX",
      "stateCode": "VER",
      "latitude": "20.19222000",
      "longitude": "-97.52917000"
   },
   {
      "name": "Santa Lucía Potrerillo",
      "countryCode": "MX",
      "stateCode": "VER",
      "latitude": "18.96917000",
      "longitude": "-97.02417000"
   },
   {
      "name": "Santa María Tatetla",
      "countryCode": "MX",
      "stateCode": "VER",
      "latitude": "19.27278000",
      "longitude": "-96.71251000"
   },
   {
      "name": "Santa Rita",
      "countryCode": "MX",
      "stateCode": "VER",
      "latitude": "19.16736000",
      "longitude": "-96.26000000"
   },
   {
      "name": "Santa Rosa",
      "countryCode": "MX",
      "stateCode": "VER",
      "latitude": "19.47078000",
      "longitude": "-96.46514000"
   },
   {
      "name": "Santa Rosa Abata",
      "countryCode": "MX",
      "stateCode": "VER",
      "latitude": "18.46190000",
      "longitude": "-95.16765000"
   },
   {
      "name": "Santa Rosa Loma Larga",
      "countryCode": "MX",
      "stateCode": "VER",
      "latitude": "18.23098000",
      "longitude": "-95.08710000"
   },
   {
      "name": "Santa Teresa",
      "countryCode": "MX",
      "stateCode": "VER",
      "latitude": "17.69562000",
      "longitude": "-95.67276000"
   },
   {
      "name": "Santiago",
      "countryCode": "MX",
      "stateCode": "VER",
      "latitude": "18.44884000",
      "longitude": "-95.83037000"
   },
   {
      "name": "Santiago Sochiapan",
      "countryCode": "MX",
      "stateCode": "VER",
      "latitude": "17.61585000",
      "longitude": "-95.65276000"
   },
   {
      "name": "Santiago Tuxtla",
      "countryCode": "MX",
      "stateCode": "VER",
      "latitude": "18.46576000",
      "longitude": "-95.30060000"
   },
   {
      "name": "Santiago de la Peña",
      "countryCode": "MX",
      "stateCode": "VER",
      "latitude": "20.94512000",
      "longitude": "-97.40493000"
   },
   {
      "name": "Sasaltitla",
      "countryCode": "MX",
      "stateCode": "VER",
      "latitude": "20.93518000",
      "longitude": "-98.19703000"
   },
   {
      "name": "Sayula de Alemán",
      "countryCode": "MX",
      "stateCode": "VER",
      "latitude": "17.88191000",
      "longitude": "-94.95986000"
   },
   {
      "name": "Sierra de Agua",
      "countryCode": "MX",
      "stateCode": "VER",
      "latitude": "18.75028000",
      "longitude": "-97.24167000"
   },
   {
      "name": "Sihuapan",
      "countryCode": "MX",
      "stateCode": "VER",
      "latitude": "18.43663000",
      "longitude": "-95.17833000"
   },
   {
      "name": "Sinapan",
      "countryCode": "MX",
      "stateCode": "VER",
      "latitude": "18.53480000",
      "longitude": "-95.29287000"
   },
   {
      "name": "Sochiapa",
      "countryCode": "MX",
      "stateCode": "VER",
      "latitude": "19.19292000",
      "longitude": "-96.93989000"
   },
   {
      "name": "Soconusco",
      "countryCode": "MX",
      "stateCode": "VER",
      "latitude": "17.96315000",
      "longitude": "-94.88097000"
   },
   {
      "name": "Soledad Atzompa",
      "countryCode": "MX",
      "stateCode": "VER",
      "latitude": "18.75499000",
      "longitude": "-97.15040000"
   },
   {
      "name": "Soledad de Doblado",
      "countryCode": "MX",
      "stateCode": "VER",
      "latitude": "19.04637000",
      "longitude": "-96.42142000"
   },
   {
      "name": "Sonora",
      "countryCode": "MX",
      "stateCode": "VER",
      "latitude": "19.11219000",
      "longitude": "-96.63531000"
   },