[
   {
      "name": "Altınyayla",
      "countryCode": "TR",
      "stateCode": "15",
      "latitude": "36.99722000",
      "longitude": "29.54579000"
   },
   {
      "name": "Ağlasun",
      "countryCode": "TR",
      "stateCode": "15",
      "latitude": "37.64944000",
      "longitude": "30.53417000"
   },
   {
      "name": "Bucak",
      "countryCode": "TR",
      "stateCode": "15",
      "latitude": "37.45917000",
      "longitude": "30.59500000"
   },
   {
      "name": "Burdur",
      "countryCode": "TR",
      "stateCode": "15",
      "latitude": "37.72028000",
      "longitude": "30.29083000"
   },
   {
      "name": "Gölhisar",
      "countryCode": "TR",
      "stateCode": "15",
      "latitude": "37.14590000",
      "longitude": "29.50876000"
   },
   {
      "name": "Karamanlı",
      "countryCode": "TR",
      "stateCode": "15",
      "latitude": "37.37301000",
      "longitude": "29.82308000"
   },
   {
      "name": "Kemer",
      "countryCode": "TR",
      "stateCode": "15",
      "latitude": "37.35222000",
      "longitude": "30.06306000"
   },
   {
      "name": "Kocaaliler",
      "countryCode": "TR",
      "stateCode": "15",
      "latitude": "37.31694000",
      "longitude": "30.74000000"
   },
   {
      "name": "Kızılkaya",
      "countryCode": "TR",
      "stateCode": "15",
      "latitude": "37.30361000",
      "longitude": "30.44417000"
   },
   {
      "name": "Merkez",
      "countryCode": "TR",
      "stateCode": "15",
      "latitude": "37.62762000",
      "longitude": "30.20408000"
   },
   {
      "name": "Tefenni",
      "countryCode": "TR",
      "stateCode": "15",
      "latitude": "37.30968000",
      "longitude": "29.77538000"
   },
   {
      "name": "Yeşilova",
      "countryCode": "TR",
      "stateCode": "15",
      "latitude": "37.50806000",
      "longitude": "29.75472000"
   },
   {
      "name": "Çavdır İlçesi",
      "countryCode": "TR",
      "stateCode": "15",
      "latitude": "37.16483000",
      "longitude": "29.69937000"
   },
   {
      "name": "Çeltikçi İlçesi",
      "countryCode": "TR",
      "stateCode": "15",
      "latitude": "37.53885000",
      "longitude": "30.46823000"
   }
]