[
   {
      "name": "Abtenau",
      "countryCode": "AT",
      "stateCode": "5",
      "latitude": "47.56373000",
      "longitude": "13.34599000"
   },
   {
      "name": "Adnet",
      "countryCode": "AT",
      "stateCode": "5",
      "latitude": "47.69746000",
      "longitude": "13.13115000"
   },
   {
      "name": "Altenmarkt im Pongau",
      "countryCode": "AT",
      "stateCode": "5",
      "latitude": "47.38333000",
      "longitude": "13.41667000"
   },
   {
      "name": "Anger",
      "countryCode": "AT",
      "stateCode": "5",
      "latitude": "47.15593000",
      "longitude": "13.10592000"
   },
   {
      "name": "Anif",
      "countryCode": "AT",
      "stateCode": "5",
      "latitude": "47.75000000",
      "longitude": "13.06667000"
   },
   {
      "name": "Anthering",
      "countryCode": "AT",
      "stateCode": "5",
      "latitude": "47.88333000",
      "longitude": "13.01667000"
   },
   {
      "name": "Au",
      "countryCode": "AT",
      "stateCode": "5",
      "latitude": "47.70000000",
      "longitude": "13.06667000"
   },
   {
      "name": "Bad Gastein",
      "countryCode": "AT",
      "stateCode": "5",
      "latitude": "47.11547000",
      "longitude": "13.13467000"
   },
   {
      "name": "Bad Hofgastein",
      "countryCode": "AT",
      "stateCode": "5",
      "latitude": "47.17274000",
      "longitude": "13.09871000"
   },
   {
      "name": "Bergheim",
      "countryCode": "AT",
      "stateCode": "5",
      "latitude": "47.83333000",
      "longitude": "13.03333000"
   },
   {
      "name": "Berndorf bei Salzburg",
      "countryCode": "AT",
      "stateCode": "5",
      "latitude": "47.99532000",
      "longitude": "13.06146000"
   },
   {
      "name": "Bischofshofen",
      "countryCode": "AT",
      "stateCode": "5",
      "latitude": "47.41667000",
      "longitude": "13.21667000"
   },
   {
      "name": "Bramberg am Wildkogel",
      "countryCode": "AT",
      "stateCode": "5",
      "latitude": "47.26979000",
      "longitude": "12.33850000"
   },
   {
      "name": "Bruck an der Großglocknerstraße",
      "countryCode": "AT",
      "stateCode": "5",
      "latitude": "47.28494000",
      "longitude": "12.82310000"
   },
   {
      "name": "Burgfried",
      "countryCode": "AT",
      "stateCode": "5",
      "latitude": "47.68004000",
      "longitude": "13.11175000"
   },
   {
      "name": "Bürmoos",
      "countryCode": "AT",
      "stateCode": "5",
      "latitude": "47.98343000",
      "longitude": "12.91786000"
   },
   {
      "name": "Dienten am Hochkönig",
      "countryCode": "AT",
      "stateCode": "5",
      "latitude": "47.38324000",
      "longitude": "13.00369000"
   },
   {
      "name": "Dorfbeuern",
      "countryCode": "AT",
      "stateCode": "5",
      "latitude": "48.01667000",
      "longitude": "13.01667000"
   },
   {
      "name": "Dorfgastein",
      "countryCode": "AT",
      "stateCode": "5",
      "latitude": "47.24172000",
      "longitude": "13.10223000"
   },
   {
      "name": "Eben im Pongau",
      "countryCode": "AT",
      "stateCode": "5",
      "latitude": "47.40000000",
      "longitude": "13.40000000"
   },
   {
      "name": "Ebenau",
      "countryCode": "AT",
      "stateCode": "5",
      "latitude": "47.79073000",
      "longitude": "13.17527000"
   },
   {
      "name": "Eching",
      "countryCode": "AT",
      "stateCode": "5",
      "latitude": "47.97263000",
      "longitude": "12.88786000"
   },
   {
      "name": "Elixhausen",
      "countryCode": "AT",
      "stateCode": "5",
      "latitude": "47.86667000",
      "longitude": "13.06667000"
   },
   {
      "name": "Elsbethen",
      "countryCode": "AT",
      "stateCode": "5",
      "latitude": "47.76464000",
      "longitude": "13.08104000"
   },
   {
      "name": "Esch",
      "countryCode": "AT",
      "stateCode": "5",
      "latitude": "47.84030000",
      "longitude": "13.09223000"
   },
   {
      "name": "Eugendorf",
      "countryCode": "AT",
      "stateCode": "5",
      "latitude": "47.86765000",
      "longitude": "13.12609000"
   },
   {
      "name": "Faistenau",
      "countryCode": "AT",
      "stateCode": "5",
      "latitude": "47.77767000",
      "longitude": "13.23393000"
   },
   {
      "name": "Filzmoos",
      "countryCode": "AT",
      "stateCode": "5",
      "latitude": "47.43333000",
      "longitude": "13.51667000"
   },
   {
      "name": "Flachau",
      "countryCode": "AT",
      "stateCode": "5",
      "latitude": "47.34406000",
      "longitude": "13.39148000"
   },
   {
      "name": "Forstau",
      "countryCode": "AT",
      "stateCode": "5",
      "latitude": "47.37842000",
      "longitude": "13.55558000"
   },
   {
      "name": "Fuschl am See",
      "countryCode": "AT",
      "stateCode": "5",
      "latitude": "47.80000000",
      "longitude": "13.30000000"
   },
   {
      "name": "Georgenberg",
      "countryCode": "AT",
      "stateCode": "5",
      "latitude": "47.63333000",
      "longitude": "13.15000000"
   },
   {
      "name": "Glanegg",
      "countryCode": "AT",
      "stateCode": "5",
      "latitude": "47.75000000",
      "longitude": "13.00000000"
   },
   {
      "name": "Glasenbach",
      "countryCode": "AT",
      "stateCode": "5",
      "latitude": "47.76667000",
      "longitude": "13.08333000"
   },
   {
      "name": "Golling an der Salzach",
      "countryCode": "AT",
      "stateCode": "5",
      "latitude": "47.60000000",
      "longitude": "13.16667000"
   },
   {
      "name": "Grossarl",
      "countryCode": "AT",
      "stateCode": "5",
      "latitude": "47.23333000",
      "longitude": "13.20000000"
   },
   {
      "name": "Grossgmain",
      "countryCode": "AT",
      "stateCode": "5",
      "latitude": "47.72416000",
      "longitude": "12.90851000"
   },
   {
      "name": "Grödig",
      "countryCode": "AT",
      "stateCode": "5",
      "latitude": "47.73833000",
      "longitude": "13.03730000"
   },
   {
      "name": "Habach",
      "countryCode": "AT",
      "stateCode": "5",
      "latitude": "47.81753000",
      "longitude": "13.16252000"
   },
   {
      "name": "Hallein",
      "countryCode": "AT",
      "stateCode": "5",
      "latitude": "47.68333000",
      "longitude": "13.10000000"
   },
   {
      "name": "Hallwang",
      "countryCode": "AT",
      "stateCode": "5",
      "latitude": "47.85000000",
      "longitude": "13.08333000"
   },
   {
      "name": "Henndorf am Wallersee",
      "countryCode": "AT",
      "stateCode": "5",
      "latitude": "47.90000000",
      "longitude": "13.18333000"
   },
   {
      "name": "Himmelreich",
      "countryCode": "AT",
      "stateCode": "5",
      "latitude": "47.80000000",
      "longitude": "12.98333000"
   },
   {
      "name": "Hinterglemm",
      "countryCode": "AT",
      "stateCode": "5",
      "latitude": "47.37685000",
      "longitude": "12.59583000"
   },
   {
      "name": "Hintersee",
      "countryCode": "AT",
      "stateCode": "5",
      "latitude": "47.70000000",
      "longitude": "13.28333000"
   },
   {
      "name": "Hof",
      "countryCode": "AT",
      "stateCode": "5",
      "latitude": "47.35000000",
      "longitude": "13.31667000"
   },
   {
      "name": "Hof bei Salzburg",
      "countryCode": "AT",
      "stateCode": "5",
      "latitude": "47.81929000",
      "longitude": "13.21488000"
   },
   {
      "name": "Hollersbach im Pinzgau",
      "countryCode": "AT",
      "stateCode": "5",
      "latitude": "47.27658000",
      "longitude": "12.42326000"
   },
   {
      "name": "Hüttau",
      "countryCode": "AT",
      "stateCode": "5",
      "latitude": "47.41610000",
      "longitude": "13.30775000"
   },
   {
      "name": "Hüttschlag",
      "countryCode": "AT",
      "stateCode": "5",
      "latitude": "47.17635000",
      "longitude": "13.23239000"
   },
   {
      "name": "Irrsdorf",
      "countryCode": "AT",
      "stateCode": "5",
      "latitude": "47.96667000",
      "longitude": "13.28333000"
   },
   {
      "name": "Kaprun",
      "countryCode": "AT",
      "stateCode": "5",
      "latitude": "47.27239000",
      "longitude": "12.75985000"
   },
   {
      "name": "Kleinarl",
      "countryCode": "AT",
      "stateCode": "5",
      "latitude": "47.27725000",
      "longitude": "13.31955000"
   },
   {
      "name": "Koppl",
      "countryCode": "AT",
      "stateCode": "5",
      "latitude": "47.80808000",
      "longitude": "13.15561000"
   },
   {
      "name": "Krimml",
      "countryCode": "AT",
      "stateCode": "5",
      "latitude": "47.21799000",
      "longitude": "12.17487000"
   },
   {
      "name": "Krispl",
      "countryCode": "AT",
      "stateCode": "5",
      "latitude": "47.71667000",
      "longitude": "13.18333000"
   },
   {
      "name": "Kuchl",
      "countryCode": "AT",
      "stateCode": "5",
      "latitude": "47.62647000",
      "longitude": "13.14480000"
   },
   {
      "name": "Köstendorf",
      "countryCode": "AT",
      "stateCode": "5",
      "latitude": "47.95000000",
      "longitude": "13.20000000"
   },
   {
      "name": "Lamprechtshausen",
      "countryCode": "AT",
      "stateCode": "5",
      "latitude": "47.99098000",
      "longitude": "12.95481000"
   },
   {
      "name": "Lehen",
      "countryCode": "AT",
      "stateCode": "5",
      "latitude": "47.87083000",
      "longitude": "13.01722000"
   },
   {
      "name": "Lend",
      "countryCode": "AT",
      "stateCode": "5",
      "latitude": "47.29856000",
      "longitude": "13.05176000"
   },
   {
      "name": "Lengfelden",
      "countryCode": "AT",
      "stateCode": "5",
      "latitude": "47.85000000",
      "longitude": "13.05000000"
   },
   {
      "name": "Leogang",
      "countryCode": "AT",
      "stateCode": "5",
      "latitude": "47.43906000",
      "longitude": "12.76109000"
   },
   {
      "name": "Lofer",
      "countryCode": "AT",
      "stateCode": "5",
      "latitude": "47.58475000",
      "longitude": "12.69333000"
   },
   {
      "name": "Maishofen",
      "countryCode": "AT",
      "stateCode": "5",
      "latitude": "47.36667000",
      "longitude": "12.80000000"
   },
   {
      "name": "Maria Alm am Steinernen Meer",
      "countryCode": "AT",
      "stateCode": "5",
      "latitude": "47.40579000",
      "longitude": "12.90121000"
   },
   {
      "name": "Mariapfarr",
      "countryCode": "AT",
      "stateCode": "5",
      "latitude": "47.15000000",
      "longitude": "13.75000000"
   },
   {
      "name": "Mattsee",
      "countryCode": "AT",
      "stateCode": "5",
      "latitude": "47.96667000",
      "longitude": "13.10000000"
   },
   {
      "name": "Mauterndorf",
      "countryCode": "AT",
      "stateCode": "5",
      "latitude": "47.13451000",
      "longitude": "13.67884000"
   },
   {
      "name": "Mitterberghütten",
      "countryCode": "AT",
      "stateCode": "5",
      "latitude": "47.40000000",
      "longitude": "13.21667000"
   },
   {
      "name": "Mitterhofen",
      "countryCode": "AT",
      "stateCode": "5",
      "latitude": "47.38333000",
      "longitude": "12.80000000"
   },
   {
      "name": "Mittersill",
      "countryCode": "AT",
      "stateCode": "5",
      "latitude": "47.28333000",
      "longitude": "12.48333000"
   },
   {
      "name": "Mühlbach am Hochkönig",
      "countryCode": "AT",
      "stateCode": "5",
      "latitude": "47.37746000",
      "longitude": "13.12926000"
   },
   {
      "name": "Neualm",
      "countryCode": "AT",
      "stateCode": "5",
      "latitude": "47.69336000",
      "longitude": "13.08758000"
   },
   {
      "name": "Neukirchen am Großvenediger",
      "countryCode": "AT",
      "stateCode": "5",
      "latitude": "47.25046000",
      "longitude": "12.27585000"
   },
   {
      "name": "Neumarkt am Wallersee",
      "countryCode": "AT",
      "stateCode": "5",
      "latitude": "47.95000000",
      "longitude": "13.23333000"
   },
   {
      "name": "Niederalm",
      "countryCode": "AT",
      "stateCode": "5",
      "latitude": "47.72872000",
      "longitude": "13.06223000"
   },
   {
      "name": "Niedernsill",
      "countryCode": "AT",
      "stateCode": "5",
      "latitude": "47.28333000",
      "longitude": "12.65000000"
   },
   {
      "name": "Nußdorf am Haunsberg",
      "countryCode": "AT",
      "stateCode": "5",
      "latitude": "47.95944000",
      "longitude": "13.00917000"
   },
   {
      "name": "Oberalm",
      "countryCode": "AT",
      "stateCode": "5",
      "latitude": "47.70000000",
      "longitude": "13.10000000"
   },
   {
      "name": "Obergäu",
      "countryCode": "AT",
      "stateCode": "5",
      "latitude": "47.58955000",
      "longitude": "13.17621000"
   },
   {
      "name": "Oberndorf bei Salzburg",
      "countryCode": "AT",
      "stateCode": "5",
      "latitude": "47.95000000",
      "longitude": "12.93333000"
   },
   {
      "name": "Obertrum am See",
      "countryCode": "AT",
      "stateCode": "5",
      "latitude": "47.93722000",
      "longitude": "13.07722000"
   },
   {
      "name": "Pfarrwerfen",
      "countryCode": "AT",
      "stateCode": "5",
      "latitude": "47.45729000",
      "longitude": "13.20531000"
   },
   {
      "name": "Pichl",
      "countryCode": "AT",
      "stateCode": "5",
      "latitude": "47.28333000",
      "longitude": "12.85000000"
   },
   {
      "name": "Piesendorf",
      "countryCode": "AT",
      "stateCode": "5",
      "latitude": "47.29077000",
      "longitude": "12.71839000"
   },
   {
      "name": "Plainfeld",
      "countryCode": "AT",
      "stateCode": "5",
      "latitude": "47.83333000",
      "longitude": "13.18333000"
   },
   {
      "name": "Plankenau",
      "countryCode": "AT",
      "stateCode": "5",
      "latitude": "47.32673000",
      "longitude": "13.19282000"
   },
   {
      "name": "Politischer Bezirk Hallein",
      "countryCode": "AT",
      "stateCode": "5",
      "latitude": "47.60000000",
      "longitude": "13.30000000"
   },
   {
      "name": "Politischer Bezirk Salzburg-Umgebung",
      "countryCode": "AT",
      "stateCode": "5",
      "latitude": "47.84019000",
      "longitude": "13.18799000"
   },
   {
      "name": "Politischer Bezirk Sankt Johann im Pongau",
      "countryCode": "AT",
      "stateCode": "5",
      "latitude": "47.30000000",
      "longitude": "13.30000000"
   },
   {
      "name": "Politischer Bezirk Tamsweg",
      "countryCode": "AT",
      "stateCode": "5",
      "latitude": "47.15000000",
      "longitude": "13.70000000"
   },
   {
      "name": "Puch bei Hallein",
      "countryCode": "AT",
      "stateCode": "5",
      "latitude": "47.71536000",
      "longitude": "13.09296000"
   },
   {
      "name": "Radstadt",
      "countryCode": "AT",
      "stateCode": "5",
      "latitude": "47.38333000",
      "longitude": "13.45000000"
   },
   {
      "name": "Ramingstein",
      "countryCode": "AT",
      "stateCode": "5",
      "latitude": "47.07462000",
      "longitude": "13.83642000"
   },
   {
      "name": "Rauris",
      "countryCode": "AT",
      "stateCode": "5",
      "latitude": "47.22656000",
      "longitude": "12.99459000"
   },
   {
      "name": "Reinbach",
      "countryCode": "AT",
      "stateCode": "5",
      "latitude": "47.34673000",
      "longitude": "13.19072000"
   },
   {
      "name": "Reitberg",
      "countryCode": "AT",
      "stateCode": "5",
      "latitude": "47.85269000",
      "longitude": "13.15730000"
   },
   {
      "name": "Saalbach",
      "countryCode": "AT",
      "stateCode": "5",
      "latitude": "47.39138000",
      "longitude": "12.63642000"
   },
   {
      "name": "Saalfelden am Steinernen Meer",
      "countryCode": "AT",
      "stateCode": "5",
      "latitude": "47.42681000",
      "longitude": "12.84800000"
   },
   {
      "name": "Salzburg",
      "countryCode": "AT",
      "stateCode": "5",
      "latitude": "47.79941000",
      "longitude": "13.04399000"
   },
   {
      "name": "Salzburg Stadt",
      "countryCode": "AT",
      "stateCode": "5",
      "latitude": "47.80067000",
      "longitude": "13.04532000"
   },
   {
      "name": "Sankt Andrä im Lungau",
      "countryCode": "AT",
      "stateCode": "5",
      "latitude": "47.15000000",
      "longitude": "13.78333000"
   },
   {
      "name": "Sankt Gilgen",
      "countryCode": "AT",
      "stateCode": "5",
      "latitude": "47.76667000",
      "longitude": "13.36667000"
   },
   {
      "name": "Sankt Johann im Pongau",
      "countryCode": "AT",
      "stateCode": "5",
      "latitude": "47.35000000",
      "longitude": "13.20000000"
   },
   {
      "name": "Sankt Leonhard",
      "countryCode": "AT",
      "stateCode": "5",
      "latitude": "47.72587000",
      "longitude": "13.04577000"
   },
   {
      "name": "Sankt Margarethen im Lungau",
      "countryCode": "AT",
      "stateCode": "5",
      "latitude": "47.07927000",
      "longitude": "13.69613000"
   },
   {
      "name": "Sankt Martin bei Lofer",
      "countryCode": "AT",
      "stateCode": "5",
      "latitude": "47.56667000",
      "longitude": "12.70000000"
   },
   {
      "name": "Sankt Michael im Lungau",
      "countryCode": "AT",
      "stateCode": "5",
      "latitude": "47.10000000",
      "longitude": "13.63333000"
   },
   {
      "name": "Sankt Veit im Pongau",
      "countryCode": "AT",
      "stateCode": "5",
      "latitude": "47.33333000",
      "longitude": "13.15000000"
   },
   {
      "name": "Scheffau am Tennengebirge",
      "countryCode": "AT",
      "stateCode": "5",
      "latitude": "47.58831000",
      "longitude": "13.22020000"
   },
   {
      "name": "Schleedorf",
      "countryCode": "AT",
      "stateCode": "5",
      "latitude": "47.95000000",
      "longitude": "13.15000000"
   },
   {
      "name": "Schwarzach im Pongau",
      "countryCode": "AT",
      "stateCode": "5",
      "latitude": "47.32048000",
      "longitude": "13.15171000"
   },
   {
      "name": "Seeham",
      "countryCode": "AT",
      "stateCode": "5",
      "latitude": "47.96746000",
      "longitude": "13.07699000"
   },
   {
      "name": "Seekirchen am Wallersee",
      "countryCode": "AT",
      "stateCode": "5",
      "latitude": "47.90000000",
      "longitude": "13.13333000"
   },
   {
      "name": "Seewalchen",
      "countryCode": "AT",
      "stateCode": "5",
      "latitude": "47.90000000",
      "longitude": "13.13333000"
   },
   {
      "name": "Siezenheim",
      "countryCode": "AT",
      "stateCode": "5",
      "latitude": "47.81529000",
      "longitude": "12.99039000"
   },
   {
      "name": "St. Martin of Tennengebirge",
      "countryCode": "AT",
      "stateCode": "5",
      "latitude": "47.46500000",
      "longitude": "13.37761000"
   },
   {
      "name": "Strasswalchen",
      "countryCode": "AT",
      "stateCode": "5",
      "latitude": "47.97947000",
      "longitude": "13.25535000"
   },
   {
      "name": "Strobl",
      "countryCode": "AT",
      "stateCode": "5",
      "latitude": "47.71667000",
      "longitude": "13.48333000"
   },
   {
      "name": "Stuhlfelden",
      "countryCode": "AT",
      "stateCode": "5",
      "latitude": "47.28761000",
      "longitude": "12.52755000"
   },
   {
      "name": "Tamsweg",
      "countryCode": "AT",
      "stateCode": "5",
      "latitude": "47.12808000",
      "longitude": "13.81102000"
   },
   {
      "name": "Taugl",
      "countryCode": "AT",
      "stateCode": "5",
      "latitude": "47.64747000",
      "longitude": "13.20282000"
   },
   {
      "name": "Taxach",
      "countryCode": "AT",
      "stateCode": "5",
      "latitude": "47.72610000",
      "longitude": "13.07184000"
   },
   {
      "name": "Taxenbach",
      "countryCode": "AT",
      "stateCode": "5",
      "latitude": "47.29116000",
      "longitude": "12.96215000"
   },
   {
      "name": "Thalgau",
      "countryCode": "AT",
      "stateCode": "5",
      "latitude": "47.84142000",
      "longitude": "13.25325000"
   },
   {
      "name": "Thomatal",
      "countryCode": "AT",
      "stateCode": "5",
      "latitude": "47.06667000",
      "longitude": "13.75000000"
   },
   {
      "name": "Thumersbach",
      "countryCode": "AT",
      "stateCode": "5",
      "latitude": "47.32952000",
      "longitude": "12.81675000"
   },
   {
      "name": "Tweng",
      "countryCode": "AT",
      "stateCode": "5",
      "latitude": "47.18333000",
      "longitude": "13.60000000"
   },
   {
      "name": "Unken",
      "countryCode": "AT",
      "stateCode": "5",
      "latitude": "47.64966000",
      "longitude": "12.72946000"
   },
   {
      "name": "Unternberg",
      "countryCode": "AT",
      "stateCode": "5",
      "latitude": "47.11269000",
      "longitude": "13.74261000"
   },
   {
      "name": "Untertauern",
      "countryCode": "AT",
      "stateCode": "5",
      "latitude": "47.30000000",
      "longitude": "13.50000000"
   },
   {
      "name": "Uttendorf",
      "countryCode": "AT",
      "stateCode": "5",
      "latitude": "47.28333000",
      "longitude": "12.56667000"
   },
   {
      "name": "Viehhausen",
      "countryCode": "AT",
      "stateCode": "5",
      "latitude": "47.78333000",
      "longitude": "12.98333000"
   },
   {
      "name": "Viehhofen",
      "countryCode": "AT",
      "stateCode": "5",
      "latitude": "47.36667000",
      "longitude": "12.73333000"
   },
   {
      "name": "Vigaun",
      "countryCode": "AT",
      "stateCode": "5",
      "latitude": "47.66667000",
      "longitude": "13.13333000"
   },
   {
      "name": "Wagnergraben",
      "countryCode": "AT",
      "stateCode": "5",
      "latitude": "48.02036000",
      "longitude": "13.02395000"
   },
   {
      "name": "Wagrain",
      "countryCode": "AT",
      "stateCode": "5",
      "latitude": "47.33528000",
      "longitude": "13.29889000"
   },
   {
      "name": "Walchen",
      "countryCode": "AT",
      "stateCode": "5",
      "latitude": "47.28822000",
      "longitude": "12.68739000"
   },
   {
      "name": "Wald im Pinzgau",
      "countryCode": "AT",
      "stateCode": "5",
      "latitude": "47.25000000",
      "longitude": "12.23333000"
   },
   {
      "name": "Waldprechting",
      "countryCode": "AT",
      "stateCode": "5",
      "latitude": "47.90000000",
      "longitude": "13.11667000"
   },
   {
      "name": "Wals",
      "countryCode": "AT",
      "stateCode": "5",
      "latitude": "47.78333000",
      "longitude": "12.96667000"
   },
   {
      "name": "Walserfeld",
      "countryCode": "AT",
      "stateCode": "5",
      "latitude": "47.79222000",
      "longitude": "12.98000000"
   },
   {
      "name": "Werfen",
      "countryCode": "AT",
      "stateCode": "5",
      "latitude": "47.47585000",
      "longitude": "13.19020000"
   },
   {
      "name": "Werfenweng",
      "countryCode": "AT",
      "stateCode": "5",
      "latitude": "47.46204000",
      "longitude": "13.25582000"
   },
   {
      "name": "Zederhaus",
      "countryCode": "AT",
      "stateCode": "5",
      "latitude": "47.15570000",
      "longitude": "13.50576000"
   },
   {
      "name": "Zell am See",
      "countryCode": "AT",
      "stateCode": "5",
      "latitude": "47.32556000",
      "longitude": "12.79444000"
   }
]