[
   {
      "name": "Bahau",
      "countryCode": "MY",
      "stateCode": "05",
      "latitude": "2.80790000",
      "longitude": "102.40490000"
   },
   {
      "name": "Kampung Baharu Nilai",
      "countryCode": "MY",
      "stateCode": "05",
      "latitude": "2.80330000",
      "longitude": "101.79720000"
   },
   {
      "name": "Kuala Pilah",
      "countryCode": "MY",
      "stateCode": "05",
      "latitude": "2.73890000",
      "longitude": "102.24870000"
   },
   {
      "name": "Port Dickson",
      "countryCode": "MY",
      "stateCode": "05",
      "latitude": "2.53718000",
      "longitude": "101.80571000"
   },
   {
      "name": "Seremban",
      "countryCode": "MY",
      "stateCode": "05",
      "latitude": "2.72970000",
      "longitude": "101.93810000"
   },
   {
      "name": "Tampin",
      "countryCode": "MY",
      "stateCode": "05",
      "latitude": "2.47010000",
      "longitude": "102.23020000"
   }
]