[
   {
      "name": "Amazonas",
      "isoCode": "AMA",
      "countryCode": "CO",
      "latitude": "-1.44291230",
      "longitude": "-71.57239530"
   },
   {
      "name": "Antioquia",
      "isoCode": "ANT",
      "countryCode": "CO",
      "latitude": "7.19860640",
      "longitude": "-75.34121790"
   },
   {
      "name": "Arauca",
      "isoCode": "ARA",
      "countryCode": "CO",
      "latitude": "6.54730600",
      "longitude": "-71.00223110"
   },
   {
      "name": "Atlántico",
      "isoCode": "ATL",
      "countryCode": "CO",
      "latitude": "10.69661590",
      "longitude": "-74.87410450"
   },
   {
      "name": "Bolívar",
      "isoCode": "BOL",
      "countryCode": "CO",
      "latitude": "8.67043820",
      "longitude": "-74.03001220"
   },
   {
      "name": "Boyacá",
      "isoCode": "BOY",
      "countryCode": "CO",
      "latitude": "5.45451100",
      "longitude": "-73.36200300"
   },
   {
      "name": "Caldas",
      "isoCode": "CAL",
      "countryCode": "CO",
      "latitude": "5.29826000",
      "longitude": "-75.24790610"
   },
   {
      "name": "Caquetá",
      "isoCode": "CAQ",
      "countryCode": "CO",
      "latitude": "0.86989200",
      "longitude": "-73.84190630"
   },
   {
      "name": "Casanare",
      "isoCode": "CAS",
      "countryCode": "CO",
      "latitude": "5.75892690",
      "longitude": "-71.57239530"
   },
   {
      "name": "Cauca",
      "isoCode": "CAU",
      "countryCode": "CO",
      "latitude": "2.70498130",
      "longitude": "-76.82596520"
   },
   {
      "name": "Cesar",
      "isoCode": "CES",
      "countryCode": "CO",
      "latitude": "9.33729480",
      "longitude": "-73.65362090"
   },
   {
      "name": "Chocó",
      "isoCode": "CHO",
      "countryCode": "CO",
      "latitude": "5.25280330",
      "longitude": "-76.82596520"
   },
   {
      "name": "Córdoba",
      "isoCode": "COR",
      "countryCode": "CO",
      "latitude": "8.04929300",
      "longitude": "-75.57405000"
   },
   {
      "name": "Cundinamarca",
      "isoCode": "CUN",
      "countryCode": "CO",
      "latitude": "5.02600300",
      "longitude": "-74.03001220"
   },
   {
      "name": "Bogotá D.C.",
      "isoCode": "DC",
      "countryCode": "CO",
      "latitude": "4.28204150",
      "longitude": "-74.50270420"
   },
   {
      "name": "Guainía",
      "isoCode": "GUA",
      "countryCode": "CO",
      "latitude": "2.58539300",
      "longitude": "-68.52471490"
   },
   {
      "name": "Guaviare",
      "isoCode": "GUV",
      "countryCode": "CO",
      "latitude": "2.04392400",
      "longitude": "-72.33111300"
   },
   {
      "name": "Huila",
      "isoCode": "HUI",
      "countryCode": "CO",
      "latitude": "2.53593490",
      "longitude": "-75.52766990"
   },
   {
      "name": "La Guajira",
      "isoCode": "LAG",
      "countryCode": "CO",
      "latitude": "11.35477430",
      "longitude": "-72.52048270"
   },
   {
      "name": "Magdalena",
      "isoCode": "MAG",
      "countryCode": "CO",
      "latitude": "10.41130140",
      "longitude": "-74.40566120"
   },
   {
      "name": "Meta",
      "isoCode": "MET",
      "countryCode": "CO",
      "latitude": "39.76732580",
      "longitude": "-104.97535950"
   },
   {
      "name": "Nariño",
      "isoCode": "NAR",
      "countryCode": "CO",
      "latitude": "1.28915100",
      "longitude": "-77.35794000"
   },
   {
      "name": "Norte de Santander",
      "isoCode": "NSA",
      "countryCode": "CO",
      "latitude": "7.94628310",
      "longitude": "-72.89880690"
   },
   {
      "name": "Putumayo",
      "isoCode": "PUT",
      "countryCode": "CO",
      "latitude": "0.43595060",
      "longitude": "-75.52766990"
   },
   {
      "name": "Quindío",
      "isoCode": "QUI",
      "countryCode": "CO",
      "latitude": "4.46101910",
      "longitude": "-75.66735600"
   },
   {
      "name": "Risaralda",
      "isoCode": "RIS",
      "countryCode": "CO",
      "latitude": "5.31584750",
      "longitude": "-75.99276520"
   },
   {
      "name": "Santander",
      "isoCode": "SAN",
      "countryCode": "CO",
      "latitude": "6.64370760",
      "longitude": "-73.65362090"
   },
   {
      "name": "Archipiélago de San Andrés, Providencia y Santa Catalina",
      "isoCode": "SAP",
      "countryCode": "CO",
      "latitude": "12.55673240",
      "longitude": "-81.71852530"
   },
   {
      "name": "Sucre",
      "isoCode": "SUC",
      "countryCode": "CO",
      "latitude": "8.81397700",
      "longitude": "-74.72328300"
   },
   {
      "name": "Tolima",
      "isoCode": "TOL",
      "countryCode": "CO",
      "latitude": "4.09251680",
      "longitude": "-75.15453810"
   },
   {
      "name": "Valle del Cauca",
      "isoCode": "VAC",
      "countryCode": "CO",
      "latitude": "3.80088930",
      "longitude": "-76.64127120"
   },
   {
      "name": "Vaupés",
      "isoCode": "VAU",
      "countryCode": "CO",
      "latitude": "0.85535610",
      "longitude": "-70.81199530"
   },
   {
      "name": "Vichada",
      "isoCode": "VID",
      "countryCode": "CO",
      "latitude": "4.42344520",
      "longitude": "-69.28775350"
   }
]