[
   {
      "name": "Johor",
      "isoCode": "01",
      "countryCode": "MY",
      "latitude": "1.48536820",
      "longitude": "103.76181540"
   },
   {
      "name": "Kedah",
      "isoCode": "02",
      "countryCode": "MY",
      "latitude": "6.11839640",
      "longitude": "100.36845950"
   },
   {
      "name": "Kelantan",
      "isoCode": "03",
      "countryCode": "MY",
      "latitude": "6.12539690",
      "longitude": "102.23807100"
   },
   {
      "name": "Malacca",
      "isoCode": "04",
      "countryCode": "MY",
      "latitude": "2.18959400",
      "longitude": "102.25008680"
   },
   {
      "name": "Negeri Sembilan",
      "isoCode": "05",
      "countryCode": "MY",
      "latitude": "2.72580580",
      "longitude": "101.94237820"
   },
   {
      "name": "Pahang",
      "isoCode": "06",
      "countryCode": "MY",
      "latitude": "3.81263180",
      "longitude": "103.32562040"
   },
   {
      "name": "Penang",
      "isoCode": "07",
      "countryCode": "MY",
      "latitude": "5.41639350",
      "longitude": "100.33267860"
   },
   {
      "name": "Perak",
      "isoCode": "08",
      "countryCode": "MY",
      "latitude": "4.59211260",
      "longitude": "101.09010900"
   },
   {
      "name": "Perlis",
      "isoCode": "09",
      "countryCode": "MY",
      "latitude": "29.92270940",
      "longitude": "-90.12285590"
   },
   {
      "name": "Selangor",
      "isoCode": "10",
      "countryCode": "MY",
      "latitude": "3.07383790",
      "longitude": "101.51834690"
   },
   {
      "name": "Terengganu",
      "isoCode": "11",
      "countryCode": "MY",
      "latitude": "5.31169160",
      "longitude": "103.13241540"
   },
   {
      "name": "Sabah",
      "isoCode": "12",
      "countryCode": "MY",
      "latitude": "5.97883980",
      "longitude": "116.07531990"
   },
   {
      "name": "Sarawak",
      "isoCode": "13",
      "countryCode": "MY",
      "latitude": "1.55327830",
      "longitude": "110.35921270"
   },
   {
      "name": "Kuala Lumpur",
      "isoCode": "14",
      "countryCode": "MY",
      "latitude": "3.13900300",
      "longitude": "101.68685500"
   },
   {
      "name": "Labuan",
      "isoCode": "15",
      "countryCode": "MY",
      "latitude": "5.28314560",
      "longitude": "115.23082500"
   },
   {
      "name": "Putrajaya",
      "isoCode": "16",
      "countryCode": "MY",
      "latitude": "2.92636100",
      "longitude": "101.69644500"
   }
]