[
   {
      "name": "Aného",
      "countryCode": "TG",
      "stateCode": "M",
      "latitude": "6.22798000",
      "longitude": "1.59190000"
   },
   {
      "name": "Lomé",
      "countryCode": "TG",
      "stateCode": "M",
      "latitude": "6.12874000",
      "longitude": "1.22154000"
   },
   {
      "name": "Tabligbo",
      "countryCode": "TG",
      "stateCode": "M",
      "latitude": "6.58333000",
      "longitude": "1.50000000"
   },
   {
      "name": "Tsévié",
      "countryCode": "TG",
      "stateCode": "M",
      "latitude": "6.42611000",
      "longitude": "1.21333000"
   },
   {
      "name": "Vogan",
      "countryCode": "TG",
      "stateCode": "M",
      "latitude": "6.33333000",
      "longitude": "1.53333000"
   }
]