[
   {
      "name": "Acklins and Crooked Islands",
      "isoCode": "AC",
      "countryCode": "BS",
      "latitude": "22.36577080",
      "longitude": "-74.05351260"
   },
   {
      "name": "Acklins",
      "isoCode": "AK",
      "countryCode": "BS",
      "latitude": "22.36577080",
      "longitude": "-74.05351260"
   },
   {
      "name": "Bimini",
      "isoCode": "BI",
      "countryCode": "BS",
      "latitude": "24.64153250",
      "longitude": "-79.85062260"
   },
   {
      "name": "Black Point",
      "isoCode": "BP",
      "countryCode": "BS",
      "latitude": "41.39510240",
      "longitude": "-71.46505560"
   },
   {
      "name": "Berry Islands",
      "isoCode": "BY",
      "countryCode": "BS",
      "latitude": "25.62500420",
      "longitude": "-77.82522030"
   },
   {
      "name": "Central Eleuthera",
      "isoCode": "CE",
      "countryCode": "BS",
      "latitude": "25.13620370",
      "longitude": "-76.14359150"
   },
   {
      "name": "Cat Island",
      "isoCode": "CI",
      "countryCode": "BS",
      "latitude": "30.22801360",
      "longitude": "-89.10149330"
   },
   {
      "name": "Crooked Island",
      "isoCode": "CK",
      "countryCode": "BS",
      "latitude": "22.63909820",
      "longitude": "-74.00650900"
   },
   {
      "name": "Central Abaco",
      "isoCode": "CO",
      "countryCode": "BS",
      "latitude": "26.35550290",
      "longitude": "-77.14851630"
   },
   {
      "name": "Central Andros",
      "isoCode": "CS",
      "countryCode": "BS",
      "latitude": "24.46884820",
      "longitude": "-77.97386500"
   },
   {
      "name": "East Grand Bahama",
      "isoCode": "EG",
      "countryCode": "BS",
      "latitude": "26.65828230",
      "longitude": "-78.22482910"
   },
   {
      "name": "Exuma",
      "isoCode": "EX",
      "countryCode": "BS",
      "latitude": "23.61925980",
      "longitude": "-75.96954650"
   },
   {
      "name": "Fresh Creek",
      "isoCode": "FC",
      "countryCode": "BS",
      "latitude": "40.65437560",
      "longitude": "-73.89479390"
   },
   {
      "name": "Freeport",
      "isoCode": "FP",
      "countryCode": "BS",
      "latitude": "42.29668610",
      "longitude": "-89.62122710"
   },
   {
      "name": "Grand Cay",
      "isoCode": "GC",
      "countryCode": "BS",
      "latitude": "27.21626150",
      "longitude": "-78.32305590"
   },
   {
      "name": "Governor's Harbour",
      "isoCode": "GH",
      "countryCode": "BS",
      "latitude": "25.19480960",
      "longitude": "-76.24396220"
   },
   {
      "name": "Green Turtle Cay",
      "isoCode": "GT",
      "countryCode": "BS",
      "latitude": "26.77471070",
      "longitude": "-77.32957080"
   },
   {
      "name": "Harbour Island",
      "isoCode": "HI",
      "countryCode": "BS",
      "latitude": "25.50011000",
      "longitude": "-76.63405110"
   },
   {
      "name": "High Rock",
      "isoCode": "HR",
      "countryCode": "BS",
      "latitude": "46.68434150",
      "longitude": "-121.90174610"
   },
   {
      "name": "Hope Town",
      "isoCode": "HT",
      "countryCode": "BS",
      "latitude": "26.50095040",
      "longitude": "-76.99598720"
   },
   {
      "name": "Inagua",
      "isoCode": "IN",
      "countryCode": "BS",
      "latitude": "21.06560660",
      "longitude": "-73.32370800"
   },
   {
      "name": "Kemps Bay",
      "isoCode": "KB",
      "countryCode": "BS",
      "latitude": "24.02364000",
      "longitude": "-77.54534900"
   },
   {
      "name": "Long Island",
      "isoCode": "LI",
      "countryCode": "BS",
      "latitude": "40.78914200",
      "longitude": "-73.13496100"
   },
   {
      "name": "Mangrove Cay",
      "isoCode": "MC",
      "countryCode": "BS",
      "latitude": "24.14814250",
      "longitude": "-77.76809520"
   },
   {
      "name": "Mayaguana District",
      "isoCode": "MG",
      "countryCode": "BS",
      "latitude": "22.40177140",
      "longitude": "-73.06413960"
   },
   {
      "name": "Marsh Harbour",
      "isoCode": "MH",
      "countryCode": "BS",
      "latitude": "26.52416530",
      "longitude": "-77.09098090"
   },
   {
      "name": "Nichollstown and Berry Islands",
      "isoCode": "NB",
      "countryCode": "BS",
      "latitude": "25.72362340",
      "longitude": "-77.83101040"
   },
   {
      "name": "North Eleuthera",
      "isoCode": "NE",
      "countryCode": "BS",
      "latitude": "25.46475170",
      "longitude": "-76.67592200"
   },
   {
      "name": "North Abaco",
      "isoCode": "NO",
      "countryCode": "BS",
      "latitude": "26.78716970",
      "longitude": "-77.43577390"
   },
   {
      "name": "New Providence",
      "isoCode": "NP",
      "countryCode": "BS",
      "latitude": "40.69843480",
      "longitude": "-74.40154050"
   },
   {
      "name": "North Andros",
      "isoCode": "NS",
      "countryCode": "BS",
      "latitude": "24.70638050",
      "longitude": "-78.01953870"
   },
   {
      "name": "Rum Cay District",
      "isoCode": "RC",
      "countryCode": "BS",
      "latitude": "23.68546760",
      "longitude": "-74.83901620"
   },
   {
      "name": "Ragged Island",
      "isoCode": "RI",
      "countryCode": "BS",
      "latitude": "41.59743100",
      "longitude": "-71.26020200"
   },
   {
      "name": "Rock Sound",
      "isoCode": "RS",
      "countryCode": "BS",
      "latitude": "39.01424430",
      "longitude": "-95.67089890"
   },
   {
      "name": "South Andros",
      "isoCode": "SA",
      "countryCode": "BS",
      "latitude": "23.97135560",
      "longitude": "-77.60778650"
   },
   {
      "name": "South Eleuthera",
      "isoCode": "SE",
      "countryCode": "BS",
      "latitude": "24.77085620",
      "longitude": "-76.21314740"
   },
   {
      "name": "South Abaco",
      "isoCode": "SO",
      "countryCode": "BS",
      "latitude": "26.06405910",
      "longitude": "-77.26350380"
   },
   {
      "name": "Sandy Point",
      "isoCode": "SP",
      "countryCode": "BS",
      "latitude": "39.01454640",
      "longitude": "-76.39989250"
   },
   {
      "name": "San Salvador and Rum Cay",
      "isoCode": "SR",
      "countryCode": "BS",
      "latitude": "23.68546760",
      "longitude": "-74.83901620"
   },
   {
      "name": "San Salvador Island",
      "isoCode": "SS",
      "countryCode": "BS",
      "latitude": "24.07755460",
      "longitude": "-74.47600880"
   },
   {
      "name": "Spanish Wells",
      "isoCode": "SW",
      "countryCode": "BS",
      "latitude": "26.32505990",
      "longitude": "-81.79803280"
   },
   {
      "name": "West Grand Bahama",
      "isoCode": "WG",
      "countryCode": "BS",
      "latitude": "26.65944700",
      "longitude": "-78.52065000"
   }
]