[
   {
      "name": "Abbey",
      "countryCode": "AU",
      "stateCode": "WA",
      "latitude": "-33.66364000",
      "longitude": "115.25635000"
   },
   {
      "name": "Albany",
      "countryCode": "AU",
      "stateCode": "WA",
      "latitude": "-34.70990000",
      "longitude": "118.12345000"
   },
   {
      "name": "Albany city centre",
      "countryCode": "AU",
      "stateCode": "WA",
      "latitude": "-35.02479000",
      "longitude": "117.88472000"
   },
   {
      "name": "Alexander Heights",
      "countryCode": "AU",
      "stateCode": "WA",
      "latitude": "-31.82758000",
      "longitude": "115.86501000"
   },
   {
      "name": "Alfred Cove",
      "countryCode": "AU",
      "stateCode": "WA",
      "latitude": "-32.03316000",
      "longitude": "115.81259000"
   },
   {
      "name": "Alkimos",
      "countryCode": "AU",
      "stateCode": "WA",
      "latitude": "-31.63039000",
      "longitude": "115.68638000"
   },
   {
      "name": "Applecross",
      "countryCode": "AU",
      "stateCode": "WA",
      "latitude": "-32.01667000",
      "longitude": "115.83333000"
   },
   {
      "name": "Ardross",
      "countryCode": "AU",
      "stateCode": "WA",
      "latitude": "-32.02696000",
      "longitude": "115.83548000"
   },
   {
      "name": "Armadale",
      "countryCode": "AU",
      "stateCode": "WA",
      "latitude": "-32.17887000",
      "longitude": "116.12750000"
   },
   {
      "name": "Ascot",
      "countryCode": "AU",
      "stateCode": "WA",
      "latitude": "-31.93818000",
      "longitude": "115.92258000"
   },
   {
      "name": "Ashburton",
      "countryCode": "AU",
      "stateCode": "WA",
      "latitude": "-22.27674000",
      "longitude": "116.90057000"
   },
   {
      "name": "Ashby",
      "countryCode": "AU",
      "stateCode": "WA",
      "latitude": "-31.73255000",
      "longitude": "115.79768000"
   },
   {
      "name": "Ashfield",
      "countryCode": "AU",
      "stateCode": "WA",
      "latitude": "-31.91721000",
      "longitude": "115.93796000"
   },
   {
      "name": "Attadale",
      "countryCode": "AU",
      "stateCode": "WA",
      "latitude": "-32.02489000",
      "longitude": "115.80200000"
   },
   {
      "name": "Atwell",
      "countryCode": "AU",
      "stateCode": "WA",
      "latitude": "-32.14346000",
      "longitude": "115.86528000"
   },
   {
      "name": "Aubin Grove",
      "countryCode": "AU",
      "stateCode": "WA",
      "latitude": "-32.16714000",
      "longitude": "115.86264000"
   },
   {
      "name": "Augusta",
      "countryCode": "AU",
      "stateCode": "WA",
      "latitude": "-34.31566000",
      "longitude": "115.15922000"
   },
   {
      "name": "Augusta-Margaret River Shire",
      "countryCode": "AU",
      "stateCode": "WA",
      "latitude": "-34.11520000",
      "longitude": "115.32277000"
   },
   {
      "name": "Australind",
      "countryCode": "AU",
      "stateCode": "WA",
      "latitude": "-33.27920000",
      "longitude": "115.71504000"
   },
   {
      "name": "Aveley",
      "countryCode": "AU",
      "stateCode": "WA",
      "latitude": "-31.78132000",
      "longitude": "115.98959000"
   },
   {
      "name": "Badgingarra",
      "countryCode": "AU",
      "stateCode": "WA",
      "latitude": "-30.44367330",
      "longitude": "115.47471450"
   },
   {
      "name": "Bakers Hill",
      "countryCode": "AU",
      "stateCode": "WA",
      "latitude": "-31.74692000",
      "longitude": "116.45866000"
   },
   {
      "name": "Balcatta",
      "countryCode": "AU",
      "stateCode": "WA",
      "latitude": "-31.87501000",
      "longitude": "115.82839000"
   },
   {
      "name": "Baldivis",
      "countryCode": "AU",
      "stateCode": "WA",
      "latitude": "-32.32889000",
      "longitude": "115.83047000"
   },
   {
      "name": "Balga",
      "countryCode": "AU",
      "stateCode": "WA",
      "latitude": "-31.85497000",
      "longitude": "115.83986000"
   },
   {
      "name": "Ballajura",
      "countryCode": "AU",
      "stateCode": "WA",
      "latitude": "-31.84062000",
      "longitude": "115.89549000"
   },
   {
      "name": "Banjup",
      "countryCode": "AU",
      "stateCode": "WA",
      "latitude": "-32.14179000",
      "longitude": "115.88671000"
   },
   {
      "name": "Banksia Grove",
      "countryCode": "AU",
      "stateCode": "WA",
      "latitude": "-31.69615000",
      "longitude": "115.80501000"
   },
   {
      "name": "Bassendean",
      "countryCode": "AU",
      "stateCode": "WA",
      "latitude": "-31.90584000",
      "longitude": "115.94501000"
   },
   {
      "name": "Bateman",
      "countryCode": "AU",
      "stateCode": "WA",
      "latitude": "-32.05547000",
      "longitude": "115.84737000"
   },
   {
      "name": "Baynton",
      "countryCode": "AU",
      "stateCode": "WA",
      "latitude": "-20.75164000",
      "longitude": "116.80139000"
   },
   {
      "name": "Bayonet Head",
      "countryCode": "AU",
      "stateCode": "WA",
      "latitude": "-34.97305000",
      "longitude": "117.93446000"
   },
   {
      "name": "Bayswater",
      "countryCode": "AU",
      "stateCode": "WA",
      "latitude": "-31.91181000",
      "longitude": "115.90870000"
   },
   {
      "name": "Beachlands",
      "countryCode": "AU",
      "stateCode": "WA",
      "latitude": "-28.78570000",
      "longitude": "114.60192000"
   },
   {
      "name": "Beaconsfield",
      "countryCode": "AU",
      "stateCode": "WA",
      "latitude": "-32.06748000",
      "longitude": "115.76401000"
   },
   {
      "name": "Beckenham",
      "countryCode": "AU",
      "stateCode": "WA",
      "latitude": "-32.02481000",
      "longitude": "115.95989000"
   },
   {
      "name": "Bedford",
      "countryCode": "AU",
      "stateCode": "WA",
      "latitude": "-31.91132000",
      "longitude": "115.88920000"
   },
   {
      "name": "Bedfordale",
      "countryCode": "AU",
      "stateCode": "WA",
      "latitude": "-32.17406000",
      "longitude": "116.05040000"
   },
   {
      "name": "Beechboro",
      "countryCode": "AU",
      "stateCode": "WA",
      "latitude": "-31.86515000",
      "longitude": "115.93661000"
   },
   {
      "name": "Beeliar",
      "countryCode": "AU",
      "stateCode": "WA",
      "latitude": "-32.13339000",
      "longitude": "115.80637000"
   },
   {
      "name": "Beldon",
      "countryCode": "AU",
      "stateCode": "WA",
      "latitude": "-31.77466000",
      "longitude": "115.76270000"
   },
   {
      "name": "Bellevue",
      "countryCode": "AU",
      "stateCode": "WA",
      "latitude": "-31.90116000",
      "longitude": "116.02762000"
   },
   {
      "name": "Belmont",
      "countryCode": "AU",
      "stateCode": "WA",
      "latitude": "-31.95458000",
      "longitude": "115.94218000"
   },
   {
      "name": "Bennett Springs",
      "countryCode": "AU",
      "stateCode": "WA",
      "latitude": "-31.85941000",
      "longitude": "115.94512000"
   },
   {
      "name": "Bentley",
      "countryCode": "AU",
      "stateCode": "WA",
      "latitude": "-32.00224000",
      "longitude": "115.92473000"
   },
   {
      "name": "Beresford",
      "countryCode": "AU",
      "stateCode": "WA",
      "latitude": "-28.75754000",
      "longitude": "114.61965000"
   },
   {
      "name": "Bertram",
      "countryCode": "AU",
      "stateCode": "WA",
      "latitude": "-32.24369000",
      "longitude": "115.84572000"
   },
   {
      "name": "Beverley",
      "countryCode": "AU",
      "stateCode": "WA",
      "latitude": "-32.10839000",
      "longitude": "116.92736000"
   },
   {
      "name": "Bibra Lake",
      "countryCode": "AU",
      "stateCode": "WA",
      "latitude": "-32.09764000",
      "longitude": "115.81921000"
   },
   {
      "name": "Bicton",
      "countryCode": "AU",
      "stateCode": "WA",
      "latitude": "-32.02778000",
      "longitude": "115.78333000"
   },
   {
      "name": "Bilingurr",
      "countryCode": "AU",
      "stateCode": "WA",
      "latitude": "-17.90909000",
      "longitude": "122.22921000"
   },
   {
      "name": "Bindoon",
      "countryCode": "AU",
      "stateCode": "WA",
      "latitude": "-31.38663000",
      "longitude": "116.09664000"
   },
   {
      "name": "Binningup",
      "countryCode": "AU",
      "stateCode": "WA",
      "latitude": "-33.14830000",
      "longitude": "115.69519000"
   },
   {
      "name": "Bluff Point",
      "countryCode": "AU",
      "stateCode": "WA",
      "latitude": "-28.73740000",
      "longitude": "114.62278000"
   },
   {
      "name": "Boddington",
      "countryCode": "AU",
      "stateCode": "WA",
      "latitude": "-32.79195000",
      "longitude": "116.41883000"
   },
   {
      "name": "Booragoon",
      "countryCode": "AU",
      "stateCode": "WA",
      "latitude": "-32.03945000",
      "longitude": "115.83369000"
   },
   {
      "name": "Boulder",
      "countryCode": "AU",
      "stateCode": "WA",
      "latitude": "-30.78204000",
      "longitude": "121.49120000"
   },
   {
      "name": "Boyanup",
      "countryCode": "AU",
      "stateCode": "WA",
      "latitude": "-33.48295000",
      "longitude": "115.72838000"
   },
   {
      "name": "Boyup Brook",
      "countryCode": "AU",
      "stateCode": "WA",
      "latitude": "-33.88555000",
      "longitude": "116.51885000"
   },
   {
      "name": "Brabham",
      "countryCode": "AU",
      "stateCode": "WA",
      "latitude": "-31.82728000",
      "longitude": "115.97417000"
   },
   {
      "name": "Brentwood",
      "countryCode": "AU",
      "stateCode": "WA",
      "latitude": "-32.04347000",
      "longitude": "115.85246000"
   },
   {
      "name": "Bridgetown",
      "countryCode": "AU",
      "stateCode": "WA",
      "latitude": "-33.96242000",
      "longitude": "116.13598000"
   },
   {
      "name": "Bridgetown-Greenbushes",
      "countryCode": "AU",
      "stateCode": "WA",
      "latitude": "-33.99234000",
      "longitude": "116.22502000"
   },
   {
      "name": "Broadwater",
      "countryCode": "AU",
      "stateCode": "WA",
      "latitude": "-33.66304000",
      "longitude": "115.28420000"
   },
   {
      "name": "Brockman",
      "countryCode": "AU",
      "stateCode": "WA",
      "latitude": "-24.88126000",
      "longitude": "113.65365000"
   },
   {
      "name": "Brookdale",
      "countryCode": "AU",
      "stateCode": "WA",
      "latitude": "-32.16696000",
      "longitude": "116.00193000"
   },
   {
      "name": "Brookton",
      "countryCode": "AU",
      "stateCode": "WA",
      "latitude": "-32.35533000",
      "longitude": "116.99994000"
   },
   {
      "name": "Broome",
      "countryCode": "AU",
      "stateCode": "WA",
      "latitude": "-17.94041000",
      "longitude": "122.64038000"
   },
   {
      "name": "Broomehill-Tambellup",
      "countryCode": "AU",
      "stateCode": "WA",
      "latitude": "-34.01320000",
      "longitude": "117.65297000"
   },
   {
      "name": "Bruce Rock",
      "countryCode": "AU",
      "stateCode": "WA",
      "latitude": "-31.96651000",
      "longitude": "118.02385000"
   },
   {
      "name": "Brunswick",
      "countryCode": "AU",
      "stateCode": "WA",
      "latitude": "-33.23240000",
      "longitude": "115.86282000"
   },
   {
      "name": "Bulgarra",
      "countryCode": "AU",
      "stateCode": "WA",
      "latitude": "-20.72584000",
      "longitude": "116.85673000"
   },
   {
      "name": "Bull Creek",
      "countryCode": "AU",
      "stateCode": "WA",
      "latitude": "-32.05625000",
      "longitude": "115.86242000"
   },
   {
      "name": "Bullsbrook",
      "countryCode": "AU",
      "stateCode": "WA",
      "latitude": "-31.66905000",
      "longitude": "115.99990000"
   },
   {
      "name": "Bunbury",
      "countryCode": "AU",
      "stateCode": "WA",
      "latitude": "-33.32711000",
      "longitude": "115.64137000"
   },
   {
      "name": "Burns Beach",
      "countryCode": "AU",
      "stateCode": "WA",
      "latitude": "-31.72060000",
      "longitude": "115.72050000"
   },
   {
      "name": "Burswood",
      "countryCode": "AU",
      "stateCode": "WA",
      "latitude": "-31.95872000",
      "longitude": "115.90396000"
   },
   {
      "name": "Busselton",
      "countryCode": "AU",
      "stateCode": "WA",
      "latitude": "-33.68477000",
      "longitude": "115.37080000"
   },
   {
      "name": "Busselton city cenre",
      "countryCode": "AU",
      "stateCode": "WA",
      "latitude": "-33.65078000",
      "longitude": "115.34932000"
   },
   {
      "name": "Butler",
      "countryCode": "AU",
      "stateCode": "WA",
      "latitude": "-31.64298000",
      "longitude": "115.70431000"
   },
   {
      "name": "Byford",
      "countryCode": "AU",
      "stateCode": "WA",
      "latitude": "-32.22099000",
      "longitude": "116.00900000"
   },
   {
      "name": "Cable Beach",
      "countryCode": "AU",
      "stateCode": "WA",
      "latitude": "-17.96098000",
      "longitude": "122.21269000"
   },
   {
      "name": "Calista",
      "countryCode": "AU",
      "stateCode": "WA",
      "latitude": "-32.24100000",
      "longitude": "115.79763000"
   },
   {
      "name": "Cambridge",
      "countryCode": "AU",
      "stateCode": "WA",
      "latitude": "-31.93542000",
      "longitude": "115.79887000"
   },
   {
      "name": "Camillo",
      "countryCode": "AU",
      "stateCode": "WA",
      "latitude": "-32.11292000",
      "longitude": "116.00205000"
   },
   {
      "name": "Canning",
      "countryCode": "AU",
      "stateCode": "WA",
      "latitude": "-32.04923000",
      "longitude": "115.91943000"
   },
   {
      "name": "Canning Vale",
      "countryCode": "AU",
      "stateCode": "WA",
      "latitude": "-32.05799000",
      "longitude": "115.91814000"
   },
   {
      "name": "Cannington",
      "countryCode": "AU",
      "stateCode": "WA",
      "latitude": "-32.01625000",
      "longitude": "115.93648000"
   },
   {
      "name": "Capel",
      "countryCode": "AU",
      "stateCode": "WA",
      "latitude": "-33.52704000",
      "longitude": "115.61813000"
   },
   {
      "name": "Cardup",
      "countryCode": "AU",
      "stateCode": "WA",
      "latitude": "-32.25802000",
      "longitude": "115.98512000"
   },
   {
      "name": "Carey Park",
      "countryCode": "AU",
      "stateCode": "WA",
      "latitude": "-33.34878000",
      "longitude": "115.64930000"
   },
   {
      "name": "Carine",
      "countryCode": "AU",
      "stateCode": "WA",
      "latitude": "-31.85230000",
      "longitude": "115.78258000"
   },
   {
      "name": "Carlisle",
      "countryCode": "AU",
      "stateCode": "WA",
      "latitude": "-31.97945000",
      "longitude": "115.91808000"
   },
   {
      "name": "Carnamah",
      "countryCode": "AU",
      "stateCode": "WA",
      "latitude": "-29.80411000",
      "longitude": "115.59402000"
   },
   {
      "name": "Carnarvon",
      "countryCode": "AU",
      "stateCode": "WA",
      "latitude": "-24.88258000",
      "longitude": "113.65713000"
   },
   {
      "name": "Carramar",
      "countryCode": "AU",
      "stateCode": "WA",
      "latitude": "-31.69023000",
      "longitude": "115.77159000"
   },
   {
      "name": "Castletown",
      "countryCode": "AU",
      "stateCode": "WA",
      "latitude": "-33.83237000",
      "longitude": "121.91563000"
   },
   {
      "name": "Casuarina",
      "countryCode": "AU",
      "stateCode": "WA",
      "latitude": "-32.24143000",
      "longitude": "115.86980000"
   },
   {
      "name": "Cataby",
      "countryCode": "AU",
      "stateCode": "WA",
      "latitude": "-30.72744730",
      "longitude": "115.43201600"
   },
   {
      "name": "Caversham",
      "countryCode": "AU",
      "stateCode": "WA",
      "latitude": "-31.88333000",
      "longitude": "115.96667000"
   },
   {
      "name": "Cervantes",
      "countryCode": "AU",
      "stateCode": "WA",
      "latitude": "-30.50264750",
      "longitude": "115.05417670"
   },
   {
      "name": "Champion Lakes",
      "countryCode": "AU",
      "stateCode": "WA",
      "latitude": "-32.11913000",
      "longitude": "115.98617000"
   },
   {
      "name": "Chapman Valley",
      "countryCode": "AU",
      "stateCode": "WA",
      "latitude": "-28.27249000",
      "longitude": "115.02794000"
   },
   {
      "name": "Chidlow",
      "countryCode": "AU",
      "stateCode": "WA",
      "latitude": "-31.86094000",
      "longitude": "116.27243000"
   },
   {
      "name": "Chittering",
      "countryCode": "AU",
      "stateCode": "WA",
      "latitude": "-31.35829000",
      "longitude": "116.05131000"
   },
   {
      "name": "Churchlands",
      "countryCode": "AU",
      "stateCode": "WA",
      "latitude": "-31.92142000",
      "longitude": "115.79322000"
   },
   {
      "name": "City Beach",
      "countryCode": "AU",
      "stateCode": "WA",
      "latitude": "-31.93440000",
      "longitude": "115.76174000"
   },
   {
      "name": "City of Cockburn",
      "countryCode": "AU",
      "stateCode": "WA",
      "latitude": "-32.10264000",
      "longitude": "115.84431000"
   },
   {
      "name": "City of Perth",
      "countryCode": "AU",
      "stateCode": "WA",
      "latitude": "-31.94978000",
      "longitude": "115.85383000"
   },
   {
      "name": "Claremont",
      "countryCode": "AU",
      "stateCode": "WA",
      "latitude": "-31.98127000",
      "longitude": "115.77942000"
   },
   {
      "name": "Clarkson",
      "countryCode": "AU",
      "stateCode": "WA",
      "latitude": "-31.68282000",
      "longitude": "115.72470000"
   },
   {
      "name": "Cloverdale",
      "countryCode": "AU",
      "stateCode": "WA",
      "latitude": "-31.96281000",
      "longitude": "115.94428000"
   },
   {
      "name": "Cockburn Central",
      "countryCode": "AU",
      "stateCode": "WA",
      "latitude": "-32.12133000",
      "longitude": "115.84776000"
   },
   {
      "name": "College Grove",
      "countryCode": "AU",
      "stateCode": "WA",
      "latitude": "-33.37587000",
      "longitude": "115.65906000"
   },
   {
      "name": "Collie",
      "countryCode": "AU",
      "stateCode": "WA",
      "latitude": "-33.27353000",
      "longitude": "116.16558000"
   },
   {
      "name": "Como",
      "countryCode": "AU",
      "stateCode": "WA",
      "latitude": "-31.99119000",
      "longitude": "115.86336000"
   },
   {
      "name": "Connolly",
      "countryCode": "AU",
      "stateCode": "WA",
      "latitude": "-31.74864000",
      "longitude": "115.75053000"
   },
   {
      "name": "Coodanup",
      "countryCode": "AU",
      "stateCode": "WA",
      "latitude": "-32.55187000",
      "longitude": "115.75352000"
   },
   {
      "name": "Coogee",
      "countryCode": "AU",
      "stateCode": "WA",
      "latitude": "-32.11934000",
      "longitude": "115.76650000"
   },
   {
      "name": "Coolbellup",
      "countryCode": "AU",
      "stateCode": "WA",
      "latitude": "-32.08124000",
      "longitude": "115.80606000"
   },
   {
      "name": "Coolbinia",
      "countryCode": "AU",
      "stateCode": "WA",
      "latitude": "-31.91470000",
      "longitude": "115.84894000"
   },
   {
      "name": "Coolgardie",
      "countryCode": "AU",
      "stateCode": "WA",
      "latitude": "-31.01438000",
      "longitude": "121.20462000"
   },
   {
      "name": "Cooloongup",
      "countryCode": "AU",
      "stateCode": "WA",
      "latitude": "-32.31506000",
      "longitude": "115.77772000"
   },
   {
      "name": "Coorow",
      "countryCode": "AU",
      "stateCode": "WA",
      "latitude": "-29.97865000",
      "longitude": "115.65613000"
   },
   {
      "name": "Corrigin",
      "countryCode": "AU",
      "stateCode": "WA",
      "latitude": "-32.37599000",
      "longitude": "117.81023000"
   },
   {
      "name": "Cottesloe",
      "countryCode": "AU",
      "stateCode": "WA",
      "latitude": "-31.99905000",
      "longitude": "115.76089000"
   },
   {
      "name": "Cowaramup",
      "countryCode": "AU",
      "stateCode": "WA",
      "latitude": "-33.85036000",
      "longitude": "115.10379000"
   },
   {
      "name": "Craigie",
      "countryCode": "AU",
      "stateCode": "WA",
      "latitude": "-31.78727000",
      "longitude": "115.76989000"
   },
   {
      "name": "Cranbrook",
      "countryCode": "AU",
      "stateCode": "WA",
      "latitude": "-34.33414000",
      "longitude": "117.32898000"
   },
   {
      "name": "Crawley",
      "countryCode": "AU",
      "stateCode": "WA",
      "latitude": "-31.98418000",
      "longitude": "115.81603000"
   },
   {
      "name": "Cuballing",
      "countryCode": "AU",
      "stateCode": "WA",
      "latitude": "-32.74026000",
      "longitude": "117.15497000"
   },
   {
      "name": "Cue",
      "countryCode": "AU",
      "stateCode": "WA",
      "latitude": "-27.22633000",
      "longitude": "118.00496000"
   },
   {
      "name": "Cunderdin",
      "countryCode": "AU",
      "stateCode": "WA",
      "latitude": "-31.61259000",
      "longitude": "117.11803000"
   },
   {
      "name": "Currambine",
      "countryCode": "AU",
      "stateCode": "WA",
      "latitude": "-31.73306000",
      "longitude": "115.74766000"
   },
   {
      "name": "Daglish",
      "countryCode": "AU",
      "stateCode": "WA",
      "latitude": "-31.95177000",
      "longitude": "115.80880000"
   },
   {
      "name": "Dalkeith",
      "countryCode": "AU",
      "stateCode": "WA",
      "latitude": "-31.99517000",
      "longitude": "115.79980000"
   },
   {
      "name": "Dalwallinu",
      "countryCode": "AU",
      "stateCode": "WA",
      "latitude": "-30.12998000",
      "longitude": "116.98401000"
   },
   {
      "name": "Dalyellup",
      "countryCode": "AU",
      "stateCode": "WA",
      "latitude": "-33.40844000",
      "longitude": "115.61506000"
   },
   {
      "name": "Dampier",
      "countryCode": "AU",
      "stateCode": "WA",
      "latitude": "-20.66275000",
      "longitude": "116.71256000"
   },
   {
      "name": "Dampier Peninsula",
      "countryCode": "AU",
      "stateCode": "WA",
      "latitude": "-16.93241000",
      "longitude": "122.86559000"
   },
   {
      "name": "Dandaragan",
      "countryCode": "AU",
      "stateCode": "WA",
      "latitude": "-30.54142000",
      "longitude": "115.46132000"
   },
   {
      "name": "Darch",
      "countryCode": "AU",
      "stateCode": "WA",
      "latitude": "-31.81255000",
      "longitude": "115.84580000"
   },
   {
      "name": "Dardanup",
      "countryCode": "AU",
      "stateCode": "WA",
      "latitude": "-33.41611000",
      "longitude": "115.87410000"
   },
   {
      "name": "Darling Downs",
      "countryCode": "AU",
      "stateCode": "WA",
      "latitude": "-32.19442000",
      "longitude": "115.99187000"
   },
   {
      "name": "Darlington",
      "countryCode": "AU",
      "stateCode": "WA",
      "latitude": "-31.91906000",
      "longitude": "116.08120000"
   },
   {
      "name": "Dawesville",
      "countryCode": "AU",
      "stateCode": "WA",
      "latitude": "-32.63229000",
      "longitude": "115.62904000"
   },
   {
      "name": "Dayton",
      "countryCode": "AU",
      "stateCode": "WA",
      "latitude": "-31.85251000",
      "longitude": "115.97494000"
   },
   {
      "name": "Denham",
      "countryCode": "AU",
      "stateCode": "WA",
      "latitude": "-25.92679000",
      "longitude": "113.53327000"
   },
   {
      "name": "Denmark",
      "countryCode": "AU",
      "stateCode": "WA",
      "latitude": "-34.93473000",
      "longitude": "117.37518000"
   },
   {
      "name": "Derby",
      "countryCode": "AU",
      "stateCode": "WA",
      "latitude": "-17.30295000",
      "longitude": "123.62864000"
   },
   {
      "name": "Derby-West Kimberley",
      "countryCode": "AU",
      "stateCode": "WA",
      "latitude": "-17.50447000",
      "longitude": "125.28014000"
   },
   {
      "name": "Dianella",
      "countryCode": "AU",
      "stateCode": "WA",
      "latitude": "-31.88822000",
      "longitude": "115.87186000"
   },
   {
      "name": "Djugun",
      "countryCode": "AU",
      "stateCode": "WA",
      "latitude": "-17.95395000",
      "longitude": "122.22792000"
   },
   {
      "name": "Dongara",
      "countryCode": "AU",
      "stateCode": "WA",
      "latitude": "-29.25818000",
      "longitude": "114.93276000"
   },
   {
      "name": "Donnybrook",
      "countryCode": "AU",
      "stateCode": "WA",
      "latitude": "-33.57130000",
      "longitude": "115.82446000"
   },
   {
      "name": "Donnybrook-Balingup",
      "countryCode": "AU",
      "stateCode": "WA",
      "latitude": "-33.70217000",
      "longitude": "115.97778000"
   },
   {
      "name": "Doubleview",
      "countryCode": "AU",
      "stateCode": "WA",
      "latitude": "-31.89627000",
      "longitude": "115.78155000"
   },
   {
      "name": "Dowerin",
      "countryCode": "AU",
      "stateCode": "WA",
      "latitude": "-31.11328000",
      "longitude": "117.10566000"
   },
   {
      "name": "Drummond Cove",
      "countryCode": "AU",
      "stateCode": "WA",
      "latitude": "-28.67379000",
      "longitude": "114.61280000"
   },
   {
      "name": "Dudley Park",
      "countryCode": "AU",
      "stateCode": "WA",
      "latitude": "-32.55221000",
      "longitude": "115.73100000"
   },
   {
      "name": "Dumbleyung Shire",
      "countryCode": "AU",
      "stateCode": "WA",
      "latitude": "-33.21780000",
      "longitude": "117.98750000"
   },
   {
      "name": "Duncraig",
      "countryCode": "AU",
      "stateCode": "WA",
      "latitude": "-31.83291000",
      "longitude": "115.77590000"
   },
   {
      "name": "Dundas",
      "countryCode": "AU",
      "stateCode": "WA",
      "latitude": "-32.12502000",
      "longitude": "124.50582000"
   },
   {
      "name": "Dunsborough",
      "countryCode": "AU",
      "stateCode": "WA",
      "latitude": "-33.61476000",
      "longitude": "115.10445000"
   },
   {
      "name": "East Bunbury",
      "countryCode": "AU",
      "stateCode": "WA",
      "latitude": "-33.33619000",
      "longitude": "115.66041000"
   },
   {
      "name": "East Cannington",
      "countryCode": "AU",
      "stateCode": "WA",
      "latitude": "-32.00980000",
      "longitude": "115.95503000"
   },
   {
      "name": "East Carnarvon",
      "countryCode": "AU",
      "stateCode": "WA",
      "latitude": "-24.86397000",
      "longitude": "113.67768000"
   },
   {
      "name": "East Fremantle",
      "countryCode": "AU",
      "stateCode": "WA",
      "latitude": "-32.03654000",
      "longitude": "115.76714000"
   },
   {
      "name": "East Perth",
      "countryCode": "AU",
      "stateCode": "WA",
      "latitude": "-31.95872000",
      "longitude": "115.87109000"
   },
   {
      "name": "East Pilbara",
      "countryCode": "AU",
      "stateCode": "WA",
      "latitude": "-21.61331000",
      "longitude": "123.71368000"
   },
   {
      "name": "East Victoria Park",
      "countryCode": "AU",
      "stateCode": "WA",
      "latitude": "-31.98894000",
      "longitude": "115.90388000"
   },
   {
      "name": "Eaton",
      "countryCode": "AU",
      "stateCode": "WA",
      "latitude": "-33.31664000",
      "longitude": "115.70503000"
   },
   {
      "name": "Eden Hill",
      "countryCode": "AU",
      "stateCode": "WA",
      "latitude": "-31.88908000",
      "longitude": "115.94675000"
   },
   {
      "name": "Edgewater",
      "countryCode": "AU",
      "stateCode": "WA",
      "latitude": "-31.76547000",
      "longitude": "115.78223000"
   },
   {
      "name": "Eglinton",
      "countryCode": "AU",
      "stateCode": "WA",
      "latitude": "-31.58677000",
      "longitude": "115.68878000"
   },
   {
      "name": "Ellenbrook",
      "countryCode": "AU",
      "stateCode": "WA",
      "latitude": "-31.76737000",
      "longitude": "115.96936000"
   },
   {
      "name": "Embleton",
      "countryCode": "AU",
      "stateCode": "WA",
      "latitude": "-31.90355000",
      "longitude": "115.90902000"
   },
   {
      "name": "Erskine",
      "countryCode": "AU",
      "stateCode": "WA",
      "latitude": "-32.55717000",
      "longitude": "115.70657000"
   },
   {
      "name": "Esperance",
      "countryCode": "AU",
      "stateCode": "WA",
      "latitude": "-33.85919000",
      "longitude": "121.89164000"
   },
   {
      "name": "Esperance Shire",
      "countryCode": "AU",
      "stateCode": "WA",
      "latitude": "-33.51970000",
      "longitude": "122.15586000"
   },
   {
      "name": "Exmouth",
      "countryCode": "AU",
      "stateCode": "WA",
      "latitude": "-22.03643000",
      "longitude": "114.04358000"
   },
   {
      "name": "Falcon",
      "countryCode": "AU",
      "stateCode": "WA",
      "latitude": "-32.58244000",
      "longitude": "115.66199000"
   },
   {
      "name": "Ferndale",
      "countryCode": "AU",
      "stateCode": "WA",
      "latitude": "-32.03494000",
      "longitude": "115.92233000"
   },
   {
      "name": "Fitzroy Crossing",
      "countryCode": "AU",
      "stateCode": "WA",
      "latitude": "-18.19714000",
      "longitude": "125.56663000"
   },
   {
      "name": "Floreat",
      "countryCode": "AU",
      "stateCode": "WA",
      "latitude": "-31.93862000",
      "longitude": "115.79211000"
   },
   {
      "name": "Forrestdale",
      "countryCode": "AU",
      "stateCode": "WA",
      "latitude": "-32.15520000",
      "longitude": "115.93417000"
   },
   {
      "name": "Forrestfield",
      "countryCode": "AU",
      "stateCode": "WA",
      "latitude": "-31.98277000",
      "longitude": "116.00673000"
   },
   {
      "name": "Fremantle",
      "countryCode": "AU",
      "stateCode": "WA",
      "latitude": "-32.05165000",
      "longitude": "115.76379000"
   },
   {
      "name": "Garden Island",
      "countryCode": "AU",
      "stateCode": "WA",
      "latitude": "-32.24264000",
      "longitude": "115.69505000"
   },
   {
      "name": "Gelorup",
      "countryCode": "AU",
      "stateCode": "WA",
      "latitude": "-33.42425000",
      "longitude": "115.64094000"
   },
   {
      "name": "Geographe",
      "countryCode": "AU",
      "stateCode": "WA",
      "latitude": "-33.63974000",
      "longitude": "115.38358000"
   },
   {
      "name": "Geraldton",
      "countryCode": "AU",
      "stateCode": "WA",
      "latitude": "-28.77897000",
      "longitude": "114.61459000"
   },
   {
      "name": "Geraldton city centre",
      "countryCode": "AU",
      "stateCode": "WA",
      "latitude": "-28.77754000",
      "longitude": "114.61494000"
   },
   {
      "name": "Gidgegannup",
      "countryCode": "AU",
      "stateCode": "WA",
      "latitude": "-31.75441000",
      "longitude": "116.18746000"
   },
   {
      "name": "Gingin",
      "countryCode": "AU",
      "stateCode": "WA",
      "latitude": "-31.18435000",
      "longitude": "115.65944000"
   },
   {
      "name": "Girrawheen",
      "countryCode": "AU",
      "stateCode": "WA",
      "latitude": "-31.84103000",
      "longitude": "115.83978000"
   },
   {
      "name": "Glen Forrest",
      "countryCode": "AU",
      "stateCode": "WA",
      "latitude": "-31.91929000",
      "longitude": "116.10726000"
   },
   {
      "name": "Glen Iris",
      "countryCode": "AU",
      "stateCode": "WA",
      "latitude": "-33.33713000",
      "longitude": "115.67430000"
   },
   {
      "name": "Glendalough",
      "countryCode": "AU",
      "stateCode": "WA",
      "latitude": "-31.91991000",
      "longitude": "115.81945000"
   },
   {
      "name": "Gnangara",
      "countryCode": "AU",
      "stateCode": "WA",
      "latitude": "-31.77612000",
      "longitude": "115.86623000"
   },
   {
      "name": "Gnowangerup",
      "countryCode": "AU",
      "stateCode": "WA",
      "latitude": "-34.08658000",
      "longitude": "118.29832000"
   },
   {
      "name": "Golden Bay",
      "countryCode": "AU",
      "stateCode": "WA",
      "latitude": "-32.42505000",
      "longitude": "115.76099000"
   },
   {
      "name": "Goomalling",
      "countryCode": "AU",
      "stateCode": "WA",
      "latitude": "-31.23457000",
      "longitude": "116.79142000"
   },
   {
      "name": "Gooseberry Hill",
      "countryCode": "AU",
      "stateCode": "WA",
      "latitude": "-31.95444000",
      "longitude": "116.04920000"
   },
   {
      "name": "Gosnells",
      "countryCode": "AU",
      "stateCode": "WA",
      "latitude": "-32.06763000",
      "longitude": "116.00203000"
   },
   {
      "name": "Grasmere",
      "countryCode": "AU",
      "stateCode": "WA",
      "latitude": "-35.01806000",
      "longitude": "117.75556000"
   },
   {
      "name": "Green Head",
      "countryCode": "AU",
      "stateCode": "WA",
      "latitude": "-30.07749610",
      "longitude": "114.95851290"
   },
   {
      "name": "Greenfields",
      "countryCode": "AU",
      "stateCode": "WA",
      "latitude": "-32.52429000",
      "longitude": "115.76315000"
   },
   {
      "name": "Greenmount",
      "countryCode": "AU",
      "stateCode": "WA",
      "latitude": "-31.90072000",
      "longitude": "116.04950000"
   },
   {
      "name": "Greenwood",
      "countryCode": "AU",
      "stateCode": "WA",
      "latitude": "-31.82723000",
      "longitude": "115.80247000"
   },
   {
      "name": "Guildford",
      "countryCode": "AU",
      "stateCode": "WA",
      "latitude": "-31.90000000",
      "longitude": "115.96667000"
   },
   {
      "name": "Gwelup",
      "countryCode": "AU",
      "stateCode": "WA",
      "latitude": "-31.87163000",
      "longitude": "115.79484000"
   },
   {
      "name": "Halls Creek",
      "countryCode": "AU",
      "stateCode": "WA",
      "latitude": "-19.00069000",
      "longitude": "127.45204000"
   },
   {
      "name": "Halls Head",
      "countryCode": "AU",
      "stateCode": "WA",
      "latitude": "-32.54315000",
      "longitude": "115.69665000"
   },
   {
      "name": "Hamersley",
      "countryCode": "AU",
      "stateCode": "WA",
      "latitude": "-31.84898000",
      "longitude": "115.80757000"
   },
   {
      "name": "Hamilton Hill",
      "countryCode": "AU",
      "stateCode": "WA",
      "latitude": "-32.08451000",
      "longitude": "115.77946000"
   },
   {
      "name": "Hammond Park",
      "countryCode": "AU",
      "stateCode": "WA",
      "latitude": "-32.16853000",
      "longitude": "115.85040000"
   },
   {
      "name": "Hannans",
      "countryCode": "AU",
      "stateCode": "WA",
      "latitude": "-30.71909000",
      "longitude": "121.45480000"
   },
   {
      "name": "Harrisdale",
      "countryCode": "AU",
      "stateCode": "WA",
      "latitude": "-32.11084000",
      "longitude": "115.93563000"
   },
   {
      "name": "Harvey",
      "countryCode": "AU",
      "stateCode": "WA",
      "latitude": "-33.14976000",
      "longitude": "115.93376000"
   },
   {
      "name": "Heathridge",
      "countryCode": "AU",
      "stateCode": "WA",
      "latitude": "-31.76244000",
      "longitude": "115.75895000"
   },
   {
      "name": "Helena Valley",
      "countryCode": "AU",
      "stateCode": "WA",
      "latitude": "-31.91938000",
      "longitude": "116.03982000"
   },
   {
      "name": "Henley Brook",
      "countryCode": "AU",
      "stateCode": "WA",
      "latitude": "-31.81393000",
      "longitude": "115.98807000"
   },
   {
      "name": "Herne Hill",
      "countryCode": "AU",
      "stateCode": "WA",
      "latitude": "-31.82553000",
      "longitude": "116.02270000"
   },
   {
      "name": "High Wycombe",
      "countryCode": "AU",
      "stateCode": "WA",
      "latitude": "-31.94444000",
      "longitude": "116.00340000"
   },
   {
      "name": "Highgate",
      "countryCode": "AU",
      "stateCode": "WA",
      "latitude": "-31.93971000",
      "longitude": "115.87015000"
   },
   {
      "name": "Hilbert",
      "countryCode": "AU",
      "stateCode": "WA",
      "latitude": "-32.17818000",
      "longitude": "115.98490000"
   },
   {
      "name": "Hill River",
      "countryCode": "AU",
      "stateCode": "WA",
      "latitude": "-30.25744110",
      "longitude": "115.15365180"
   },
   {
      "name": "Hillarys",
      "countryCode": "AU",
      "stateCode": "WA",
      "latitude": "-31.80698000",
      "longitude": "115.74045000"
   },
   {
      "name": "Hillman",
      "countryCode": "AU",
      "stateCode": "WA",
      "latitude": "-32.28327000",
      "longitude": "115.76364000"
   },
   {
      "name": "Hilton",
      "countryCode": "AU",
      "stateCode": "WA",
      "latitude": "-32.06208000",
      "longitude": "115.78049000"
   },
   {
      "name": "Hocking",
      "countryCode": "AU",
      "stateCode": "WA",
      "latitude": "-31.77012000",
      "longitude": "115.81832000"
   },
   {
      "name": "Huntingdale",
      "countryCode": "AU",
      "stateCode": "WA",
      "latitude": "-32.08318000",
      "longitude": "115.96614000"
   },
   {
      "name": "Iluka",
      "countryCode": "AU",
      "stateCode": "WA",
      "latitude": "-31.73554000",
      "longitude": "115.73058000"
   },
   {
      "name": "Inglewood",
      "countryCode": "AU",
      "stateCode": "WA",
      "latitude": "-31.91663000",
      "longitude": "115.87980000"
   },
   {
      "name": "Innaloo",
      "countryCode": "AU",
      "stateCode": "WA",
      "latitude": "-31.89272000",
      "longitude": "115.79508000"
   },
   {
      "name": "Irwin",
      "countryCode": "AU",
      "stateCode": "WA",
      "latitude": "-29.34192000",
      "longitude": "115.04561000"
   },
   {
      "name": "Jandakot",
      "countryCode": "AU",
      "stateCode": "WA",
      "latitude": "-32.10158000",
      "longitude": "115.87083000"
   },
   {
      "name": "Jane Brook",
      "countryCode": "AU",
      "stateCode": "WA",
      "latitude": "-31.86368000",
      "longitude": "116.05039000"
   },
   {
      "name": "Jarrahdale",
      "countryCode": "AU",
      "stateCode": "WA",
      "latitude": "-32.33580000",
      "longitude": "116.05951000"
   },
   {
      "name": "Jerramungup",
      "countryCode": "AU",
      "stateCode": "WA",
      "latitude": "-34.03050000",
      "longitude": "119.11369000"
   },
   {
      "name": "Jindalee",
      "countryCode": "AU",
      "stateCode": "WA",
      "latitude": "-31.64938000",
      "longitude": "115.69496000"
   },
   {
      "name": "Jolimont",
      "countryCode": "AU",
      "stateCode": "WA",
      "latitude": "-31.94564000",
      "longitude": "115.80947000"
   },
   {
      "name": "Joondalup",
      "countryCode": "AU",
      "stateCode": "WA",
      "latitude": "-31.77962000",
      "longitude": "115.76498000"
   },
   {
      "name": "Joondanna",
      "countryCode": "AU",
      "stateCode": "WA",
      "latitude": "-31.90767000",
      "longitude": "115.84233000"
   },
   {
      "name": "Jurien Bay",
      "countryCode": "AU",
      "stateCode": "WA",
      "latitude": "-30.30591000",
      "longitude": "115.03825000"
   },
   {
      "name": "Kalamunda",
      "countryCode": "AU",
      "stateCode": "WA",
      "latitude": "-32.00398000",
      "longitude": "116.13292000"
   },
   {
      "name": "Kalbarri",
      "countryCode": "AU",
      "stateCode": "WA",
      "latitude": "-27.71050000",
      "longitude": "114.16505000"
   },
   {
      "name": "Kalgoorlie",
      "countryCode": "AU",
      "stateCode": "WA",
      "latitude": "-30.74614000",
      "longitude": "121.47420000"
   },
   {
      "name": "Kalgoorlie/Boulder",
      "countryCode": "AU",
      "stateCode": "WA",
      "latitude": "-30.77632000",
      "longitude": "124.92347000"
   },
   {
      "name": "Kallaroo",
      "countryCode": "AU",
      "stateCode": "WA",
      "latitude": "-31.79098000",
      "longitude": "115.75298000"
   },
   {
      "name": "Kambalda East",
      "countryCode": "AU",
      "stateCode": "WA",
      "latitude": "-31.20550000",
      "longitude": "121.67011000"
   },
   {
      "name": "Kambalda West",
      "countryCode": "AU",
      "stateCode": "WA",
      "latitude": "-31.20169000",
      "longitude": "121.63060000"
   },
   {
      "name": "Karawara",
      "countryCode": "AU",
      "stateCode": "WA",
      "latitude": "-32.00860000",
      "longitude": "115.88114000"
   },
   {
      "name": "Kardinya",
      "countryCode": "AU",
      "stateCode": "WA",
      "latitude": "-32.06561000",
      "longitude": "115.81483000"
   },
   {
      "name": "Karnup",
      "countryCode": "AU",
      "stateCode": "WA",
      "latitude": "-32.41894000",
      "longitude": "115.79267000"
   },
   {
      "name": "Karratha",
      "countryCode": "AU",
      "stateCode": "WA",
      "latitude": "-20.73765000",
      "longitude": "116.84629000"
   },
   {
      "name": "Karrinyup",
      "countryCode": "AU",
      "stateCode": "WA",
      "latitude": "-31.87233000",
      "longitude": "115.77684000"
   },
   {
      "name": "Katanning",
      "countryCode": "AU",
      "stateCode": "WA",
      "latitude": "-33.62476000",
      "longitude": "117.63965000"
   },
   {
      "name": "Kellerberrin",
      "countryCode": "AU",
      "stateCode": "WA",
      "latitude": "-31.57709000",
      "longitude": "117.80561000"
   },
   {
      "name": "Kelmscott",
      "countryCode": "AU",
      "stateCode": "WA",
      "latitude": "-32.12434000",
      "longitude": "116.02590000"
   },
   {
      "name": "Kent Shire",
      "countryCode": "AU",
      "stateCode": "WA",
      "latitude": "-33.53881000",
      "longitude": "118.66993000"
   },
   {
      "name": "Kenwick",
      "countryCode": "AU",
      "stateCode": "WA",
      "latitude": "-32.03333000",
      "longitude": "115.96667000"
   },
   {
      "name": "Kewdale",
      "countryCode": "AU",
      "stateCode": "WA",
      "latitude": "-31.97886000",
      "longitude": "115.95159000"
   },
   {
      "name": "Kiara",
      "countryCode": "AU",
      "stateCode": "WA",
      "latitude": "-31.88156000",
      "longitude": "115.93893000"
   },
   {
      "name": "Kingsley",
      "countryCode": "AU",
      "stateCode": "WA",
      "latitude": "-31.81036000",
      "longitude": "115.80077000"
   },
   {
      "name": "Kinross",
      "countryCode": "AU",
      "stateCode": "WA",
      "latitude": "-31.71868000",
      "longitude": "115.73839000"
   },
   {
      "name": "Kojonup",
      "countryCode": "AU",
      "stateCode": "WA",
      "latitude": "-33.92546000",
      "longitude": "117.03982000"
   },
   {
      "name": "Kondinin",
      "countryCode": "AU",
      "stateCode": "WA",
      "latitude": "-32.48431000",
      "longitude": "119.02420000"
   },
   {
      "name": "Koondoola",
      "countryCode": "AU",
      "stateCode": "WA",
      "latitude": "-31.84145000",
      "longitude": "115.86654000"
   },
   {
      "name": "Koorda",
      "countryCode": "AU",
      "stateCode": "WA",
      "latitude": "-30.60412000",
      "longitude": "117.40736000"
   },
   {
      "name": "Kulin",
      "countryCode": "AU",
      "stateCode": "WA",
      "latitude": "-32.66096000",
      "longitude": "118.57544000"
   },
   {
      "name": "Kununurra",
      "countryCode": "AU",
      "stateCode": "WA",
      "latitude": "-15.77825000",
      "longitude": "128.74208000"
   },
   {
      "name": "Kwinana",
      "countryCode": "AU",
      "stateCode": "WA",
      "latitude": "-32.23391000",
      "longitude": "115.82785000"
   },
   {
      "name": "Lake Grace",
      "countryCode": "AU",
      "stateCode": "WA",
      "latitude": "-33.12910000",
      "longitude": "119.42041000"
   },
   {
      "name": "Lakelands",
      "countryCode": "AU",
      "stateCode": "WA",
      "latitude": "-32.47157000",
      "longitude": "115.77291000"
   },
   {
      "name": "Lamington",
      "countryCode": "AU",
      "stateCode": "WA",
      "latitude": "-30.73425000",
      "longitude": "121.46163000"
   },
   {
      "name": "Lancelin",
      "countryCode": "AU",
      "stateCode": "WA",
      "latitude": "-31.02231270",
      "longitude": "115.32398090"
   },
   {
      "name": "Landsdale",
      "countryCode": "AU",
      "stateCode": "WA",
      "latitude": "-31.80750000",
      "longitude": "115.86599000"
   },
   {
      "name": "Langford",
      "countryCode": "AU",
      "stateCode": "WA",
      "latitude": "-32.04092000",
      "longitude": "115.94157000"
   },
   {
      "name": "Lathlain",
      "countryCode": "AU",
      "stateCode": "WA",
      "latitude": "-31.96755000",
      "longitude": "115.90631000"
   },
   {
      "name": "Laverton",
      "countryCode": "AU",
      "stateCode": "WA",
      "latitude": "-27.93793000",
      "longitude": "125.27127000"
   },
   {
      "name": "Leda",
      "countryCode": "AU",
      "stateCode": "WA",
      "latitude": "-32.26766000",
      "longitude": "115.79930000"
   },
   {
      "name": "Leederville",
      "countryCode": "AU",
      "stateCode": "WA",
      "latitude": "-31.93628000",
      "longitude": "115.84190000"
   },
   {
      "name": "Leeman",
      "countryCode": "AU",
      "stateCode": "WA",
      "latitude": "-29.98735790",
      "longitude": "114.95789040"
   },
   {
      "name": "Leeming",
      "countryCode": "AU",
      "stateCode": "WA",
      "latitude": "-32.07511000",
      "longitude": "115.86613000"
   },
   {
      "name": "Leinster",
      "countryCode": "AU",
      "stateCode": "WA",
      "latitude": "-27.92028000",
      "longitude": "120.69670000"
   },
   {
      "name": "Leonora",
      "countryCode": "AU",
      "stateCode": "WA",
      "latitude": "-28.39424000",
      "longitude": "121.25960000"
   },
   {
      "name": "Leschenault",
      "countryCode": "AU",
      "stateCode": "WA",
      "latitude": "-33.24519000",
      "longitude": "115.72510000"
   },
   {
      "name": "Lesmurdie",
      "countryCode": "AU",
      "stateCode": "WA",
      "latitude": "-32.00199000",
      "longitude": "116.04821000"
   },
   {
      "name": "Little Grove",
      "countryCode": "AU",
      "stateCode": "WA",
      "latitude": "-35.06803000",
      "longitude": "117.87197000"
   },
   {
      "name": "Lockridge",
      "countryCode": "AU",
      "stateCode": "WA",
      "latitude": "-31.88168000",
      "longitude": "115.95031000"
   },
   {
      "name": "Lockyer",
      "countryCode": "AU",
      "stateCode": "WA",
      "latitude": "-35.00567000",
      "longitude": "117.85875000"
   },
   {
      "name": "Lower Chittering",
      "countryCode": "AU",
      "stateCode": "WA",
      "latitude": "-31.58333000",
      "longitude": "116.11667000"
   },
   {
      "name": "Lower King",
      "countryCode": "AU",
      "stateCode": "WA",
      "latitude": "-34.95778000",
      "longitude": "117.93833000"
   },
   {
      "name": "Lynwood",
      "countryCode": "AU",
      "stateCode": "WA",
      "latitude": "-32.04013000",
      "longitude": "115.92888000"
   },
   {
      "name": "Maddington",
      "countryCode": "AU",
      "stateCode": "WA",
      "latitude": "-32.05000000",
      "longitude": "115.98333000"
   },
   {
      "name": "Madeley",
      "countryCode": "AU",
      "stateCode": "WA",
      "latitude": "-31.81110000",
      "longitude": "115.82814000"
   },
   {
      "name": "Madora Bay",
      "countryCode": "AU",
      "stateCode": "WA",
      "latitude": "-32.46951000",
      "longitude": "115.75264000"
   },
   {
      "name": "Maida Vale",
      "countryCode": "AU",
      "stateCode": "WA",
      "latitude": "-31.95187000",
      "longitude": "116.02764000"
   },
   {
      "name": "Malaga",
      "countryCode": "AU",
      "stateCode": "WA",
      "latitude": "-31.85814290",
      "longitude": "115.87986450"
   },
   {
      "name": "Mandurah",
      "countryCode": "AU",
      "stateCode": "WA",
      "latitude": "-32.52690000",
      "longitude": "115.72170000"
   },
   {
      "name": "Mandurah city centre",
      "countryCode": "AU",
      "stateCode": "WA",
      "latitude": "-32.52644000",
      "longitude": "115.73361000"
   },
   {
      "name": "Manjimup",
      "countryCode": "AU",
      "stateCode": "WA",
      "latitude": "-34.59789000",
      "longitude": "116.26566000"
   },
   {
      "name": "Manning",
      "countryCode": "AU",
      "stateCode": "WA",
      "latitude": "-32.01594000",
      "longitude": "115.86714000"
   },
   {
      "name": "Marangaroo",
      "countryCode": "AU",
      "stateCode": "WA",
      "latitude": "-31.82711000",
      "longitude": "115.83843000"
   },
   {
      "name": "Marble Bar",
      "countryCode": "AU",
      "stateCode": "WA",
      "latitude": "-21.17067000",
      "longitude": "119.74441000"
   },
   {
      "name": "Margaret River",
      "countryCode": "AU",
      "stateCode": "WA",
      "latitude": "-33.95504000",
      "longitude": "115.07599000"
   },
   {
      "name": "Marmion",
      "countryCode": "AU",
      "stateCode": "WA",
      "latitude": "-31.84158000",
      "longitude": "115.75692000"
   },
   {
      "name": "Martin",
      "countryCode": "AU",
      "stateCode": "WA",
      "latitude": "-32.07549000",
      "longitude": "116.04536000"
   },
   {
      "name": "Maylands",
      "countryCode": "AU",
      "stateCode": "WA",
      "latitude": "-31.93097000",
      "longitude": "115.89486000"
   },
   {
      "name": "McKail",
      "countryCode": "AU",
      "stateCode": "WA",
      "latitude": "-34.98533000",
      "longitude": "117.83010000"
   },
   {
      "name": "Meadow Springs",
      "countryCode": "AU",
      "stateCode": "WA",
      "latitude": "-32.49718000",
      "longitude": "115.75334000"
   },
   {
      "name": "Medina",
      "countryCode": "AU",
      "stateCode": "WA",
      "latitude": "-32.23406000",
      "longitude": "115.79901000"
   },
   {
      "name": "Meekatharra",
      "countryCode": "AU",
      "stateCode": "WA",
      "latitude": "-25.30330000",
      "longitude": "118.99974000"
   },
   {
      "name": "Melville",
      "countryCode": "AU",
      "stateCode": "WA",
      "latitude": "-32.04325000",
      "longitude": "115.83408000"
   },
   {
      "name": "Menora",
      "countryCode": "AU",
      "stateCode": "WA",
      "latitude": "-31.91889000",
      "longitude": "115.86208000"
   },
   {
      "name": "Menzies",
      "countryCode": "AU",
      "stateCode": "WA",
      "latitude": "-29.39176000",
      "longitude": "123.71878000"
   },
   {
      "name": "Merredin",
      "countryCode": "AU",
      "stateCode": "WA",
      "latitude": "-31.46054000",
      "longitude": "118.38509000"
   },
   {
      "name": "Merriwa",
      "countryCode": "AU",
      "stateCode": "WA",
      "latitude": "-31.66494000",
      "longitude": "115.71273000"
   },
   {
      "name": "Middle Swan",
      "countryCode": "AU",
      "stateCode": "WA",
      "latitude": "-31.85000000",
      "longitude": "116.01667000"
   },
   {
      "name": "Midland",
      "countryCode": "AU",
      "stateCode": "WA",
      "latitude": "-31.88909000",
      "longitude": "116.01070000"
   },
   {
      "name": "Midvale",
      "countryCode": "AU",
      "stateCode": "WA",
      "latitude": "-31.88881000",
      "longitude": "116.03288000"
   },
   {
      "name": "Millars Well",
      "countryCode": "AU",
      "stateCode": "WA",
      "latitude": "-20.74168000",
      "longitude": "116.81731000"
   },
   {
      "name": "Millbridge",
      "countryCode": "AU",
      "stateCode": "WA",
      "latitude": "-33.30617000",
      "longitude": "115.73500000"
   },
   {
      "name": "Mindarie",
      "countryCode": "AU",
      "stateCode": "WA",
      "latitude": "-31.68932000",
      "longitude": "115.70698000"
   },
   {
      "name": "Mingenew",
      "countryCode": "AU",
      "stateCode": "WA",
      "latitude": "-29.14515000",
      "longitude": "115.50123000"
   },
   {
      "name": "Mira Mar",
      "countryCode": "AU",
      "stateCode": "WA",
      "latitude": "-35.01517000",
      "longitude": "117.90096000"
   },
   {
      "name": "Mirrabooka",
      "countryCode": "AU",
      "stateCode": "WA",
      "latitude": "-31.85963000",
      "longitude": "115.86587000"
   },
   {
      "name": "Moora",
      "countryCode": "AU",
      "stateCode": "WA",
      "latitude": "-30.51218000",
      "longitude": "116.20980000"
   },
   {
      "name": "Morawa",
      "countryCode": "AU",
      "stateCode": "WA",
      "latitude": "-29.03545000",
      "longitude": "116.05643000"
   },
   {
      "name": "Morley",
      "countryCode": "AU",
      "stateCode": "WA",
      "latitude": "-31.88775000",
      "longitude": "115.90990000"
   },
   {
      "name": "Mosman Park",
      "countryCode": "AU",
      "stateCode": "WA",
      "latitude": "-32.01421000",
      "longitude": "115.76613000"
   },
   {
      "name": "Mount Barker",
      "countryCode": "AU",
      "stateCode": "WA",
      "latitude": "-34.63084000",
      "longitude": "117.66606000"
   },
   {
      "name": "Mount Claremont",
      "countryCode": "AU",
      "stateCode": "WA",
      "latitude": "-31.96177000",
      "longitude": "115.78337000"
   },
   {
      "name": "Mount Hawthorn",
      "countryCode": "AU",
      "stateCode": "WA",
      "latitude": "-31.92000000",
      "longitude": "115.83509000"
   },
   {
      "name": "Mount Helena",
      "countryCode": "AU",
      "stateCode": "WA",
      "latitude": "-31.87606000",
      "longitude": "116.21025000"
   },
   {
      "name": "Mount Lawley",
      "countryCode": "AU",
      "stateCode": "WA",
      "latitude": "-31.93439000",
      "longitude": "115.87160000"
   },
   {
      "name": "Mount Magnet",
      "countryCode": "AU",
      "stateCode": "WA",
      "latitude": "-28.29082000",
      "longitude": "117.96655000"
   },
   {
      "name": "Mount Marshall",
      "countryCode": "AU",
      "stateCode": "WA",
      "latitude": "-30.29376000",
      "longitude": "118.00063000"
   },
   {
      "name": "Mount Melville",
      "countryCode": "AU",
      "stateCode": "WA",
      "latitude": "-35.02216000",
      "longitude": "117.87137000"
   },
   {
      "name": "Mount Nasura",
      "countryCode": "AU",
      "stateCode": "WA",
      "latitude": "-32.13780000",
      "longitude": "116.02473000"
   },
   {
      "name": "Mount Pleasant",
      "countryCode": "AU",
      "stateCode": "WA",
      "latitude": "-32.03974000",
      "longitude": "115.84993000"
   },
   {
      "name": "Mount Richon",
      "countryCode": "AU",
      "stateCode": "WA",
      "latitude": "-32.17349000",
      "longitude": "116.02137000"
   },
   {
      "name": "Mount Tarcoola",
      "countryCode": "AU",
      "stateCode": "WA",
      "latitude": "-28.79859000",
      "longitude": "114.62530000"
   },
   {
      "name": "Muchea",
      "countryCode": "AU",
      "stateCode": "WA",
      "latitude": "-31.54936380",
      "longitude": "115.87036200"
   },
   {
      "name": "Mukinbudin",
      "countryCode": "AU",
      "stateCode": "WA",
      "latitude": "-30.63684000",
      "longitude": "118.28648000"
   },
   {
      "name": "Mullaloo",
      "countryCode": "AU",
      "stateCode": "WA",
      "latitude": "-31.77896000",
      "longitude": "115.73676000"
   },
   {
      "name": "Mundaring",
      "countryCode": "AU",
      "stateCode": "WA",
      "latitude": "-31.88456000",
      "longitude": "116.21551000"
   },
   {
      "name": "Mundijong",
      "countryCode": "AU",
      "stateCode": "WA",
      "latitude": "-32.29217000",
      "longitude": "115.98564000"
   },
   {
      "name": "Munster",
      "countryCode": "AU",
      "stateCode": "WA",
      "latitude": "-32.13647000",
      "longitude": "115.78302000"
   },
   {
      "name": "Murchison",
      "countryCode": "AU",
      "stateCode": "WA",
      "latitude": "-27.00893000",
      "longitude": "116.41205000"
   },
   {
      "name": "Murdoch",
      "countryCode": "AU",
      "stateCode": "WA",
      "latitude": "-32.06987000",
      "longitude": "115.83757000"
   },
   {
      "name": "Murray",
      "countryCode": "AU",
      "stateCode": "WA",
      "latitude": "-32.62391000",
      "longitude": "115.96538000"
   },
   {
      "name": "Myaree",
      "countryCode": "AU",
      "stateCode": "WA",
      "latitude": "-32.04000000",
      "longitude": "115.81761000"
   },
   {
      "name": "Nannup",
      "countryCode": "AU",
      "stateCode": "WA",
      "latitude": "-34.13466000",
      "longitude": "115.67375000"
   },
   {
      "name": "Narembeen",
      "countryCode": "AU",
      "stateCode": "WA",
      "latitude": "-32.02206000",
      "longitude": "118.68990000"
   },
   {
      "name": "Narrogin",
      "countryCode": "AU",
      "stateCode": "WA",
      "latitude": "-32.93282000",
      "longitude": "117.17763000"
   },
   {
      "name": "Nedlands",
      "countryCode": "AU",
      "stateCode": "WA",
      "latitude": "-31.97994000",
      "longitude": "115.79942000"
   },
   {
      "name": "Newman",
      "countryCode": "AU",
      "stateCode": "WA",
      "latitude": "-23.35644000",
      "longitude": "119.73553000"
   },
   {
      "name": "Ngaanyatjarraku",
      "countryCode": "AU",
      "stateCode": "WA",
      "latitude": "-25.08871000",
      "longitude": "126.83494000"
   },
   {
      "name": "Nickol",
      "countryCode": "AU",
      "stateCode": "WA",
      "latitude": "-20.74558000",
      "longitude": "116.79540000"
   },
   {
      "name": "Nollamara",
      "countryCode": "AU",
      "stateCode": "WA",
      "latitude": "-31.88016000",
      "longitude": "115.84543000"
   },
   {
      "name": "Noranda",
      "countryCode": "AU",
      "stateCode": "WA",
      "latitude": "-31.87333000",
      "longitude": "115.89901000"
   },
   {
      "name": "North Beach",
      "countryCode": "AU",
      "stateCode": "WA",
      "latitude": "-31.86298000",
      "longitude": "115.75624000"
   },
   {
      "name": "North Coogee",
      "countryCode": "AU",
      "stateCode": "WA",
      "latitude": "-32.09505000",
      "longitude": "115.75972000"
   },
   {
      "name": "North Fremantle",
      "countryCode": "AU",
      "stateCode": "WA",
      "latitude": "-32.03333000",
      "longitude": "115.75000000"
   },
   {
      "name": "North Lake",
      "countryCode": "AU",
      "stateCode": "WA",
      "latitude": "-32.08190000",
      "longitude": "115.83567000"
   },
   {
      "name": "North Perth",
      "countryCode": "AU",
      "stateCode": "WA",
      "latitude": "-31.92724000",
      "longitude": "115.85276000"
   },
   {
      "name": "Northam",
      "countryCode": "AU",
      "stateCode": "WA",
      "latitude": "-31.69898000",
      "longitude": "116.64964000"
   },
   {
      "name": "Northampton Shire",
      "countryCode": "AU",
      "stateCode": "WA",
      "latitude": "-28.04956000",
      "longitude": "114.49589000"
   },
   {
      "name": "Northbridge",
      "countryCode": "AU",
      "stateCode": "WA",
      "latitude": "-31.94784000",
      "longitude": "115.85881000"
   },
   {
      "name": "Nullagine",
      "countryCode": "AU",
      "stateCode": "WA",
      "latitude": "-21.88972000",
      "longitude": "120.11140000"
   },
   {
      "name": "Nulsen",
      "countryCode": "AU",
      "stateCode": "WA",
      "latitude": "-33.85696000",
      "longitude": "121.87499000"
   },
   {
      "name": "Nungarin",
      "countryCode": "AU",
      "stateCode": "WA",
      "latitude": "-31.13714000",
      "longitude": "118.21768000"
   },
   {
      "name": "Oakford",
      "countryCode": "AU",
      "stateCode": "WA",
      "latitude": "-32.20094000",
      "longitude": "115.93391000"
   },
   {
      "name": "Ocean Reef",
      "countryCode": "AU",
      "stateCode": "WA",
      "latitude": "-31.75871000",
      "longitude": "115.73601000"
   },
   {
      "name": "Onslow",
      "countryCode": "AU",
      "stateCode": "WA",
      "latitude": "-21.63764000",
      "longitude": "115.11221000"
   },
   {
      "name": "Orana",
      "countryCode": "AU",
      "stateCode": "WA",
      "latitude": "-34.99601000",
      "longitude": "117.85925000"
   },
   {
      "name": "Orelia",
      "countryCode": "AU",
      "stateCode": "WA",
      "latitude": "-32.23330000",
      "longitude": "115.82227000"
   },
   {
      "name": "Osborne Park",
      "countryCode": "AU",
      "stateCode": "WA",
      "latitude": "-31.90066000",
      "longitude": "115.81083000"
   },
   {
      "name": "Padbury",
      "countryCode": "AU",
      "stateCode": "WA",
      "latitude": "-31.80645000",
      "longitude": "115.76880000"
   },
   {
      "name": "Palmyra",
      "countryCode": "AU",
      "stateCode": "WA",
      "latitude": "-32.04502000",
      "longitude": "115.78589000"
   },
   {
      "name": "Paraburdoo",
      "countryCode": "AU",
      "stateCode": "WA",
      "latitude": "-23.20417000",
      "longitude": "117.66973000"
   },
   {
      "name": "Parkerville",
      "countryCode": "AU",
      "stateCode": "WA",
      "latitude": "-31.87472000",
      "longitude": "116.13800000"
   },
   {
      "name": "Parkwood",
      "countryCode": "AU",
      "stateCode": "WA",
      "latitude": "-32.04913000",
      "longitude": "115.91838000"
   },
   {
      "name": "Parmelia",
      "countryCode": "AU",
      "stateCode": "WA",
      "latitude": "-32.25784000",
      "longitude": "115.82208000"
   },
   {
      "name": "Pearce",
      "countryCode": "AU",
      "stateCode": "WA",
      "latitude": "-31.66667000",
      "longitude": "116.01667000"
   },
   {
      "name": "Pearsall",
      "countryCode": "AU",
      "stateCode": "WA",
      "latitude": "-31.78117000",
      "longitude": "115.81823000"
   },
   {
      "name": "Pegs Creek",
      "countryCode": "AU",
      "stateCode": "WA",
      "latitude": "-20.73830000",
      "longitude": "116.83278000"
   },
   {
      "name": "Pemberton",
      "countryCode": "AU",
      "stateCode": "WA",
      "latitude": "-34.44311000",
      "longitude": "116.03689000"
   },
   {
      "name": "Peppermint Grove",
      "countryCode": "AU",
      "stateCode": "WA",
      "latitude": "-31.99885000",
      "longitude": "115.76697000"
   },
   {
      "name": "Perenjori",
      "countryCode": "AU",
      "stateCode": "WA",
      "latitude": "-29.39784000",
      "longitude": "116.53543000"
   },
   {
      "name": "Perth",
      "countryCode": "AU",
      "stateCode": "WA",
      "latitude": "-31.95224000",
      "longitude": "115.86140000"
   },
   {
      "name": "Perth city centre",
      "countryCode": "AU",
      "stateCode": "WA",
      "latitude": "-31.95289000",
      "longitude": "115.85152000"
   },
   {
      "name": "Piara Waters",
      "countryCode": "AU",
      "stateCode": "WA",
      "latitude": "-32.13344000",
      "longitude": "115.91634000"
   },
   {
      "name": "Piccadilly",
      "countryCode": "AU",
      "stateCode": "WA",
      "latitude": "-30.74280000",
      "longitude": "121.46418000"
   },
   {
      "name": "Pingelly",
      "countryCode": "AU",
      "stateCode": "WA",
      "latitude": "-32.53174000",
      "longitude": "117.20004000"
   },
   {
      "name": "Pinjarra",
      "countryCode": "AU",
      "stateCode": "WA",
      "latitude": "-32.62980000",
      "longitude": "115.87351000"
   },
   {
      "name": "Plantagenet Shire",
      "countryCode": "AU",
      "stateCode": "WA",
      "latitude": "-34.62508000",
      "longitude": "117.59753000"
   },
   {
      "name": "Port Denison",
      "countryCode": "AU",
      "stateCode": "WA",
      "latitude": "-29.27367000",
      "longitude": "114.92068000"
   },
   {
      "name": "Port Hedland",
      "countryCode": "AU",
      "stateCode": "WA",
      "latitude": "-20.79258000",
      "longitude": "118.63264000"
   },
   {
      "name": "Port Kennedy",
      "countryCode": "AU",
      "stateCode": "WA",
      "latitude": "-32.37342000",
      "longitude": "115.75150000"
   },
   {
      "name": "Quairading",
      "countryCode": "AU",
      "stateCode": "WA",
      "latitude": "-32.01462000",
      "longitude": "117.39835000"
   },
   {
      "name": "Queens Park",
      "countryCode": "AU",
      "stateCode": "WA",
      "latitude": "-32.00314000",
      "longitude": "115.94621000"
   },
   {
      "name": "Quindalup",
      "countryCode": "AU",
      "stateCode": "WA",
      "latitude": "-33.63560000",
      "longitude": "115.14899000"
   },
   {
      "name": "Quinns Rocks",
      "countryCode": "AU",
      "stateCode": "WA",
      "latitude": "-31.67379000",
      "longitude": "115.70372000"
   },
   {
      "name": "Rangeway",
      "countryCode": "AU",
      "stateCode": "WA",
      "latitude": "-28.78665000",
      "longitude": "114.63059000"
   },
   {
      "name": "Ravensthorpe",
      "countryCode": "AU",
      "stateCode": "WA",
      "latitude": "-33.68375000",
      "longitude": "120.15338000"
   },
   {
      "name": "Ravenswood",
      "countryCode": "AU",
      "stateCode": "WA",
      "latitude": "-32.58240000",
      "longitude": "115.83150000"
   },
   {
      "name": "Redcliffe",
      "countryCode": "AU",
      "stateCode": "WA",
      "latitude": "-31.93845000",
      "longitude": "115.94645000"
   },
   {
      "name": "Regans Ford",
      "countryCode": "AU",
      "stateCode": "WA",
      "latitude": "-30.95552880",
      "longitude": "115.60734050"
   },
   {
      "name": "Ridgewood",
      "countryCode": "AU",
      "stateCode": "WA",
      "latitude": "-31.66150000",
      "longitude": "115.72261000"
   },
   {
      "name": "Riverton",
      "countryCode": "AU",
      "stateCode": "WA",
      "latitude": "-32.03468000",
      "longitude": "115.89856000"
   },
   {
      "name": "Rivervale",
      "countryCode": "AU",
      "stateCode": "WA",
      "latitude": "-31.95546000",
      "longitude": "115.91306000"
   },
   {
      "name": "Rockingham",
      "countryCode": "AU",
      "stateCode": "WA",
      "latitude": "-32.28239000",
      "longitude": "115.73238000"
   },
   {
      "name": "Rockingham city centre",
      "countryCode": "AU",
      "stateCode": "WA",
      "latitude": "-32.28407000",
      "longitude": "115.73540000"
   },
   {
      "name": "Roebuck",
      "countryCode": "AU",
      "stateCode": "WA",
      "latitude": "-18.17130000",
      "longitude": "122.50116000"
   },
   {
      "name": "Roleystone",
      "countryCode": "AU",
      "stateCode": "WA",
      "latitude": "-32.11458000",
      "longitude": "116.07060000"
   },
   {
      "name": "Rossmoyne",
      "countryCode": "AU",
      "stateCode": "WA",
      "latitude": "-32.03965000",
      "longitude": "115.86781000"
   },
   {
      "name": "Safety Bay",
      "countryCode": "AU",
      "stateCode": "WA",
      "latitude": "-32.30463000",
      "longitude": "115.74213000"
   },
   {
      "name": "Salter Point",
      "countryCode": "AU",
      "stateCode": "WA",
      "latitude": "-32.02384000",
      "longitude": "115.86582000"
   },
   {
      "name": "Samson",
      "countryCode": "AU",
      "stateCode": "WA",
      "latitude": "-32.06996000",
      "longitude": "115.79770000"
   },
   {
      "name": "Sandstone",
      "countryCode": "AU",
      "stateCode": "WA",
      "latitude": "-28.42189000",
      "longitude": "118.98846000"
   },
   {
      "name": "Scarborough",
      "countryCode": "AU",
      "stateCode": "WA",
      "latitude": "-31.89578000",
      "longitude": "115.76431000"
   },
   {
      "name": "Secret Harbour",
      "countryCode": "AU",
      "stateCode": "WA",
      "latitude": "-32.40589000",
      "longitude": "115.75852000"
   },
   {
      "name": "Serpentine",
      "countryCode": "AU",
      "stateCode": "WA",
      "latitude": "-32.36051000",
      "longitude": "115.97723000"
   },
   {
      "name": "Serpentine-Jarrahdale",
      "countryCode": "AU",
      "stateCode": "WA",
      "latitude": "-32.32452000",
      "longitude": "116.04507000"
   },
   {
      "name": "Seville Grove",
      "countryCode": "AU",
      "stateCode": "WA",
      "latitude": "-32.13645000",
      "longitude": "115.98905000"
   },
   {
      "name": "Shark Bay",
      "countryCode": "AU",
      "stateCode": "WA",
      "latitude": "-26.38916000",
      "longitude": "114.21845000"
   },
   {
      "name": "Shelley",
      "countryCode": "AU",
      "stateCode": "WA",
      "latitude": "-32.02957000",
      "longitude": "115.88664000"
   },
   {
      "name": "Shenton Park",
      "countryCode": "AU",
      "stateCode": "WA",
      "latitude": "-31.95575000",
      "longitude": "115.79807000"
   },
   {
      "name": "Shoalwater",
      "countryCode": "AU",
      "stateCode": "WA",
      "latitude": "-32.29088000",
      "longitude": "115.71101000"
   },
   {
      "name": "Silver Sands",
      "countryCode": "AU",
      "stateCode": "WA",
      "latitude": "-32.50857000",
      "longitude": "115.73599000"
   },
   {
      "name": "Sinagra",
      "countryCode": "AU",
      "stateCode": "WA",
      "latitude": "-31.74261000",
      "longitude": "115.80633000"
   },
   {
      "name": "Singleton",
      "countryCode": "AU",
      "stateCode": "WA",
      "latitude": "-32.44403000",
      "longitude": "115.75725000"
   },
   {
      "name": "Somerville",
      "countryCode": "AU",
      "stateCode": "WA",
      "latitude": "-30.76979000",
      "longitude": "121.45438000"
   },
   {
      "name": "Sorrento",
      "countryCode": "AU",
      "stateCode": "WA",
      "latitude": "-31.82533000",
      "longitude": "115.75248000"
   },
   {
      "name": "South Bunbury",
      "countryCode": "AU",
      "stateCode": "WA",
      "latitude": "-33.34910000",
      "longitude": "115.63359000"
   },
   {
      "name": "South Carnarvon",
      "countryCode": "AU",
      "stateCode": "WA",
      "latitude": "-24.89348000",
      "longitude": "113.65846000"
   },
   {
      "name": "South Fremantle",
      "countryCode": "AU",
      "stateCode": "WA",
      "latitude": "-32.06907000",
      "longitude": "115.75453000"
   },
   {
      "name": "South Guildford",
      "countryCode": "AU",
      "stateCode": "WA",
      "latitude": "-31.91220000",
      "longitude": "115.96825000"
   },
   {
      "name": "South Hedland",
      "countryCode": "AU",
      "stateCode": "WA",
      "latitude": "-20.40655000",
      "longitude": "118.60069000"
   },
   {
      "name": "South Kalgoorlie",
      "countryCode": "AU",
      "stateCode": "WA",
      "latitude": "-30.76507000",
      "longitude": "121.47334000"
   },
   {
      "name": "South Lake",
      "countryCode": "AU",
      "stateCode": "WA",
      "latitude": "-32.11125000",
      "longitude": "115.83873000"
   },
   {
      "name": "South Perth",
      "countryCode": "AU",
      "stateCode": "WA",
      "latitude": "-31.99884000",
      "longitude": "115.87222000"
   },
   {
      "name": "South Yunderup",
      "countryCode": "AU",
      "stateCode": "WA",
      "latitude": "-32.58510000",
      "longitude": "115.78015000"
   },
   {
      "name": "Southern River",
      "countryCode": "AU",
      "stateCode": "WA",
      "latitude": "-32.10658000",
      "longitude": "115.95896000"
   },
   {
      "name": "Spalding",
      "countryCode": "AU",
      "stateCode": "WA",
      "latitude": "-28.73525000",
      "longitude": "114.63651000"
   },
   {
      "name": "Spearwood",
      "countryCode": "AU",
      "stateCode": "WA",
      "latitude": "-32.10534000",
      "longitude": "115.77797000"
   },
   {
      "name": "Spencer Park",
      "countryCode": "AU",
      "stateCode": "WA",
      "latitude": "-35.00515000",
      "longitude": "117.90005000"
   },
   {
      "name": "St George Ranges",
      "countryCode": "AU",
      "stateCode": "WA",
      "latitude": "-18.98204000",
      "longitude": "125.00873000"
   },
   {
      "name": "St James",
      "countryCode": "AU",
      "stateCode": "WA",
      "latitude": "-32.00004000",
      "longitude": "115.90980000"
   },
   {
      "name": "Stirling",
      "countryCode": "AU",
      "stateCode": "WA",
      "latitude": "-31.87940000",
      "longitude": "115.80929000"
   },
   {
      "name": "Stoneville",
      "countryCode": "AU",
      "stateCode": "WA",
      "latitude": "-30.86667000",
      "longitude": "121.76667000"
   },
   {
      "name": "Strathalbyn",
      "countryCode": "AU",
      "stateCode": "WA",
      "latitude": "-28.75168000",
      "longitude": "114.64576000"
   },
   {
      "name": "Stratton",
      "countryCode": "AU",
      "stateCode": "WA",
      "latitude": "-31.86828000",
      "longitude": "116.04066000"
   },
   {
      "name": "Subiaco",
      "countryCode": "AU",
      "stateCode": "WA",
      "latitude": "-31.95964000",
      "longitude": "115.81564000"
   },
   {
      "name": "Success",
      "countryCode": "AU",
      "stateCode": "WA",
      "latitude": "-32.14281000",
      "longitude": "115.84999000"
   },
   {
      "name": "Sunset Beach",
      "countryCode": "AU",
      "stateCode": "WA",
      "latitude": "-28.71907000",
      "longitude": "114.62297000"
   },
   {
      "name": "Swan",
      "countryCode": "AU",
      "stateCode": "WA",
      "latitude": "-31.77039000",
      "longitude": "116.08746000"
   },
   {
      "name": "Swan View",
      "countryCode": "AU",
      "stateCode": "WA",
      "latitude": "-31.88333000",
      "longitude": "116.05000000"
   },
   {
      "name": "Swanbourne",
      "countryCode": "AU",
      "stateCode": "WA",
      "latitude": "-31.96878000",
      "longitude": "115.76730000"
   },
   {
      "name": "Tammin",
      "countryCode": "AU",
      "stateCode": "WA",
      "latitude": "-31.60512000",
      "longitude": "117.48306000"
   },
   {
      "name": "Tapping",
      "countryCode": "AU",
      "stateCode": "WA",
      "latitude": "-31.71947000",
      "longitude": "115.79559000"
   },
   {
      "name": "Tarcoola Beach",
      "countryCode": "AU",
      "stateCode": "WA",
      "latitude": "-28.81001000",
      "longitude": "114.62236000"
   },
   {
      "name": "Telfer",
      "countryCode": "AU",
      "stateCode": "WA",
      "latitude": "-21.21169000",
      "longitude": "123.26175000"
   },
   {
      "name": "The Vines",
      "countryCode": "AU",
      "stateCode": "WA",
      "latitude": "-31.75492000",
      "longitude": "116.00238000"
   },
   {
      "name": "Thornlie",
      "countryCode": "AU",
      "stateCode": "WA",
      "latitude": "-32.06003000",
      "longitude": "115.95500000"
   },
   {
      "name": "Three Springs",
      "countryCode": "AU",
      "stateCode": "WA",
      "latitude": "-29.51386000",
      "longitude": "115.63158000"
   },
   {
      "name": "Tom Price",
      "countryCode": "AU",
      "stateCode": "WA",
      "latitude": "-22.69390000",
      "longitude": "117.79310000"
   },
   {
      "name": "Toodyay",
      "countryCode": "AU",
      "stateCode": "WA",
      "latitude": "-31.46991000",
      "longitude": "116.38804000"
   },
   {
      "name": "Trayning",
      "countryCode": "AU",
      "stateCode": "WA",
      "latitude": "-31.16681000",
      "longitude": "117.83812000"
   },
   {
      "name": "Trigg",
      "countryCode": "AU",
      "stateCode": "WA",
      "latitude": "-31.86939000",
      "longitude": "115.75710000"
   },
   {
      "name": "Tuart Hill",
      "countryCode": "AU",
      "stateCode": "WA",
      "latitude": "-31.89808000",
      "longitude": "115.83495000"
   },
   {
      "name": "Two Rocks",
      "countryCode": "AU",
      "stateCode": "WA",
      "latitude": "-31.49985000",
      "longitude": "115.58737000"
   },
   {
      "name": "Upper Gascoyne",
      "countryCode": "AU",
      "stateCode": "WA",
      "latitude": "-24.71935000",
      "longitude": "116.33876000"
   },
   {
      "name": "Usher",
      "countryCode": "AU",
      "stateCode": "WA",
      "latitude": "-33.37982000",
      "longitude": "115.62920000"
   },
   {
      "name": "Utakarra",
      "countryCode": "AU",
      "stateCode": "WA",
      "latitude": "-28.78333000",
      "longitude": "114.65000000"
   },
   {
      "name": "Vasse",
      "countryCode": "AU",
      "stateCode": "WA",
      "latitude": "-33.69337000",
      "longitude": "115.26780000"
   },
   {
      "name": "Victoria Park",
      "countryCode": "AU",
      "stateCode": "WA",
      "latitude": "-31.97651000",
      "longitude": "115.90592000"
   },
   {
      "name": "Victoria Plains",
      "countryCode": "AU",
      "stateCode": "WA",
      "latitude": "-31.01632000",
      "longitude": "116.28546000"
   },
   {
      "name": "Vincent",
      "countryCode": "AU",
      "stateCode": "WA",
      "latitude": "-31.93138000",
      "longitude": "115.85412000"
   },
   {
      "name": "Viveash",
      "countryCode": "AU",
      "stateCode": "WA",
      "latitude": "-31.87861000",
      "longitude": "115.99661000"
   },
   {
      "name": "Waggrakine",
      "countryCode": "AU",
      "stateCode": "WA",
      "latitude": "-28.71883000",
      "longitude": "114.63924000"
   },
   {
      "name": "Wagin",
      "countryCode": "AU",
      "stateCode": "WA",
      "latitude": "-33.27501000",
      "longitude": "117.38554000"
   },
   {
      "name": "Waikiki",
      "countryCode": "AU",
      "stateCode": "WA",
      "latitude": "-32.31606000",
      "longitude": "115.75460000"
   },
   {
      "name": "Wandering",
      "countryCode": "AU",
      "stateCode": "WA",
      "latitude": "-32.52589000",
      "longitude": "116.56668000"
   },
   {
      "name": "Wandi",
      "countryCode": "AU",
      "stateCode": "WA",
      "latitude": "-32.19430000",
      "longitude": "115.87630000"
   },
   {
      "name": "Wandina",
      "countryCode": "AU",
      "stateCode": "WA",
      "latitude": "-28.81938000",
      "longitude": "114.63464000"
   },
   {
      "name": "Wannanup",
      "countryCode": "AU",
      "stateCode": "WA",
      "latitude": "-32.59946000",
      "longitude": "115.64488000"
   },
   {
      "name": "Wanneroo",
      "countryCode": "AU",
      "stateCode": "WA",
      "latitude": "-31.65293000",
      "longitude": "115.72211000"
   },
   {
      "name": "Warnbro",
      "countryCode": "AU",
      "stateCode": "WA",
      "latitude": "-32.34017000",
      "longitude": "115.74730000"
   },
   {
      "name": "Waroona",
      "countryCode": "AU",
      "stateCode": "WA",
      "latitude": "-32.84916000",
      "longitude": "115.90429000"
   },
   {
      "name": "Warwick",
      "countryCode": "AU",
      "stateCode": "WA",
      "latitude": "-31.83974000",
      "longitude": "115.80855000"
   },
   {
      "name": "Waterford",
      "countryCode": "AU",
      "stateCode": "WA",
      "latitude": "-32.01574000",
      "longitude": "115.88662000"
   },
   {
      "name": "Watermans Bay",
      "countryCode": "AU",
      "stateCode": "WA",
      "latitude": "-31.84915000",
      "longitude": "115.75590000"
   },
   {
      "name": "Wattle Grove",
      "countryCode": "AU",
      "stateCode": "WA",
      "latitude": "-32.00672000",
      "longitude": "116.00046000"
   },
   {
      "name": "Wellard",
      "countryCode": "AU",
      "stateCode": "WA",
      "latitude": "-32.26667000",
      "longitude": "115.83333000"
   },
   {
      "name": "Wembley",
      "countryCode": "AU",
      "stateCode": "WA",
      "latitude": "-31.93308000",
      "longitude": "115.81783000"
   },
   {
      "name": "Wembley Downs",
      "countryCode": "AU",
      "stateCode": "WA",
      "latitude": "-31.91169000",
      "longitude": "115.77358000"
   },
   {
      "name": "West Arthur",
      "countryCode": "AU",
      "stateCode": "WA",
      "latitude": "-33.44057000",
      "longitude": "116.68597000"
   },
   {
      "name": "West Beach",
      "countryCode": "AU",
      "stateCode": "WA",
      "latitude": "-33.87464000",
      "longitude": "121.89013000"
   },
   {
      "name": "West Busselton",
      "countryCode": "AU",
      "stateCode": "WA",
      "latitude": "-33.65792000",
      "longitude": "115.32293000"
   },
   {
      "name": "West Lamington",
      "countryCode": "AU",
      "stateCode": "WA",
      "latitude": "-30.74707000",
      "longitude": "121.45248000"
   },
   {
      "name": "West Leederville",
      "countryCode": "AU",
      "stateCode": "WA",
      "latitude": "-31.94141000",
      "longitude": "115.83117000"
   },
   {
      "name": "West Perth",
      "countryCode": "AU",
      "stateCode": "WA",
      "latitude": "-31.94896000",
      "longitude": "115.84199000"
   },
   {
      "name": "Westminster",
      "countryCode": "AU",
      "stateCode": "WA",
      "latitude": "-31.86744000",
      "longitude": "115.83919000"
   },
   {
      "name": "Westonia",
      "countryCode": "AU",
      "stateCode": "WA",
      "latitude": "-30.88436000",
      "longitude": "118.72974000"
   },
   {
      "name": "White Gum Valley",
      "countryCode": "AU",
      "stateCode": "WA",
      "latitude": "-32.06031000",
      "longitude": "115.77058000"
   },
   {
      "name": "Wickepin",
      "countryCode": "AU",
      "stateCode": "WA",
      "latitude": "-32.82211000",
      "longitude": "117.63996000"
   },
   {
      "name": "Wickham",
      "countryCode": "AU",
      "stateCode": "WA",
      "latitude": "-20.67474000",
      "longitude": "117.13784000"
   },
   {
      "name": "Willagee",
      "countryCode": "AU",
      "stateCode": "WA",
      "latitude": "-32.05196000",
      "longitude": "115.80533000"
   },
   {
      "name": "Willetton",
      "countryCode": "AU",
      "stateCode": "WA",
      "latitude": "-32.05251000",
      "longitude": "115.88782000"
   },
   {
      "name": "Williams",
      "countryCode": "AU",
      "stateCode": "WA",
      "latitude": "-33.05217000",
      "longitude": "116.70943000"
   },
   {
      "name": "Wilson",
      "countryCode": "AU",
      "stateCode": "WA",
      "latitude": "-32.02058000",
      "longitude": "115.91181000"
   },
   {
      "name": "Wiluna",
      "countryCode": "AU",
      "stateCode": "WA",
      "latitude": "-25.36630000",
      "longitude": "121.93243000"
   },
   {
      "name": "Winthrop",
      "countryCode": "AU",
      "stateCode": "WA",
      "latitude": "-32.05216000",
      "longitude": "115.82972000"
   },
   {
      "name": "Withers",
      "countryCode": "AU",
      "stateCode": "WA",
      "latitude": "-33.36807000",
      "longitude": "115.63050000"
   },
   {
      "name": "Wongan-Ballidu",
      "countryCode": "AU",
      "stateCode": "WA",
      "latitude": "-30.73138000",
      "longitude": "116.84854000"
   },
   {
      "name": "Wonthella",
      "countryCode": "AU",
      "stateCode": "WA",
      "latitude": "-28.76689000",
      "longitude": "114.63338000"
   },
   {
      "name": "Woodanilling",
      "countryCode": "AU",
      "stateCode": "WA",
      "latitude": "-33.51937000",
      "longitude": "117.33580000"
   },
   {
      "name": "Woodbridge",
      "countryCode": "AU",
      "stateCode": "WA",
      "latitude": "-31.88695000",
      "longitude": "115.99196000"
   },
   {
      "name": "Woodridge",
      "countryCode": "AU",
      "stateCode": "WA",
      "latitude": "-31.33143680",
      "longitude": "115.58252470"
   },
   {
      "name": "Woodvale",
      "countryCode": "AU",
      "stateCode": "WA",
      "latitude": "-31.78928000",
      "longitude": "115.79676000"
   },
   {
      "name": "Wooroloo",
      "countryCode": "AU",
      "stateCode": "WA",
      "latitude": "-31.80380000",
      "longitude": "116.31311000"
   },
   {
      "name": "Woorree",
      "countryCode": "AU",
      "stateCode": "WA",
      "latitude": "-28.76677000",
      "longitude": "114.65806000"
   },
   {
      "name": "Wundowie",
      "countryCode": "AU",
      "stateCode": "WA",
      "latitude": "-31.76163000",
      "longitude": "116.37990000"
   },
   {
      "name": "Wyalkatchem",
      "countryCode": "AU",
      "stateCode": "WA",
      "latitude": "-31.19528000",
      "longitude": "117.44682000"
   },
   {
      "name": "Wyndham-East Kimberley",
      "countryCode": "AU",
      "stateCode": "WA",
      "latitude": "-15.51291000",
      "longitude": "126.58779000"
   },
   {
      "name": "Yakamia",
      "countryCode": "AU",
      "stateCode": "WA",
      "latitude": "-35.00392000",
      "longitude": "117.87828000"
   },
   {
      "name": "Yalgoo",
      "countryCode": "AU",
      "stateCode": "WA",
      "latitude": "-28.48787000",
      "longitude": "117.15818000"
   },
   {
      "name": "Yallingup",
      "countryCode": "AU",
      "stateCode": "WA",
      "latitude": "-33.64592000",
      "longitude": "115.03514000"
   },
   {
      "name": "Yalyalup",
      "countryCode": "AU",
      "stateCode": "WA",
      "latitude": "-33.67496000",
      "longitude": "115.41449000"
   },
   {
      "name": "Yanchep",
      "countryCode": "AU",
      "stateCode": "WA",
      "latitude": "-31.54678000",
      "longitude": "115.63171000"
   },
   {
      "name": "Yangebup",
      "countryCode": "AU",
      "stateCode": "WA",
      "latitude": "-32.12065000",
      "longitude": "115.81623000"
   },
   {
      "name": "Yilgarn",
      "countryCode": "AU",
      "stateCode": "WA",
      "latitude": "-30.90938000",
      "longitude": "119.25881000"
   },
   {
      "name": "Yokine",
      "countryCode": "AU",
      "stateCode": "WA",
      "latitude": "-31.90113000",
      "longitude": "115.85319000"
   },
   {
      "name": "York",
      "countryCode": "AU",
      "stateCode": "WA",
      "latitude": "-31.88809000",
      "longitude": "116.76780000"
   }
]