[
   {
      "name": "Antiguo Cuscatlán",
      "countryCode": "SV",
      "stateCode": "LI",
      "latitude": "13.66492000",
      "longitude": "-89.25319000"
   },
   {
      "name": "Ciudad Arce",
      "countryCode": "SV",
      "stateCode": "LI",
      "latitude": "13.84028000",
      "longitude": "-89.44722000"
   },
   {
      "name": "La Libertad",
      "countryCode": "SV",
      "stateCode": "LI",
      "latitude": "13.48833000",
      "longitude": "-89.32222000"
   },
   {
      "name": "Nuevo Cuscatlán",
      "countryCode": "SV",
      "stateCode": "LI",
      "latitude": "13.64861000",
      "longitude": "-89.26528000"
   },
   {
      "name": "Quezaltepeque",
      "countryCode": "SV",
      "stateCode": "LI",
      "latitude": "13.83124000",
      "longitude": "-89.27221000"
   },
   {
      "name": "San Juan Opico",
      "countryCode": "SV",
      "stateCode": "LI",
      "latitude": "13.87611000",
      "longitude": "-89.35972000"
   },
   {
      "name": "San Pablo Tacachico",
      "countryCode": "SV",
      "stateCode": "LI",
      "latitude": "13.97556000",
      "longitude": "-89.34000000"
   },
   {
      "name": "Santa Tecla",
      "countryCode": "SV",
      "stateCode": "LI",
      "latitude": "13.67694000",
      "longitude": "-89.27972000"
   },
   {
      "name": "Zaragoza",
      "countryCode": "SV",
      "stateCode": "LI",
      "latitude": "13.58944000",
      "longitude": "-89.28889000"
   }
]