[
   {
      "name": "Ajax",
      "countryCode": "CA",
      "stateCode": "ON",
      "latitude": "43.85012000",
      "longitude": "-79.03288000"
   },
   {
      "name": "Algoma",
      "countryCode": "CA",
      "stateCode": "ON",
      "latitude": "47.88364000",
      "longitude": "-84.42406000"
   },
   {
      "name": "Alliston",
      "countryCode": "CA",
      "stateCode": "ON",
      "latitude": "44.15011000",
      "longitude": "-79.86635000"
   },
   {
      "name": "Amherstburg",
      "countryCode": "CA",
      "stateCode": "ON",
      "latitude": "42.10009000",
      "longitude": "-83.09985000"
   },
   {
      "name": "Amigo Beach",
      "countryCode": "CA",
      "stateCode": "ON",
      "latitude": "44.70011000",
      "longitude": "-79.39963000"
   },
   {
      "name": "Ancaster",
      "countryCode": "CA",
      "stateCode": "ON",
      "latitude": "43.21806000",
      "longitude": "-79.98716000"
   },
   {
      "name": "Angus",
      "countryCode": "CA",
      "stateCode": "ON",
      "latitude": "44.31681000",
      "longitude": "-79.88295000"
   },
   {
      "name": "Arnprior",
      "countryCode": "CA",
      "stateCode": "ON",
      "latitude": "45.43341000",
      "longitude": "-76.34939000"
   },
   {
      "name": "Atikokan",
      "countryCode": "CA",
      "stateCode": "ON",
      "latitude": "48.75667000",
      "longitude": "-91.62409000"
   },
   {
      "name": "Attawapiskat",
      "countryCode": "CA",
      "stateCode": "ON",
      "latitude": "52.92774000",
      "longitude": "-82.41669000"
   },
   {
      "name": "Aurora",
      "countryCode": "CA",
      "stateCode": "ON",
      "latitude": "44.00011000",
      "longitude": "-79.46632000"
   },
   {
      "name": "Aylmer",
      "countryCode": "CA",
      "stateCode": "ON",
      "latitude": "42.76679000",
      "longitude": "-80.98302000"
   },
   {
      "name": "Azilda",
      "countryCode": "CA",
      "stateCode": "ON",
      "latitude": "46.55008000",
      "longitude": "-81.09975000"
   },
   {
      "name": "Ballantrae",
      "countryCode": "CA",
      "stateCode": "ON",
      "latitude": "44.03342000",
      "longitude": "-79.29960000"
   },
   {
      "name": "Bancroft",
      "countryCode": "CA",
      "stateCode": "ON",
      "latitude": "45.05752000",
      "longitude": "-77.85702000"
   },
   {
      "name": "Barrie",
      "countryCode": "CA",
      "stateCode": "ON",
      "latitude": "44.40011000",
      "longitude": "-79.66634000"
   },
   {
      "name": "Bath",
      "countryCode": "CA",
      "stateCode": "ON",
      "latitude": "44.18342000",
      "longitude": "-76.78273000"
   },
   {
      "name": "Belleville",
      "countryCode": "CA",
      "stateCode": "ON",
      "latitude": "44.16682000",
      "longitude": "-77.38277000"
   },
   {
      "name": "Bells Corners",
      "countryCode": "CA",
      "stateCode": "ON",
      "latitude": "45.31588000",
      "longitude": "-75.83012000"
   },
   {
      "name": "Belmont",
      "countryCode": "CA",
      "stateCode": "ON",
      "latitude": "42.88339000",
      "longitude": "-81.08303000"
   },
   {
      "name": "Binbrook",
      "countryCode": "CA",
      "stateCode": "ON",
      "latitude": "43.12135000",
      "longitude": "-79.81104000"
   },
   {
      "name": "Bluewater",
      "countryCode": "CA",
      "stateCode": "ON",
      "latitude": "43.46679000",
      "longitude": "-81.59977000"
   },
   {
      "name": "Bourget",
      "countryCode": "CA",
      "stateCode": "ON",
      "latitude": "45.43340000",
      "longitude": "-75.14930000"
   },
   {
      "name": "Bracebridge",
      "countryCode": "CA",
      "stateCode": "ON",
      "latitude": "45.03341000",
      "longitude": "-79.31633000"
   },
   {
      "name": "Brampton",
      "countryCode": "CA",
      "stateCode": "ON",
      "latitude": "43.68341000",
      "longitude": "-79.76633000"
   },
   {
      "name": "Brant",
      "countryCode": "CA",
      "stateCode": "ON",
      "latitude": "43.13340000",
      "longitude": "-80.34967000"
   },
   {
      "name": "Brantford",
      "countryCode": "CA",
      "stateCode": "ON",
      "latitude": "43.13340000",
      "longitude": "-80.26636000"
   },
   {
      "name": "Brockville",
      "countryCode": "CA",
      "stateCode": "ON",
      "latitude": "44.59132000",
      "longitude": "-75.68705000"
   },
   {
      "name": "Brussels",
      "countryCode": "CA",
      "stateCode": "ON",
      "latitude": "43.73339000",
      "longitude": "-81.24975000"
   },
   {
      "name": "Burford",
      "countryCode": "CA",
      "stateCode": "ON",
      "latitude": "43.10292000",
      "longitude": "-80.42869000"
   },
   {
      "name": "Burlington",
      "countryCode": "CA",
      "stateCode": "ON",
      "latitude": "43.38621000",
      "longitude": "-79.83713000"
   },
   {
      "name": "Cambridge",
      "countryCode": "CA",
      "stateCode": "ON",
      "latitude": "43.36010000",
      "longitude": "-80.31269000"
   },
   {
      "name": "Camlachie",
      "countryCode": "CA",
      "stateCode": "ON",
      "latitude": "43.03596000",
      "longitude": "-82.16160000"
   },
   {
      "name": "Capreol",
      "countryCode": "CA",
      "stateCode": "ON",
      "latitude": "46.70626000",
      "longitude": "-80.92109000"
   },
   {
      "name": "Carleton Place",
      "countryCode": "CA",
      "stateCode": "ON",
      "latitude": "45.13341000",
      "longitude": "-76.14938000"
   },
   {
      "name": "Casselman",
      "countryCode": "CA",
      "stateCode": "ON",
      "latitude": "45.31680000",
      "longitude": "-75.08260000"
   },
   {
      "name": "Chatham",
      "countryCode": "CA",
      "stateCode": "ON",
      "latitude": "42.41224000",
      "longitude": "-82.18494000"
   },
   {
      "name": "Chatham-Kent",
      "countryCode": "CA",
      "stateCode": "ON",
      "latitude": "42.40009000",
      "longitude": "-82.18310000"
   },
   {
      "name": "Clarence-Rockland",
      "countryCode": "CA",
      "stateCode": "ON",
      "latitude": "45.55010000",
      "longitude": "-75.29101000"
   },
   {
      "name": "Cobourg",
      "countryCode": "CA",
      "stateCode": "ON",
      "latitude": "43.95977000",
      "longitude": "-78.16515000"
   },
   {
      "name": "Cochrane District",
      "countryCode": "CA",
      "stateCode": "ON",
      "latitude": "50.00022000",
      "longitude": "-82.99979000"
   },
   {
      "name": "Collingwood",
      "countryCode": "CA",
      "stateCode": "ON",
      "latitude": "44.48340000",
      "longitude": "-80.21638000"
   },
   {
      "name": "Concord",
      "countryCode": "CA",
      "stateCode": "ON",
      "latitude": "43.80011000",
      "longitude": "-79.48291000"
   },
   {
      "name": "Constance Bay",
      "countryCode": "CA",
      "stateCode": "ON",
      "latitude": "45.50011000",
      "longitude": "-76.08267000"
   },
   {
      "name": "Cookstown",
      "countryCode": "CA",
      "stateCode": "ON",
      "latitude": "44.18341000",
      "longitude": "-79.69964000"
   },
   {
      "name": "Cornwall",
      "countryCode": "CA",
      "stateCode": "ON",
      "latitude": "45.01809000",
      "longitude": "-74.72815000"
   },
   {
      "name": "Corunna",
      "countryCode": "CA",
      "stateCode": "ON",
      "latitude": "42.88338000",
      "longitude": "-82.43313000"
   },
   {
      "name": "Deep River",
      "countryCode": "CA",
      "stateCode": "ON",
      "latitude": "46.10012000",
      "longitude": "-77.49949000"
   },
   {
      "name": "Delaware",
      "countryCode": "CA",
      "stateCode": "ON",
      "latitude": "42.91679000",
      "longitude": "-81.41646000"
   },
   {
      "name": "Deseronto",
      "countryCode": "CA",
      "stateCode": "ON",
      "latitude": "44.20012000",
      "longitude": "-77.04944000"
   },
   {
      "name": "Dorchester",
      "countryCode": "CA",
      "stateCode": "ON",
      "latitude": "42.98339000",
      "longitude": "-81.06643000"
   },
   {
      "name": "Dowling",
      "countryCode": "CA",
      "stateCode": "ON",
      "latitude": "46.59111000",
      "longitude": "-81.33917000"
   },
   {
      "name": "Dryden",
      "countryCode": "CA",
      "stateCode": "ON",
      "latitude": "49.78334000",
      "longitude": "-92.75032000"
   },
   {
      "name": "Durham",
      "countryCode": "CA",
      "stateCode": "ON",
      "latitude": "44.20012000",
      "longitude": "-78.99957000"
   },
   {
      "name": "Ear Falls",
      "countryCode": "CA",
      "stateCode": "ON",
      "latitude": "50.63955000",
      "longitude": "-93.23526000"
   },
   {
      "name": "East Gwillimbury",
      "countryCode": "CA",
      "stateCode": "ON",
      "latitude": "44.10087000",
      "longitude": "-79.43785000"
   },
   {
      "name": "East York",
      "countryCode": "CA",
      "stateCode": "ON",
      "latitude": "43.69053000",
      "longitude": "-79.32794000"
   },
   {
      "name": "Elliot Lake",
      "countryCode": "CA",
      "stateCode": "ON",
      "latitude": "46.38336000",
      "longitude": "-82.63315000"
   },
   {
      "name": "Elmvale",
      "countryCode": "CA",
      "stateCode": "ON",
      "latitude": "44.58340000",
      "longitude": "-79.86636000"
   },
   {
      "name": "Englehart",
      "countryCode": "CA",
      "stateCode": "ON",
      "latitude": "47.81686000",
      "longitude": "-79.86640000"
   },
   {
      "name": "Espanola",
      "countryCode": "CA",
      "stateCode": "ON",
      "latitude": "46.25837000",
      "longitude": "-81.76649000"
   },
   {
      "name": "Essex",
      "countryCode": "CA",
      "stateCode": "ON",
      "latitude": "42.17509000",
      "longitude": "-82.82483000"
   },
   {
      "name": "Etobicoke",
      "countryCode": "CA",
      "stateCode": "ON",
      "latitude": "43.65421000",
      "longitude": "-79.56711000"
   },
   {
      "name": "Fort Erie",
      "countryCode": "CA",
      "stateCode": "ON",
      "latitude": "42.90012000",
      "longitude": "-78.93286000"
   },
   {
      "name": "Fort Frances",
      "countryCode": "CA",
      "stateCode": "ON",
      "latitude": "48.61667000",
      "longitude": "-93.40030000"
   },
   {
      "name": "Gananoque",
      "countryCode": "CA",
      "stateCode": "ON",
      "latitude": "44.33342000",
      "longitude": "-76.16607000"
   },
   {
      "name": "Glencoe",
      "countryCode": "CA",
      "stateCode": "ON",
      "latitude": "42.75009000",
      "longitude": "-81.71648000"
   },
   {
      "name": "Goderich",
      "countryCode": "CA",
      "stateCode": "ON",
      "latitude": "43.74171000",
      "longitude": "-81.71339000"
   },
   {
      "name": "Golden",
      "countryCode": "CA",
      "stateCode": "ON",
      "latitude": "51.05917000",
      "longitude": "-93.73568000"
   },
   {
      "name": "Gravenhurst",
      "countryCode": "CA",
      "stateCode": "ON",
      "latitude": "44.91681000",
      "longitude": "-79.36633000"
   },
   {
      "name": "Greater Napanee",
      "countryCode": "CA",
      "stateCode": "ON",
      "latitude": "44.25012000",
      "longitude": "-76.94944000"
   },
   {
      "name": "Greater Sudbury",
      "countryCode": "CA",
      "stateCode": "ON",
      "latitude": "46.49000000",
      "longitude": "-80.99001000"
   },
   {
      "name": "Greenstone",
      "countryCode": "CA",
      "stateCode": "ON",
      "latitude": "49.73343000",
      "longitude": "-87.16668000"
   },
   {
      "name": "Guelph",
      "countryCode": "CA",
      "stateCode": "ON",
      "latitude": "43.54594000",
      "longitude": "-80.25599000"
   },
   {
      "name": "Haldimand County",
      "countryCode": "CA",
      "stateCode": "ON",
      "latitude": "42.98341000",
      "longitude": "-79.86633000"
   },
   {
      "name": "Haliburton Village",
      "countryCode": "CA",
      "stateCode": "ON",
      "latitude": "45.05154000",
      "longitude": "-78.52245000"
   },
   {
      "name": "Halton",
      "countryCode": "CA",
      "stateCode": "ON",
      "latitude": "43.50011000",
      "longitude": "-79.88294000"
   },
   {
      "name": "Hamilton",
      "countryCode": "CA",
      "stateCode": "ON",
      "latitude": "43.25011000",
      "longitude": "-79.84963000"
   },
   {
      "name": "Hanover",
      "countryCode": "CA",
      "stateCode": "ON",
      "latitude": "44.15009000",
      "longitude": "-81.03303000"
   },
   {
      "name": "Harriston",
      "countryCode": "CA",
      "stateCode": "ON",
      "latitude": "43.90009000",
      "longitude": "-80.88302000"
   },
   {
      "name": "Hawkesbury",
      "countryCode": "CA",
      "stateCode": "ON",
      "latitude": "45.60009000",
      "longitude": "-74.61595000"
   },
   {
      "name": "Hearst",
      "countryCode": "CA",
      "stateCode": "ON",
      "latitude": "49.68351000",
      "longitude": "-83.66654000"
   },
   {
      "name": "Hornepayne",
      "countryCode": "CA",
      "stateCode": "ON",
      "latitude": "49.21451000",
      "longitude": "-84.77617000"
   },
   {
      "name": "Huntsville",
      "countryCode": "CA",
      "stateCode": "ON",
      "latitude": "45.33341000",
      "longitude": "-79.21632000"
   },
   {
      "name": "Huron East",
      "countryCode": "CA",
      "stateCode": "ON",
      "latitude": "43.61679000",
      "longitude": "-81.29975000"
   },
   {
      "name": "Ingersoll",
      "countryCode": "CA",
      "stateCode": "ON",
      "latitude": "43.03339000",
      "longitude": "-80.88302000"
   },
   {
      "name": "Innisfil",
      "countryCode": "CA",
      "stateCode": "ON",
      "latitude": "44.30011000",
      "longitude": "-79.64964000"
   },
   {
      "name": "Iroquois Falls",
      "countryCode": "CA",
      "stateCode": "ON",
      "latitude": "48.76688000",
      "longitude": "-80.68307000"
   },
   {
      "name": "Jarvis",
      "countryCode": "CA",
      "stateCode": "ON",
      "latitude": "42.88341000",
      "longitude": "-80.09965000"
   },
   {
      "name": "Kanata",
      "countryCode": "CA",
      "stateCode": "ON",
      "latitude": "45.30010000",
      "longitude": "-75.91606000"
   },
   {
      "name": "Kapuskasing",
      "countryCode": "CA",
      "stateCode": "ON",
      "latitude": "49.41694000",
      "longitude": "-82.43308000"
   },
   {
      "name": "Kawartha Lakes",
      "countryCode": "CA",
      "stateCode": "ON",
      "latitude": "44.58342000",
      "longitude": "-78.83288000"
   },
   {
      "name": "Kenora",
      "countryCode": "CA",
      "stateCode": "ON",
      "latitude": "49.76741000",
      "longitude": "-94.48985000"
   },
   {
      "name": "Keswick",
      "countryCode": "CA",
      "stateCode": "ON",
      "latitude": "44.25011000",
      "longitude": "-79.46632000"
   },
   {
      "name": "Kincardine",
      "countryCode": "CA",
      "stateCode": "ON",
      "latitude": "44.18339000",
      "longitude": "-81.63307000"
   },
   {
      "name": "King",
      "countryCode": "CA",
      "stateCode": "ON",
      "latitude": "43.96514000",
      "longitude": "-79.59011000"
   },
   {
      "name": "Kingston",
      "countryCode": "CA",
      "stateCode": "ON",
      "latitude": "44.22976000",
      "longitude": "-76.48098000"
   },
   {
      "name": "Kirkland Lake",
      "countryCode": "CA",
      "stateCode": "ON",
      "latitude": "48.14461000",
      "longitude": "-80.03767000"
   },
   {
      "name": "Kitchener",
      "countryCode": "CA",
      "stateCode": "ON",
      "latitude": "43.42537000",
      "longitude": "-80.51120000"
   },
   {
      "name": "L'Orignal",
      "countryCode": "CA",
      "stateCode": "ON",
      "latitude": "45.61980000",
      "longitude": "-74.69150000"
   },
   {
      "name": "Lakefield",
      "countryCode": "CA",
      "stateCode": "ON",
      "latitude": "44.43342000",
      "longitude": "-78.26623000"
   },
   {
      "name": "Lambton Shores",
      "countryCode": "CA",
      "stateCode": "ON",
      "latitude": "43.16678000",
      "longitude": "-81.93309000"
   },
   {
      "name": "Lappe",
      "countryCode": "CA",
      "stateCode": "ON",
      "latitude": "48.56680000",
      "longitude": "-89.35013000"
   },
   {
      "name": "Leamington",
      "countryCode": "CA",
      "stateCode": "ON",
      "latitude": "42.05009000",
      "longitude": "-82.59981000"
   },
   {
      "name": "Limoges",
      "countryCode": "CA",
      "stateCode": "ON",
      "latitude": "45.33340000",
      "longitude": "-75.24931000"
   },
   {
      "name": "Lindsay",
      "countryCode": "CA",
      "stateCode": "ON",
      "latitude": "44.35012000",
      "longitude": "-78.73286000"
   },
   {
      "name": "Listowel",
      "countryCode": "CA",
      "stateCode": "ON",
      "latitude": "43.73340000",
      "longitude": "-80.94973000"
   },
   {
      "name": "Little Current",
      "countryCode": "CA",
      "stateCode": "ON",
      "latitude": "45.97927000",
      "longitude": "-81.92480000"
   },
   {
      "name": "Lively",
      "countryCode": "CA",
      "stateCode": "ON",
      "latitude": "46.43338000",
      "longitude": "-81.14975000"
   },
   {
      "name": "London",
      "countryCode": "CA",
      "stateCode": "ON",
      "latitude": "42.98339000",
      "longitude": "-81.23304000"
   },
   {
      "name": "Lucan",
      "countryCode": "CA",
      "stateCode": "ON",
      "latitude": "43.18339000",
      "longitude": "-81.39976000"
   },
   {
      "name": "Madoc",
      "countryCode": "CA",
      "stateCode": "ON",
      "latitude": "44.50842000",
      "longitude": "-77.47448000"
   },
   {
      "name": "Manitoulin District",
      "countryCode": "CA",
      "stateCode": "ON",
      "latitude": "45.75007000",
      "longitude": "-82.49985000"
   },
   {
      "name": "Manitouwadge",
      "countryCode": "CA",
      "stateCode": "ON",
      "latitude": "49.12152000",
      "longitude": "-85.84030000"
   },
   {
      "name": "Marathon",
      "countryCode": "CA",
      "stateCode": "ON",
      "latitude": "48.75010000",
      "longitude": "-86.43322000"
   },
   {
      "name": "Markdale",
      "countryCode": "CA",
      "stateCode": "ON",
      "latitude": "44.31680000",
      "longitude": "-80.64971000"
   },
   {
      "name": "Markham",
      "countryCode": "CA",
      "stateCode": "ON",
      "latitude": "43.86682000",
      "longitude": "-79.26630000"
   },
   {
      "name": "Mattawa",
      "countryCode": "CA",
      "stateCode": "ON",
      "latitude": "46.31681000",
      "longitude": "-78.69957000"
   },
   {
      "name": "Meaford",
      "countryCode": "CA",
      "stateCode": "ON",
      "latitude": "44.60725000",
      "longitude": "-80.61081000"
   },
   {
      "name": "Metcalfe",
      "countryCode": "CA",
      "stateCode": "ON",
      "latitude": "45.23340000",
      "longitude": "-75.46603000"
   },
   {
      "name": "Midland",
      "countryCode": "CA",
      "stateCode": "ON",
      "latitude": "44.75010000",
      "longitude": "-79.88296000"
   },
   {
      "name": "Mildmay",
      "countryCode": "CA",
      "stateCode": "ON",
      "latitude": "44.05009000",
      "longitude": "-81.11644000"
   },
   {
      "name": "Millbrook",
      "countryCode": "CA",
      "stateCode": "ON",
      "latitude": "44.15012000",
      "longitude": "-78.44954000"
   },
   {
      "name": "Milton",
      "countryCode": "CA",
      "stateCode": "ON",
      "latitude": "43.51681000",
      "longitude": "-79.88294000"
   },
   {
      "name": "Mississauga",
      "countryCode": "CA",
      "stateCode": "ON",
      "latitude": "43.57890000",
      "longitude": "-79.65830000"
   },
   {
      "name": "Mississauga Beach",
      "countryCode": "CA",
      "stateCode": "ON",
      "latitude": "43.26682000",
      "longitude": "-79.08287000"
   },
   {
      "name": "Moose Factory",
      "countryCode": "CA",
      "stateCode": "ON",
      "latitude": "51.26689000",
      "longitude": "-80.61624000"
   },
   {
      "name": "Moosonee",
      "countryCode": "CA",
      "stateCode": "ON",
      "latitude": "51.27931000",
      "longitude": "-80.63450000"
   },
   {
      "name": "Morrisburg",
      "countryCode": "CA",
      "stateCode": "ON",
      "latitude": "44.90010000",
      "longitude": "-75.18261000"
   },
   {
      "name": "Mount Albert",
      "countryCode": "CA",
      "stateCode": "ON",
      "latitude": "44.13341000",
      "longitude": "-79.31630000"
   },
   {
      "name": "Mount Brydges",
      "countryCode": "CA",
      "stateCode": "ON",
      "latitude": "42.90009000",
      "longitude": "-81.48306000"
   },
   {
      "name": "Napanee",
      "countryCode": "CA",
      "stateCode": "ON",
      "latitude": "44.25012000",
      "longitude": "-76.94944000"
   },
   {
      "name": "Napanee Downtown",
      "countryCode": "CA",
      "stateCode": "ON",
      "latitude": "44.24832000",
      "longitude": "-76.95069000"
   },
   {
      "name": "Neebing",
      "countryCode": "CA",
      "stateCode": "ON",
      "latitude": "48.16680000",
      "longitude": "-89.41683000"
   },
   {
      "name": "Nepean",
      "countryCode": "CA",
      "stateCode": "ON",
      "latitude": "45.35215000",
      "longitude": "-75.73975000"
   },
   {
      "name": "New Hamburg",
      "countryCode": "CA",
      "stateCode": "ON",
      "latitude": "43.38339000",
      "longitude": "-80.69970000"
   },
   {
      "name": "Newmarket",
      "countryCode": "CA",
      "stateCode": "ON",
      "latitude": "44.05011000",
      "longitude": "-79.46631000"
   },
   {
      "name": "Niagara Falls",
      "countryCode": "CA",
      "stateCode": "ON",
      "latitude": "43.10012000",
      "longitude": "-79.06627000"
   },
   {
      "name": "Nipissing District",
      "countryCode": "CA",
      "stateCode": "ON",
      "latitude": "46.00010000",
      "longitude": "-78.99959000"
   },
   {
      "name": "Norfolk County",
      "countryCode": "CA",
      "stateCode": "ON",
      "latitude": "42.83340000",
      "longitude": "-80.38297000"
   },
   {
      "name": "North Bay",
      "countryCode": "CA",
      "stateCode": "ON",
      "latitude": "46.31680000",
      "longitude": "-79.46633000"
   },
   {
      "name": "North Perth",
      "countryCode": "CA",
      "stateCode": "ON",
      "latitude": "43.72510000",
      "longitude": "-80.96723000"
   },
   {
      "name": "North York",
      "countryCode": "CA",
      "stateCode": "ON",
      "latitude": "43.76681000",
      "longitude": "-79.41630000"
   },
   {
      "name": "Norwood",
      "countryCode": "CA",
      "stateCode": "ON",
      "latitude": "44.38342000",
      "longitude": "-77.98281000"
   },
   {
      "name": "Oakville",
      "countryCode": "CA",
      "stateCode": "ON",
      "latitude": "43.45011000",
      "longitude": "-79.68292000"
   },
   {
      "name": "Omemee",
      "countryCode": "CA",
      "stateCode": "ON",
      "latitude": "44.29897000",
      "longitude": "-78.55989000"
   },
   {
      "name": "Orangeville",
      "countryCode": "CA",
      "stateCode": "ON",
      "latitude": "43.91680000",
      "longitude": "-80.09967000"
   },
   {
      "name": "Orillia",
      "countryCode": "CA",
      "stateCode": "ON",
      "latitude": "44.60868000",
      "longitude": "-79.42068000"
   },
   {
      "name": "Osgoode",
      "countryCode": "CA",
      "stateCode": "ON",
      "latitude": "45.14887000",
      "longitude": "-75.59778000"
   },
   {
      "name": "Oshawa",
      "countryCode": "CA",
      "stateCode": "ON",
      "latitude": "43.90012000",
      "longitude": "-78.84957000"
   },
   {
      "name": "Ottawa",
      "countryCode": "CA",
      "stateCode": "ON",
      "latitude": "45.41117000",
      "longitude": "-75.69812000"
   },
   {
      "name": "Owen Sound",
      "countryCode": "CA",
      "stateCode": "ON",
      "latitude": "44.56717000",
      "longitude": "-80.94349000"
   },
   {
      "name": "Paisley",
      "countryCode": "CA",
      "stateCode": "ON",
      "latitude": "44.30641000",
      "longitude": "-81.27265000"
   },
   {
      "name": "Paris",
      "countryCode": "CA",
      "stateCode": "ON",
      "latitude": "43.20000000",
      "longitude": "-80.38333000"
   },
   {
      "name": "Parkhill",
      "countryCode": "CA",
      "stateCode": "ON",
      "latitude": "43.15993000",
      "longitude": "-81.68464000"
   },
   {
      "name": "Parry Sound",
      "countryCode": "CA",
      "stateCode": "ON",
      "latitude": "45.34732000",
      "longitude": "-80.03527000"
   },
   {
      "name": "Parry Sound District",
      "countryCode": "CA",
      "stateCode": "ON",
      "latitude": "45.75011000",
      "longitude": "-79.83297000"
   },
   {
      "name": "Peel",
      "countryCode": "CA",
      "stateCode": "ON",
      "latitude": "43.75011000",
      "longitude": "-79.78293000"
   },
   {
      "name": "Pembroke",
      "countryCode": "CA",
      "stateCode": "ON",
      "latitude": "45.81681000",
      "longitude": "-77.11616000"
   },
   {
      "name": "Perth",
      "countryCode": "CA",
      "stateCode": "ON",
      "latitude": "44.90011000",
      "longitude": "-76.24939000"
   },
   {
      "name": "Petawawa",
      "countryCode": "CA",
      "stateCode": "ON",
      "latitude": "45.89452000",
      "longitude": "-77.28007000"
   },
   {
      "name": "Peterborough",
      "countryCode": "CA",
      "stateCode": "ON",
      "latitude": "44.30012000",
      "longitude": "-78.31623000"
   },
   {
      "name": "Petrolia",
      "countryCode": "CA",
      "stateCode": "ON",
      "latitude": "42.86678000",
      "longitude": "-82.14981000"
   },
   {
      "name": "Pickering",
      "countryCode": "CA",
      "stateCode": "ON",
      "latitude": "43.90012000",
      "longitude": "-79.13289000"
   },
   {
      "name": "Picton",
      "countryCode": "CA",
      "stateCode": "ON",
      "latitude": "44.00012000",
      "longitude": "-77.13275000"
   },
   {
      "name": "Plantagenet",
      "countryCode": "CA",
      "stateCode": "ON",
      "latitude": "45.53260000",
      "longitude": "-74.99369000"
   },
   {
      "name": "Plattsville",
      "countryCode": "CA",
      "stateCode": "ON",
      "latitude": "43.30010000",
      "longitude": "-80.61639000"
   },
   {
      "name": "Port Colborne",
      "countryCode": "CA",
      "stateCode": "ON",
      "latitude": "42.90012000",
      "longitude": "-79.23288000"
   },
   {
      "name": "Port Hope",
      "countryCode": "CA",
      "stateCode": "ON",
      "latitude": "44.01682000",
      "longitude": "-78.39953000"
   },
   {
      "name": "Port Rowan",
      "countryCode": "CA",
      "stateCode": "ON",
      "latitude": "42.61680000",
      "longitude": "-80.46638000"
   },
   {
      "name": "Port Stanley",
      "countryCode": "CA",
      "stateCode": "ON",
      "latitude": "42.66679000",
      "longitude": "-81.21644000"
   },
   {
      "name": "Powassan",
      "countryCode": "CA",
      "stateCode": "ON",
      "latitude": "46.03340000",
      "longitude": "-79.34961000"
   },
   {
      "name": "Prescott",
      "countryCode": "CA",
      "stateCode": "ON",
      "latitude": "44.71681000",
      "longitude": "-75.51604000"
   },
   {
      "name": "Prince Edward",
      "countryCode": "CA",
      "stateCode": "ON",
      "latitude": "44.00012000",
      "longitude": "-77.24946000"
   },
   {
      "name": "Queenswood Heights",
      "countryCode": "CA",
      "stateCode": "ON",
      "latitude": "45.47083000",
      "longitude": "-75.50556000"
   },
   {
      "name": "Quinte West",
      "countryCode": "CA",
      "stateCode": "ON",
      "latitude": "44.18342000",
      "longitude": "-77.56618000"
   },
   {
      "name": "Rainy River District",
      "countryCode": "CA",
      "stateCode": "ON",
      "latitude": "48.49981000",
      "longitude": "-92.50031000"
   },
   {
      "name": "Rayside-Balfour",
      "countryCode": "CA",
      "stateCode": "ON",
      "latitude": "46.60873000",
      "longitude": "-81.20763000"
   },
   {
      "name": "Red Lake",
      "countryCode": "CA",
      "stateCode": "ON",
      "latitude": "51.01678000",
      "longitude": "-93.82736000"
   },
   {
      "name": "Regional Municipality of Waterloo",
      "countryCode": "CA",
      "stateCode": "ON",
      "latitude": "43.50010000",
      "longitude": "-80.49969000"
   },
   {
      "name": "Renfrew",
      "countryCode": "CA",
      "stateCode": "ON",
      "latitude": "45.46681000",
      "longitude": "-76.68272000"
   },
   {
      "name": "Richmond",
      "countryCode": "CA",
      "stateCode": "ON",
      "latitude": "45.18340000",
      "longitude": "-75.83266000"
   },
   {
      "name": "Richmond Hill",
      "countryCode": "CA",
      "stateCode": "ON",
      "latitude": "43.87111000",
      "longitude": "-79.43725000"
   },
   {
      "name": "Ridgetown",
      "countryCode": "CA",
      "stateCode": "ON",
      "latitude": "42.43339000",
      "longitude": "-81.89978000"
   },
   {
      "name": "Rockwood",
      "countryCode": "CA",
      "stateCode": "ON",
      "latitude": "43.61899000",
      "longitude": "-80.14441000"
   },
   {
      "name": "Russell",
      "countryCode": "CA",
      "stateCode": "ON",
      "latitude": "45.25010000",
      "longitude": "-75.36602000"
   },
   {
      "name": "Sarnia",
      "countryCode": "CA",
      "stateCode": "ON",
      "latitude": "42.97866000",
      "longitude": "-82.40407000"
   },
   {
      "name": "Sault Ste. Marie",
      "countryCode": "CA",
      "stateCode": "ON",
      "latitude": "46.51677000",
      "longitude": "-84.33325000"
   },
   {
      "name": "Scarborough",
      "countryCode": "CA",
      "stateCode": "ON",
      "latitude": "43.77223000",
      "longitude": "-79.25666000"
   },
   {
      "name": "Seaforth",
      "countryCode": "CA",
      "stateCode": "ON",
      "latitude": "43.55009000",
      "longitude": "-81.39976000"
   },
   {
      "name": "Shelburne",
      "countryCode": "CA",
      "stateCode": "ON",
      "latitude": "44.07870000",
      "longitude": "-80.20408000"
   },
   {
      "name": "Simcoe",
      "countryCode": "CA",
      "stateCode": "ON",
      "latitude": "42.83340000",
      "longitude": "-80.29967000"
   },
   {
      "name": "Sioux Lookout",
      "countryCode": "CA",
      "stateCode": "ON",
      "latitude": "50.06676000",
      "longitude": "-91.98358000"
   },
   {
      "name": "Skatepark",
      "countryCode": "CA",
      "stateCode": "ON",
      "latitude": "44.25122000",
      "longitude": "-76.94424000"
   },
   {
      "name": "Smiths Falls",
      "countryCode": "CA",
      "stateCode": "ON",
      "latitude": "44.90452000",
      "longitude": "-76.02333000"
   },
   {
      "name": "South Huron",
      "countryCode": "CA",
      "stateCode": "ON",
      "latitude": "43.31679000",
      "longitude": "-81.51647000"
   },
   {
      "name": "South River",
      "countryCode": "CA",
      "stateCode": "ON",
      "latitude": "45.83340000",
      "longitude": "-79.38293000"
   },
   {
      "name": "St. Catharines",
      "countryCode": "CA",
      "stateCode": "ON",
      "latitude": "43.17126000",
      "longitude": "-79.24267000"
   },
   {
      "name": "St. George",
      "countryCode": "CA",
      "stateCode": "ON",
      "latitude": "43.24495000",
      "longitude": "-80.25144000"
   },
   {
      "name": "St. Thomas",
      "countryCode": "CA",
      "stateCode": "ON",
      "latitude": "42.77361000",
      "longitude": "-81.18038000"
   },
   {
      "name": "Stirling",
      "countryCode": "CA",
      "stateCode": "ON",
      "latitude": "44.30012000",
      "longitude": "-77.54948000"
   },
   {
      "name": "Stoney Point",
      "countryCode": "CA",
      "stateCode": "ON",
      "latitude": "44.26681000",
      "longitude": "-79.53292000"
   },
   {
      "name": "Stratford",
      "countryCode": "CA",
      "stateCode": "ON",
      "latitude": "43.36679000",
      "longitude": "-80.94972000"
   },
   {
      "name": "Sudbury",
      "countryCode": "CA",
      "stateCode": "ON",
      "latitude": "47.16679000",
      "longitude": "-81.99980000"
   },
   {
      "name": "Tavistock",
      "countryCode": "CA",
      "stateCode": "ON",
      "latitude": "43.31679000",
      "longitude": "-80.83302000"
   },
   {
      "name": "Temiskaming Shores",
      "countryCode": "CA",
      "stateCode": "ON",
      "latitude": "47.49376000",
      "longitude": "-79.71529000"
   },
   {
      "name": "Thessalon",
      "countryCode": "CA",
      "stateCode": "ON",
      "latitude": "46.25006000",
      "longitude": "-83.56660000"
   },
   {
      "name": "Thorold",
      "countryCode": "CA",
      "stateCode": "ON",
      "latitude": "43.11682000",
      "longitude": "-79.19958000"
   },
   {
      "name": "Thunder Bay",
      "countryCode": "CA",
      "stateCode": "ON",
      "latitude": "48.38202000",
      "longitude": "-89.25018000"
   },
   {
      "name": "Thunder Bay District",
      "countryCode": "CA",
      "stateCode": "ON",
      "latitude": "49.50011000",
      "longitude": "-88.50004000"
   },
   {
      "name": "Timiskaming District",
      "countryCode": "CA",
      "stateCode": "ON",
      "latitude": "47.75016000",
      "longitude": "-80.33303000"
   },
   {
      "name": "Timmins",
      "countryCode": "CA",
      "stateCode": "ON",
      "latitude": "48.46686000",
      "longitude": "-81.33312000"
   },
   {
      "name": "Tobermory",
      "countryCode": "CA",
      "stateCode": "ON",
      "latitude": "45.25007000",
      "longitude": "-81.66647000"
   },
   {
      "name": "Toronto",
      "countryCode": "CA",
      "stateCode": "ON",
      "latitude": "43.70011000",
      "longitude": "-79.41630000"
   },
   {
      "name": "Toronto county",
      "countryCode": "CA",
      "stateCode": "ON",
      "latitude": "43.69655000",
      "longitude": "-79.42909000"
   },
   {
      "name": "Tottenham",
      "countryCode": "CA",
      "stateCode": "ON",
      "latitude": "44.02437000",
      "longitude": "-79.80553000"
   },
   {
      "name": "Tweed",
      "countryCode": "CA",
      "stateCode": "ON",
      "latitude": "44.47512000",
      "longitude": "-77.31616000"
   },
   {
      "name": "Uxbridge",
      "countryCode": "CA",
      "stateCode": "ON",
      "latitude": "44.10012000",
      "longitude": "-79.11628000"
   },
   {
      "name": "Valley East",
      "countryCode": "CA",
      "stateCode": "ON",
      "latitude": "46.66773000",
      "longitude": "-81.00028000"
   },
   {
      "name": "Vanier",
      "countryCode": "CA",
      "stateCode": "ON",
      "latitude": "45.43990000",
      "longitude": "-75.66498000"
   },
   {
      "name": "Vaughan",
      "countryCode": "CA",
      "stateCode": "ON",
      "latitude": "43.83610000",
      "longitude": "-79.49827000"
   },
   {
      "name": "Vineland",
      "countryCode": "CA",
      "stateCode": "ON",
      "latitude": "43.15012000",
      "longitude": "-79.39960000"
   },
   {
      "name": "Virgil",
      "countryCode": "CA",
      "stateCode": "ON",
      "latitude": "43.21682000",
      "longitude": "-79.13288000"
   },
   {
      "name": "Walpole Island",
      "countryCode": "CA",
      "stateCode": "ON",
      "latitude": "42.61520000",
      "longitude": "-82.51398000"
   },
   {
      "name": "Wasaga Beach",
      "countryCode": "CA",
      "stateCode": "ON",
      "latitude": "44.51680000",
      "longitude": "-80.01637000"
   },
   {
      "name": "Waterford",
      "countryCode": "CA",
      "stateCode": "ON",
      "latitude": "42.93340000",
      "longitude": "-80.28296000"
   },
   {
      "name": "Waterloo",
      "countryCode": "CA",
      "stateCode": "ON",
      "latitude": "43.46680000",
      "longitude": "-80.51639000"
   },
   {
      "name": "Watford",
      "countryCode": "CA",
      "stateCode": "ON",
      "latitude": "42.95008000",
      "longitude": "-81.88309000"
   },
   {
      "name": "Wawa",
      "countryCode": "CA",
      "stateCode": "ON",
      "latitude": "47.98877000",
      "longitude": "-84.77411000"
   },
   {
      "name": "Welland",
      "countryCode": "CA",
      "stateCode": "ON",
      "latitude": "42.98342000",
      "longitude": "-79.24958000"
   },
   {
      "name": "Wellesley",
      "countryCode": "CA",
      "stateCode": "ON",
      "latitude": "43.47691000",
      "longitude": "-80.76209000"
   },
   {
      "name": "Wendover",
      "countryCode": "CA",
      "stateCode": "ON",
      "latitude": "45.57275000",
      "longitude": "-75.12757000"
   },
   {
      "name": "West Lorne",
      "countryCode": "CA",
      "stateCode": "ON",
      "latitude": "42.60009000",
      "longitude": "-81.59976000"
   },
   {
      "name": "Willowdale",
      "countryCode": "CA",
      "stateCode": "ON",
      "latitude": "43.76672000",
      "longitude": "-79.39909000"
   },
   {
      "name": "Winchester",
      "countryCode": "CA",
      "stateCode": "ON",
      "latitude": "45.08340000",
      "longitude": "-75.34933000"
   },
   {
      "name": "Windsor",
      "countryCode": "CA",
      "stateCode": "ON",
      "latitude": "42.30008000",
      "longitude": "-83.01654000"
   },
   {
      "name": "Wingham",
      "countryCode": "CA",
      "stateCode": "ON",
      "latitude": "43.88793000",
      "longitude": "-81.31145000"
   },
   {
      "name": "Woodstock",
      "countryCode": "CA",
      "stateCode": "ON",
      "latitude": "43.13339000",
      "longitude": "-80.74970000"
   },
   {
      "name": "York",
      "countryCode": "CA",
      "stateCode": "ON",
      "latitude": "44.00011000",
      "longitude": "-79.46632000"
   }
]