[
   {
      "name": "Beitbridge",
      "countryCode": "ZW",
      "stateCode": "MS",
      "latitude": "-22.21667000",
      "longitude": "30.00000000"
   },
   {
      "name": "Beitbridge District",
      "countryCode": "ZW",
      "stateCode": "MS",
      "latitude": "-21.89829000",
      "longitude": "30.07409000"
   },
   {
      "name": "Esigodini",
      "countryCode": "ZW",
      "stateCode": "MS",
      "latitude": "-20.28979000",
      "longitude": "28.92261000"
   },
   {
      "name": "Filabusi",
      "countryCode": "ZW",
      "stateCode": "MS",
      "latitude": "-20.53333000",
      "longitude": "29.28502000"
   },
   {
      "name": "Gwanda",
      "countryCode": "ZW",
      "stateCode": "MS",
      "latitude": "-20.93622000",
      "longitude": "29.00698000"
   },
   {
      "name": "Gwanda District",
      "countryCode": "ZW",
      "stateCode": "MS",
      "latitude": "-21.20929000",
      "longitude": "29.17557000"
   },
   {
      "name": "Insiza",
      "countryCode": "ZW",
      "stateCode": "MS",
      "latitude": "-19.78333000",
      "longitude": "29.20000000"
   },
   {
      "name": "Insiza District",
      "countryCode": "ZW",
      "stateCode": "MS",
      "latitude": "-20.26431000",
      "longitude": "29.47392000"
   },
   {
      "name": "Mangwe District",
      "countryCode": "ZW",
      "stateCode": "MS",
      "latitude": "-20.95545000",
      "longitude": "27.98292000"
   },
   {
      "name": "Matobo",
      "countryCode": "ZW",
      "stateCode": "MS",
      "latitude": "-20.95545000",
      "longitude": "28.49463000"
   },
   {
      "name": "Plumtree",
      "countryCode": "ZW",
      "stateCode": "MS",
      "latitude": "-20.48333000",
      "longitude": "27.81667000"
   },
   {
      "name": "Umzingwane District",
      "countryCode": "ZW",
      "stateCode": "MS",
      "latitude": "-20.34704000",
      "longitude": "28.94994000"
   }
]