[
   {
      "name": "Algyő",
      "countryCode": "HU",
      "stateCode": "CS",
      "latitude": "46.33472000",
      "longitude": "20.20849000"
   },
   {
      "name": "Apátfalva",
      "countryCode": "HU",
      "stateCode": "CS",
      "latitude": "46.16667000",
      "longitude": "20.58333000"
   },
   {
      "name": "Baks",
      "countryCode": "HU",
      "stateCode": "CS",
      "latitude": "46.54297000",
      "longitude": "20.10213000"
   },
   {
      "name": "Balástya",
      "countryCode": "HU",
      "stateCode": "CS",
      "latitude": "46.42277000",
      "longitude": "20.00816000"
   },
   {
      "name": "Bordány",
      "countryCode": "HU",
      "stateCode": "CS",
      "latitude": "46.31843000",
      "longitude": "19.92306000"
   },
   {
      "name": "Csanytelek",
      "countryCode": "HU",
      "stateCode": "CS",
      "latitude": "46.59501000",
      "longitude": "20.12342000"
   },
   {
      "name": "Csanádpalota",
      "countryCode": "HU",
      "stateCode": "CS",
      "latitude": "46.25000000",
      "longitude": "20.73333000"
   },
   {
      "name": "Csengele",
      "countryCode": "HU",
      "stateCode": "CS",
      "latitude": "46.54234000",
      "longitude": "19.86358000"
   },
   {
      "name": "Csongrád",
      "countryCode": "HU",
      "stateCode": "CS",
      "latitude": "46.71332000",
      "longitude": "20.14241000"
   },
   {
      "name": "Csongrádi Járás",
      "countryCode": "HU",
      "stateCode": "CS",
      "latitude": "46.66146000",
      "longitude": "20.08792000"
   },
   {
      "name": "Deszk",
      "countryCode": "HU",
      "stateCode": "CS",
      "latitude": "46.21802000",
      "longitude": "20.24322000"
   },
   {
      "name": "Domaszék",
      "countryCode": "HU",
      "stateCode": "CS",
      "latitude": "46.24917000",
      "longitude": "20.01111000"
   },
   {
      "name": "Forráskút",
      "countryCode": "HU",
      "stateCode": "CS",
      "latitude": "46.36528000",
      "longitude": "19.90973000"
   },
   {
      "name": "Fábiánsebestyén",
      "countryCode": "HU",
      "stateCode": "CS",
      "latitude": "46.68333000",
      "longitude": "20.46667000"
   },
   {
      "name": "Földeák",
      "countryCode": "HU",
      "stateCode": "CS",
      "latitude": "46.31667000",
      "longitude": "20.50000000"
   },
   {
      "name": "Hódmezővásárhely",
      "countryCode": "HU",
      "stateCode": "CS",
      "latitude": "46.41667000",
      "longitude": "20.33333000"
   },
   {
      "name": "Hódmezővásárhelyi Járás",
      "countryCode": "HU",
      "stateCode": "CS",
      "latitude": "46.43301000",
      "longitude": "20.37598000"
   },
   {
      "name": "Kistelek",
      "countryCode": "HU",
      "stateCode": "CS",
      "latitude": "46.47250000",
      "longitude": "19.97972000"
   },
   {
      "name": "Kisteleki Járás",
      "countryCode": "HU",
      "stateCode": "CS",
      "latitude": "46.48835000",
      "longitude": "19.99568000"
   },
   {
      "name": "Kiszombor",
      "countryCode": "HU",
      "stateCode": "CS",
      "latitude": "46.18333000",
      "longitude": "20.43333000"
   },
   {
      "name": "Makó",
      "countryCode": "HU",
      "stateCode": "CS",
      "latitude": "46.21667000",
      "longitude": "20.48333000"
   },
   {
      "name": "Makói Járás",
      "countryCode": "HU",
      "stateCode": "CS",
      "latitude": "46.26698000",
      "longitude": "20.54200000"
   },
   {
      "name": "Maroslele",
      "countryCode": "HU",
      "stateCode": "CS",
      "latitude": "46.26667000",
      "longitude": "20.35000000"
   },
   {
      "name": "Mindszent",
      "countryCode": "HU",
      "stateCode": "CS",
      "latitude": "46.52362000",
      "longitude": "20.19038000"
   },
   {
      "name": "Mórahalmi Járás",
      "countryCode": "HU",
      "stateCode": "CS",
      "latitude": "46.26840000",
      "longitude": "19.82256000"
   },
   {
      "name": "Mórahalom",
      "countryCode": "HU",
      "stateCode": "CS",
      "latitude": "46.21806000",
      "longitude": "19.88510000"
   },
   {
      "name": "Pusztaszer",
      "countryCode": "HU",
      "stateCode": "CS",
      "latitude": "46.55083000",
      "longitude": "19.98823000"
   },
   {
      "name": "Ruzsa",
      "countryCode": "HU",
      "stateCode": "CS",
      "latitude": "46.28806000",
      "longitude": "19.74714000"
   },
   {
      "name": "Röszke",
      "countryCode": "HU",
      "stateCode": "CS",
      "latitude": "46.18796000",
      "longitude": "20.03372000"
   },
   {
      "name": "Szatymaz",
      "countryCode": "HU",
      "stateCode": "CS",
      "latitude": "46.34306000",
      "longitude": "20.04020000"
   },
   {
      "name": "Szeged",
      "countryCode": "HU",
      "stateCode": "CS",
      "latitude": "46.25300000",
      "longitude": "20.14824000"
   },
   {
      "name": "Szegedi Járás",
      "countryCode": "HU",
      "stateCode": "CS",
      "latitude": "46.29536000",
      "longitude": "20.13758000"
   },
   {
      "name": "Szegvár",
      "countryCode": "HU",
      "stateCode": "CS",
      "latitude": "46.58740000",
      "longitude": "20.22408000"
   },
   {
      "name": "Szentes",
      "countryCode": "HU",
      "stateCode": "CS",
      "latitude": "46.65834000",
      "longitude": "20.26080000"
   },
   {
      "name": "Szentesi Járás",
      "countryCode": "HU",
      "stateCode": "CS",
      "latitude": "46.66005000",
      "longitude": "20.37314000"
   },
   {
      "name": "Székkutas",
      "countryCode": "HU",
      "stateCode": "CS",
      "latitude": "46.50000000",
      "longitude": "20.53333000"
   },
   {
      "name": "Sándorfalva",
      "countryCode": "HU",
      "stateCode": "CS",
      "latitude": "46.36087000",
      "longitude": "20.09889000"
   },
   {
      "name": "Tömörkény",
      "countryCode": "HU",
      "stateCode": "CS",
      "latitude": "46.61716000",
      "longitude": "20.04357000"
   },
   {
      "name": "Zsombó",
      "countryCode": "HU",
      "stateCode": "CS",
      "latitude": "46.32566000",
      "longitude": "19.97464000"
   },
   {
      "name": "Zákányszék",
      "countryCode": "HU",
      "stateCode": "CS",
      "latitude": "46.27453000",
      "longitude": "19.88975000"
   },
   {
      "name": "Ásotthalom",
      "countryCode": "HU",
      "stateCode": "CS",
      "latitude": "46.19875000",
      "longitude": "19.78334000"
   },
   {
      "name": "Ópusztaszer",
      "countryCode": "HU",
      "stateCode": "CS",
      "latitude": "46.48592000",
      "longitude": "20.08722000"
   },
   {
      "name": "Üllés",
      "countryCode": "HU",
      "stateCode": "CS",
      "latitude": "46.33611000",
      "longitude": "19.84454000"
   }
]