[
   {
      "name": "Anija vald",
      "countryCode": "EE",
      "stateCode": "37",
      "latitude": "59.27644000",
      "longitude": "25.48168000"
   },
   {
      "name": "Aruk체la",
      "countryCode": "EE",
      "stateCode": "37",
      "latitude": "59.36686000",
      "longitude": "25.07618000"
   },
   {
      "name": "Haabneeme",
      "countryCode": "EE",
      "stateCode": "37",
      "latitude": "59.51358000",
      "longitude": "24.82225000"
   },
   {
      "name": "Harku",
      "countryCode": "EE",
      "stateCode": "37",
      "latitude": "59.38641000",
      "longitude": "24.57176000"
   },
   {
      "name": "Harku vald",
      "countryCode": "EE",
      "stateCode": "37",
      "latitude": "59.39157000",
      "longitude": "24.46206000"
   },
   {
      "name": "J천el채htme vald",
      "countryCode": "EE",
      "stateCode": "37",
      "latitude": "59.43996000",
      "longitude": "25.13535000"
   },
   {
      "name": "J체ri",
      "countryCode": "EE",
      "stateCode": "37",
      "latitude": "59.35417000",
      "longitude": "24.89417000"
   },
   {
      "name": "Kehra",
      "countryCode": "EE",
      "stateCode": "37",
      "latitude": "59.33611000",
      "longitude": "25.32111000"
   },
   {
      "name": "Keila",
      "countryCode": "EE",
      "stateCode": "37",
      "latitude": "59.30361000",
      "longitude": "24.41306000"
   },
   {
      "name": "Kiili",
      "countryCode": "EE",
      "stateCode": "37",
      "latitude": "59.30775000",
      "longitude": "24.83776000"
   },
   {
      "name": "Kiili vald",
      "countryCode": "EE",
      "stateCode": "37",
      "latitude": "59.29672000",
      "longitude": "24.85292000"
   },
   {
      "name": "Kose",
      "countryCode": "EE",
      "stateCode": "37",
      "latitude": "59.46001000",
      "longitude": "24.87824000"
   },
   {
      "name": "Kuusalu",
      "countryCode": "EE",
      "stateCode": "37",
      "latitude": "59.44389000",
      "longitude": "25.44139000"
   },
   {
      "name": "Laagri",
      "countryCode": "EE",
      "stateCode": "37",
      "latitude": "59.35083000",
      "longitude": "24.61418000"
   },
   {
      "name": "Loksa",
      "countryCode": "EE",
      "stateCode": "37",
      "latitude": "59.57639000",
      "longitude": "25.72139000"
   },
   {
      "name": "Loksa linn",
      "countryCode": "EE",
      "stateCode": "37",
      "latitude": "59.57844000",
      "longitude": "25.71667000"
   },
   {
      "name": "Loo",
      "countryCode": "EE",
      "stateCode": "37",
      "latitude": "59.43123000",
      "longitude": "24.94949000"
   },
   {
      "name": "Maardu",
      "countryCode": "EE",
      "stateCode": "37",
      "latitude": "59.46529000",
      "longitude": "24.98215000"
   },
   {
      "name": "Maardu linn",
      "countryCode": "EE",
      "stateCode": "37",
      "latitude": "59.46385000",
      "longitude": "24.97350000"
   },
   {
      "name": "Paldiski",
      "countryCode": "EE",
      "stateCode": "37",
      "latitude": "59.35667000",
      "longitude": "24.05306000"
   },
   {
      "name": "Pringi",
      "countryCode": "EE",
      "stateCode": "37",
      "latitude": "59.53459000",
      "longitude": "24.79726000"
   },
   {
      "name": "Raasiku",
      "countryCode": "EE",
      "stateCode": "37",
      "latitude": "59.36639000",
      "longitude": "25.18306000"
   },
   {
      "name": "Rae vald",
      "countryCode": "EE",
      "stateCode": "37",
      "latitude": "59.33202000",
      "longitude": "24.93932000"
   },
   {
      "name": "Riisipere",
      "countryCode": "EE",
      "stateCode": "37",
      "latitude": "59.11417000",
      "longitude": "24.31056000"
   },
   {
      "name": "Rummu",
      "countryCode": "EE",
      "stateCode": "37",
      "latitude": "59.53528000",
      "longitude": "24.79972000"
   },
   {
      "name": "Saku",
      "countryCode": "EE",
      "stateCode": "37",
      "latitude": "59.30354000",
      "longitude": "24.66382000"
   },
   {
      "name": "Saku vald",
      "countryCode": "EE",
      "stateCode": "37",
      "latitude": "59.28069000",
      "longitude": "24.71649000"
   },
   {
      "name": "Saue",
      "countryCode": "EE",
      "stateCode": "37",
      "latitude": "59.32258000",
      "longitude": "24.54967000"
   },
   {
      "name": "Saue vald",
      "countryCode": "EE",
      "stateCode": "37",
      "latitude": "59.29255000",
      "longitude": "24.52503000"
   },
   {
      "name": "Tabasalu",
      "countryCode": "EE",
      "stateCode": "37",
      "latitude": "59.42607000",
      "longitude": "24.55330000"
   },
   {
      "name": "Tallinn",
      "countryCode": "EE",
      "stateCode": "37",
      "latitude": "59.43696000",
      "longitude": "24.75353000"
   },
   {
      "name": "Turba",
      "countryCode": "EE",
      "stateCode": "37",
      "latitude": "59.08306000",
      "longitude": "24.22500000"
   },
   {
      "name": "Vaida",
      "countryCode": "EE",
      "stateCode": "37",
      "latitude": "59.28546000",
      "longitude": "24.97897000"
   },
   {
      "name": "Viimsi",
      "countryCode": "EE",
      "stateCode": "37",
      "latitude": "59.50502000",
      "longitude": "24.84807000"
   },
   {
      "name": "Viimsi vald",
      "countryCode": "EE",
      "stateCode": "37",
      "latitude": "59.50204000",
      "longitude": "24.84833000"
   }
]