[
   {
      "name": "Alor Gajah",
      "countryCode": "MY",
      "stateCode": "04",
      "latitude": "2.38040000",
      "longitude": "102.20890000"
   },
   {
      "name": "Batu Berendam",
      "countryCode": "MY",
      "stateCode": "04",
      "latitude": "2.24870000",
      "longitude": "102.24600000"
   },
   {
      "name": "Bemban",
      "countryCode": "MY",
      "stateCode": "04",
      "latitude": "2.26840000",
      "longitude": "102.37460000"
   },
   {
      "name": "Bukit Rambai",
      "countryCode": "MY",
      "stateCode": "04",
      "latitude": "2.25940000",
      "longitude": "102.18380000"
   },
   {
      "name": "Kampong Masjid Tanah",
      "countryCode": "MY",
      "stateCode": "04",
      "latitude": "2.35000000",
      "longitude": "102.11667000"
   },
   {
      "name": "Kampung Ayer Keroh",
      "countryCode": "MY",
      "stateCode": "04",
      "latitude": "2.26540000",
      "longitude": "102.28010000"
   },
   {
      "name": "Kampung Ayer Molek",
      "countryCode": "MY",
      "stateCode": "04",
      "latitude": "2.21390000",
      "longitude": "102.32780000"
   },
   {
      "name": "Kampung Bukit Baharu",
      "countryCode": "MY",
      "stateCode": "04",
      "latitude": "2.21520000",
      "longitude": "102.28510000"
   },
   {
      "name": "Klebang Besar",
      "countryCode": "MY",
      "stateCode": "04",
      "latitude": "2.21860000",
      "longitude": "102.19950000"
   },
   {
      "name": "Kuala Sungai Baru",
      "countryCode": "MY",
      "stateCode": "04",
      "latitude": "2.35940000",
      "longitude": "102.03530000"
   },
   {
      "name": "Malacca",
      "countryCode": "MY",
      "stateCode": "04",
      "latitude": "2.19600000",
      "longitude": "102.24050000"
   },
   {
      "name": "Pulau Sebang",
      "countryCode": "MY",
      "stateCode": "04",
      "latitude": "2.45500000",
      "longitude": "102.23290000"
   },
   {
      "name": "Sungai Udang",
      "countryCode": "MY",
      "stateCode": "04",
      "latitude": "2.26900000",
      "longitude": "102.14270000"
   }
]