[
   {
      "name": "Aktash",
      "countryCode": "RU",
      "stateCode": "AL",
      "latitude": "50.30000000",
      "longitude": "87.73333000"
   },
   {
      "name": "Artybash",
      "countryCode": "RU",
      "stateCode": "AL",
      "latitude": "51.79278000",
      "longitude": "87.27611000"
   },
   {
      "name": "Belyashi",
      "countryCode": "RU",
      "stateCode": "AL",
      "latitude": "49.70900000",
      "longitude": "87.42300000"
   },
   {
      "name": "Chemal",
      "countryCode": "RU",
      "stateCode": "AL",
      "latitude": "51.41111000",
      "longitude": "86.00500000"
   },
   {
      "name": "Cherga",
      "countryCode": "RU",
      "stateCode": "AL",
      "latitude": "51.56889000",
      "longitude": "85.56250000"
   },
   {
      "name": "Choya",
      "countryCode": "RU",
      "stateCode": "AL",
      "latitude": "52.01080000",
      "longitude": "86.54670000"
   },
   {
      "name": "Elekmonar",
      "countryCode": "RU",
      "stateCode": "AL",
      "latitude": "51.45889000",
      "longitude": "85.98778000"
   },
   {
      "name": "Gorno-Altaysk",
      "countryCode": "RU",
      "stateCode": "AL",
      "latitude": "51.96056000",
      "longitude": "85.91892000"
   },
   {
      "name": "Inya",
      "countryCode": "RU",
      "stateCode": "AL",
      "latitude": "50.45611000",
      "longitude": "86.62667000"
   },
   {
      "name": "Iogach",
      "countryCode": "RU",
      "stateCode": "AL",
      "latitude": "51.78167000",
      "longitude": "87.26306000"
   },
   {
      "name": "Kosh-Agach",
      "countryCode": "RU",
      "stateCode": "AL",
      "latitude": "49.99273000",
      "longitude": "88.67598000"
   },
   {
      "name": "Manzherok",
      "countryCode": "RU",
      "stateCode": "AL",
      "latitude": "51.83028000",
      "longitude": "85.77500000"
   },
   {
      "name": "Mayma",
      "countryCode": "RU",
      "stateCode": "AL",
      "latitude": "52.01577000",
      "longitude": "85.90963000"
   },
   {
      "name": "Mayminskiy Rayon",
      "countryCode": "RU",
      "stateCode": "AL",
      "latitude": "51.83333000",
      "longitude": "86.00000000"
   },
   {
      "name": "Onguday",
      "countryCode": "RU",
      "stateCode": "AL",
      "latitude": "50.75000000",
      "longitude": "86.15000000"
   },
   {
      "name": "Ongudayskiy Rayon",
      "countryCode": "RU",
      "stateCode": "AL",
      "latitude": "50.66667000",
      "longitude": "86.50000000"
   },
   {
      "name": "Shebalino",
      "countryCode": "RU",
      "stateCode": "AL",
      "latitude": "51.29167000",
      "longitude": "85.67722000"
   },
   {
      "name": "Shebalinskiy Rayon",
      "countryCode": "RU",
      "stateCode": "AL",
      "latitude": "51.33333000",
      "longitude": "85.50000000"
   },
   {
      "name": "Souzga",
      "countryCode": "RU",
      "stateCode": "AL",
      "latitude": "51.88722000",
      "longitude": "85.84944000"
   },
   {
      "name": "Tashanta",
      "countryCode": "RU",
      "stateCode": "AL",
      "latitude": "49.71573000",
      "longitude": "89.19425000"
   },
   {
      "name": "Turochak",
      "countryCode": "RU",
      "stateCode": "AL",
      "latitude": "52.25760000",
      "longitude": "87.12240000"
   },
   {
      "name": "Ust’-Kan",
      "countryCode": "RU",
      "stateCode": "AL",
      "latitude": "50.92760000",
      "longitude": "84.76100000"
   },
   {
      "name": "Ust’-Koksa",
      "countryCode": "RU",
      "stateCode": "AL",
      "latitude": "50.26960000",
      "longitude": "85.61080000"
   },
   {
      "name": "Ust’-Koksinskiy Rayon",
      "countryCode": "RU",
      "stateCode": "AL",
      "latitude": "50.16667000",
      "longitude": "85.58333000"
   },
   {
      "name": "Ust’-Ulagan",
      "countryCode": "RU",
      "stateCode": "AL",
      "latitude": "50.63258000",
      "longitude": "87.96046000"
   }
]