[
   {
      "name": "Banská Bystrica Region",
      "isoCode": "BC",
      "countryCode": "SK",
      "latitude": "48.53124990",
      "longitude": "19.38287400"
   },
   {
      "name": "Bratislava Region",
      "isoCode": "BL",
      "countryCode": "SK",
      "latitude": "48.31183040",
      "longitude": "17.19732990"
   },
   {
      "name": "Košice Region",
      "isoCode": "KI",
      "countryCode": "SK",
      "latitude": "48.63757370",
      "longitude": "21.08342250"
   },
   {
      "name": "Nitra Region",
      "isoCode": "NI",
      "countryCode": "SK",
      "latitude": "48.01437650",
      "longitude": "18.54165040"
   },
   {
      "name": "Prešov Region",
      "isoCode": "PV",
      "countryCode": "SK",
      "latitude": "49.17167730",
      "longitude": "21.37420010"
   },
   {
      "name": "Trnava Region",
      "isoCode": "TA",
      "countryCode": "SK",
      "latitude": "48.39438980",
      "longitude": "17.72162050"
   },
   {
      "name": "Trenčín Region",
      "isoCode": "TC",
      "countryCode": "SK",
      "latitude": "48.80867580",
      "longitude": "18.23240260"
   },
   {
      "name": "Žilina Region",
      "isoCode": "ZI",
      "countryCode": "SK",
      "latitude": "49.20314350",
      "longitude": "19.36457330"
   }
]