[
   {
      "name": "Abbaretz",
      "countryCode": "FR",
      "stateCode": "PDL",
      "latitude": "47.55314000",
      "longitude": "-1.53200000"
   },
   {
      "name": "Ahuillé",
      "countryCode": "FR",
      "stateCode": "PDL",
      "latitude": "48.02086000",
      "longitude": "-0.86906000"
   },
   {
      "name": "Aigné",
      "countryCode": "FR",
      "stateCode": "PDL",
      "latitude": "48.06471000",
      "longitude": "0.11908000"
   },
   {
      "name": "Aigrefeuille-sur-Maine",
      "countryCode": "FR",
      "stateCode": "PDL",
      "latitude": "47.07888000",
      "longitude": "-1.40254000"
   },
   {
      "name": "Aizenay",
      "countryCode": "FR",
      "stateCode": "PDL",
      "latitude": "46.74004000",
      "longitude": "-1.60834000"
   },
   {
      "name": "Allonnes",
      "countryCode": "FR",
      "stateCode": "PDL",
      "latitude": "47.29338000",
      "longitude": "0.02458000"
   },
   {
      "name": "Ambrières-les-Vallées",
      "countryCode": "FR",
      "stateCode": "PDL",
      "latitude": "48.40000000",
      "longitude": "-0.63333000"
   },
   {
      "name": "Ancenis",
      "countryCode": "FR",
      "stateCode": "PDL",
      "latitude": "47.36667000",
      "longitude": "-1.16667000"
   },
   {
      "name": "Andard",
      "countryCode": "FR",
      "stateCode": "PDL",
      "latitude": "47.45659000",
      "longitude": "-0.39752000"
   },
   {
      "name": "Andouillé",
      "countryCode": "FR",
      "stateCode": "PDL",
      "latitude": "48.17685000",
      "longitude": "-0.78364000"
   },
   {
      "name": "Andrezé",
      "countryCode": "FR",
      "stateCode": "PDL",
      "latitude": "47.17155000",
      "longitude": "-0.95239000"
   },
   {
      "name": "Anetz",
      "countryCode": "FR",
      "stateCode": "PDL",
      "latitude": "47.38059000",
      "longitude": "-1.10583000"
   },
   {
      "name": "Angers",
      "countryCode": "FR",
      "stateCode": "PDL",
      "latitude": "47.47381000",
      "longitude": "-0.54774000"
   },
   {
      "name": "Angles",
      "countryCode": "FR",
      "stateCode": "PDL",
      "latitude": "46.40839000",
      "longitude": "-1.40389000"
   },
   {
      "name": "Antigny",
      "countryCode": "FR",
      "stateCode": "PDL",
      "latitude": "46.62095000",
      "longitude": "-0.76988000"
   },
   {
      "name": "Apremont",
      "countryCode": "FR",
      "stateCode": "PDL",
      "latitude": "46.74850000",
      "longitude": "-1.74075000"
   },
   {
      "name": "Argentré",
      "countryCode": "FR",
      "stateCode": "PDL",
      "latitude": "48.08362000",
      "longitude": "-0.64150000"
   },
   {
      "name": "Arnage",
      "countryCode": "FR",
      "stateCode": "PDL",
      "latitude": "47.92616000",
      "longitude": "0.18782000"
   },
   {
      "name": "Aron",
      "countryCode": "FR",
      "stateCode": "PDL",
      "latitude": "48.29800000",
      "longitude": "-0.55980000"
   },
   {
      "name": "Arthon-en-Retz",
      "countryCode": "FR",
      "stateCode": "PDL",
      "latitude": "47.11586000",
      "longitude": "-1.94260000"
   },
   {
      "name": "Arçonnay",
      "countryCode": "FR",
      "stateCode": "PDL",
      "latitude": "48.39678000",
      "longitude": "0.08620000"
   },
   {
      "name": "Assérac",
      "countryCode": "FR",
      "stateCode": "PDL",
      "latitude": "47.42881000",
      "longitude": "-2.38916000"
   },
   {
      "name": "Aubigny",
      "countryCode": "FR",
      "stateCode": "PDL",
      "latitude": "46.59653000",
      "longitude": "-1.45364000"
   },
   {
      "name": "Aubigné-Racan",
      "countryCode": "FR",
      "stateCode": "PDL",
      "latitude": "47.69091000",
      "longitude": "0.26870000"
   },
   {
      "name": "Auvers-le-Hamon",
      "countryCode": "FR",
      "stateCode": "PDL",
      "latitude": "47.90246000",
      "longitude": "-0.35170000"
   },
   {
      "name": "Avessac",
      "countryCode": "FR",
      "stateCode": "PDL",
      "latitude": "47.65324000",
      "longitude": "-1.98961000"
   },
   {
      "name": "Avrillé",
      "countryCode": "FR",
      "stateCode": "PDL",
      "latitude": "47.50000000",
      "longitude": "-0.58333000"
   },
   {
      "name": "Azé",
      "countryCode": "FR",
      "stateCode": "PDL",
      "latitude": "47.82220000",
      "longitude": "-0.68333000"
   },
   {
      "name": "Bais",
      "countryCode": "FR",
      "stateCode": "PDL",
      "latitude": "48.25280000",
      "longitude": "-0.36493000"
   },
   {
      "name": "Ballon",
      "countryCode": "FR",
      "stateCode": "PDL",
      "latitude": "48.17317000",
      "longitude": "0.23814000"
   },
   {
      "name": "Ballots",
      "countryCode": "FR",
      "stateCode": "PDL",
      "latitude": "47.89617000",
      "longitude": "-1.04759000"
   },
   {
      "name": "Barbechat",
      "countryCode": "FR",
      "stateCode": "PDL",
      "latitude": "47.27750000",
      "longitude": "-1.28524000"
   },
   {
      "name": "Barbâtre",
      "countryCode": "FR",
      "stateCode": "PDL",
      "latitude": "46.94116000",
      "longitude": "-2.17752000"
   },
   {
      "name": "Basse-Goulaine",
      "countryCode": "FR",
      "stateCode": "PDL",
      "latitude": "47.21167000",
      "longitude": "-1.46748000"
   },
   {
      "name": "Batz-sur-Mer",
      "countryCode": "FR",
      "stateCode": "PDL",
      "latitude": "47.27750000",
      "longitude": "-2.48027000"
   },
   {
      "name": "Baugé-en-Anjou",
      "countryCode": "FR",
      "stateCode": "PDL",
      "latitude": "47.54447000",
      "longitude": "-0.10653000"
   },
   {
      "name": "Bauné",
      "countryCode": "FR",
      "stateCode": "PDL",
      "latitude": "47.49954000",
      "longitude": "-0.31906000"
   },
   {
      "name": "Bazoges-en-Pareds",
      "countryCode": "FR",
      "stateCode": "PDL",
      "latitude": "46.65702000",
      "longitude": "-0.91654000"
   },
   {
      "name": "Bazouges-sur-le-Loir",
      "countryCode": "FR",
      "stateCode": "PDL",
      "latitude": "47.68928000",
      "longitude": "-0.16883000"
   },
   {
      "name": "Beaucouzé",
      "countryCode": "FR",
      "stateCode": "PDL",
      "latitude": "47.47444000",
      "longitude": "-0.63016000"
   },
   {
      "name": "Beaufay",
      "countryCode": "FR",
      "stateCode": "PDL",
      "latitude": "48.14664000",
      "longitude": "0.36224000"
   },
   {
      "name": "Beaufort-en-Vallée",
      "countryCode": "FR",
      "stateCode": "PDL",
      "latitude": "47.43965000",
      "longitude": "-0.21890000"
   },
   {
      "name": "Beaulieu-sous-la-Roche",
      "countryCode": "FR",
      "stateCode": "PDL",
      "latitude": "46.67647000",
      "longitude": "-1.61129000"
   },
   {
      "name": "Beaulieu-sur-Layon",
      "countryCode": "FR",
      "stateCode": "PDL",
      "latitude": "47.31095000",
      "longitude": "-0.58988000"
   },
   {
      "name": "Beaumont-sur-Sarthe",
      "countryCode": "FR",
      "stateCode": "PDL",
      "latitude": "48.22772000",
      "longitude": "0.13186000"
   },
   {
      "name": "Beaupréau",
      "countryCode": "FR",
      "stateCode": "PDL",
      "latitude": "47.20464000",
      "longitude": "-0.98703000"
   },
   {
      "name": "Beaurepaire",
      "countryCode": "FR",
      "stateCode": "PDL",
      "latitude": "46.90977000",
      "longitude": "-1.08928000"
   },
   {
      "name": "Beauvoir-sur-Mer",
      "countryCode": "FR",
      "stateCode": "PDL",
      "latitude": "46.91274000",
      "longitude": "-2.04156000"
   },
   {
      "name": "Belleville-sur-Vie",
      "countryCode": "FR",
      "stateCode": "PDL",
      "latitude": "46.78369000",
      "longitude": "-1.42905000"
   },
   {
      "name": "Belligné",
      "countryCode": "FR",
      "stateCode": "PDL",
      "latitude": "47.46774000",
      "longitude": "-1.02780000"
   },
   {
      "name": "Benet",
      "countryCode": "FR",
      "stateCode": "PDL",
      "latitude": "46.36972000",
      "longitude": "-0.59333000"
   },
   {
      "name": "Besné",
      "countryCode": "FR",
      "stateCode": "PDL",
      "latitude": "47.40000000",
      "longitude": "-2.08976000"
   },
   {
      "name": "Bessé-sur-Braye",
      "countryCode": "FR",
      "stateCode": "PDL",
      "latitude": "47.83333000",
      "longitude": "0.75000000"
   },
   {
      "name": "Blain",
      "countryCode": "FR",
      "stateCode": "PDL",
      "latitude": "47.47655000",
      "longitude": "-1.76285000"
   },
   {
      "name": "Blaison-Gohier",
      "countryCode": "FR",
      "stateCode": "PDL",
      "latitude": "47.39951000",
      "longitude": "-0.37723000"
   },
   {
      "name": "Bois-de-Cené",
      "countryCode": "FR",
      "stateCode": "PDL",
      "latitude": "46.93689000",
      "longitude": "-1.88656000"
   },
   {
      "name": "Bonchamp-lès-Laval",
      "countryCode": "FR",
      "stateCode": "PDL",
      "latitude": "48.07357000",
      "longitude": "-0.70000000"
   },
   {
      "name": "Bonnétable",
      "countryCode": "FR",
      "stateCode": "PDL",
      "latitude": "48.17908000",
      "longitude": "0.42570000"
   },
   {
      "name": "Bouaye",
      "countryCode": "FR",
      "stateCode": "PDL",
      "latitude": "47.14263000",
      "longitude": "-1.69306000"
   },
   {
      "name": "Bouchemaine",
      "countryCode": "FR",
      "stateCode": "PDL",
      "latitude": "47.42234000",
      "longitude": "-0.60888000"
   },
   {
      "name": "Boufféré",
      "countryCode": "FR",
      "stateCode": "PDL",
      "latitude": "46.96179000",
      "longitude": "-1.33965000"
   },
   {
      "name": "Bouguenais",
      "countryCode": "FR",
      "stateCode": "PDL",
      "latitude": "47.17762000",
      "longitude": "-1.62143000"
   },
   {
      "name": "Bouin",
      "countryCode": "FR",
      "stateCode": "PDL",
      "latitude": "46.97314000",
      "longitude": "-1.99830000"
   },
   {
      "name": "Bouloire",
      "countryCode": "FR",
      "stateCode": "PDL",
      "latitude": "47.97385000",
      "longitude": "0.55009000"
   },
   {
      "name": "Bourg de Joué-sur-Erdre",
      "countryCode": "FR",
      "stateCode": "PDL",
      "latitude": "47.49596000",
      "longitude": "-1.42047000"
   },
   {
      "name": "Bourgneuf-en-Retz",
      "countryCode": "FR",
      "stateCode": "PDL",
      "latitude": "47.04122000",
      "longitude": "-1.95019000"
   },
   {
      "name": "Bournezeau",
      "countryCode": "FR",
      "stateCode": "PDL",
      "latitude": "46.63714000",
      "longitude": "-1.17107000"
   },
   {
      "name": "Boussay",
      "countryCode": "FR",
      "stateCode": "PDL",
      "latitude": "47.04476000",
      "longitude": "-1.18476000"
   },
   {
      "name": "Bouvron",
      "countryCode": "FR",
      "stateCode": "PDL",
      "latitude": "47.41726000",
      "longitude": "-1.84679000"
   },
   {
      "name": "Bouzillé",
      "countryCode": "FR",
      "stateCode": "PDL",
      "latitude": "47.33750000",
      "longitude": "-1.11143000"
   },
   {
      "name": "Brain-sur-Allonnes",
      "countryCode": "FR",
      "stateCode": "PDL",
      "latitude": "47.30325000",
      "longitude": "0.06514000"
   },
   {
      "name": "Brains",
      "countryCode": "FR",
      "stateCode": "PDL",
      "latitude": "47.16850000",
      "longitude": "-1.72290000"
   },
   {
      "name": "Bretignolles-sur-Mer",
      "countryCode": "FR",
      "stateCode": "PDL",
      "latitude": "46.63333000",
      "longitude": "-1.86667000"
   },
   {
      "name": "Brette-les-Pins",
      "countryCode": "FR",
      "stateCode": "PDL",
      "latitude": "47.91062000",
      "longitude": "0.33649000"
   },
   {
      "name": "Briollay",
      "countryCode": "FR",
      "stateCode": "PDL",
      "latitude": "47.56478000",
      "longitude": "-0.50681000"
   },
   {
      "name": "Brion",
      "countryCode": "FR",
      "stateCode": "PDL",
      "latitude": "47.44121000",
      "longitude": "-0.15616000"
   },
   {
      "name": "Brissac-Quincé",
      "countryCode": "FR",
      "stateCode": "PDL",
      "latitude": "47.35575000",
      "longitude": "-0.44924000"
   },
   {
      "name": "Brézé",
      "countryCode": "FR",
      "stateCode": "PDL",
      "latitude": "47.17357000",
      "longitude": "-0.06059000"
   },
   {
      "name": "Brûlon",
      "countryCode": "FR",
      "stateCode": "PDL",
      "latitude": "47.96667000",
      "longitude": "-0.23333000"
   },
   {
      "name": "Bécon-les-Granits",
      "countryCode": "FR",
      "stateCode": "PDL",
      "latitude": "47.50134000",
      "longitude": "-0.80000000"
   },
   {
      "name": "Bégrolles-en-Mauges",
      "countryCode": "FR",
      "stateCode": "PDL",
      "latitude": "47.14048000",
      "longitude": "-0.94000000"
   },
   {
      "name": "Campbon",
      "countryCode": "FR",
      "stateCode": "PDL",
      "latitude": "47.41310000",
      "longitude": "-1.96857000"
   },
   {
      "name": "Candé",
      "countryCode": "FR",
      "stateCode": "PDL",
      "latitude": "47.56158000",
      "longitude": "-1.03619000"
   },
   {
      "name": "Cantenay-Épinard",
      "countryCode": "FR",
      "stateCode": "PDL",
      "latitude": "47.53503000",
      "longitude": "-0.56899000"
   },
   {
      "name": "Carquefou",
      "countryCode": "FR",
      "stateCode": "PDL",
      "latitude": "47.29821000",
      "longitude": "-1.49024000"
   },
   {
      "name": "Casson",
      "countryCode": "FR",
      "stateCode": "PDL",
      "latitude": "47.38761000",
      "longitude": "-1.55654000"
   },
   {
      "name": "Chacé",
      "countryCode": "FR",
      "stateCode": "PDL",
      "latitude": "47.21435000",
      "longitude": "-0.07179000"
   },
   {
      "name": "Chailland",
      "countryCode": "FR",
      "stateCode": "PDL",
      "latitude": "48.22516000",
      "longitude": "-0.87387000"
   },
   {
      "name": "Chaillé-les-Marais",
      "countryCode": "FR",
      "stateCode": "PDL",
      "latitude": "46.39628000",
      "longitude": "-1.02369000"
   },
   {
      "name": "Challans",
      "countryCode": "FR",
      "stateCode": "PDL",
      "latitude": "46.84363000",
      "longitude": "-1.87491000"
   },
   {
      "name": "Challes",
      "countryCode": "FR",
      "stateCode": "PDL",
      "latitude": "47.93033000",
      "longitude": "0.41511000"
   },
   {
      "name": "Chalonnes-sur-Loire",
      "countryCode": "FR",
      "stateCode": "PDL",
      "latitude": "47.35160000",
      "longitude": "-0.76310000"
   },
   {
      "name": "Chambretaud",
      "countryCode": "FR",
      "stateCode": "PDL",
      "latitude": "46.92166000",
      "longitude": "-0.96405000"
   },
   {
      "name": "Champagné",
      "countryCode": "FR",
      "stateCode": "PDL",
      "latitude": "48.02185000",
      "longitude": "0.33096000"
   },
   {
      "name": "Champagné-les-Marais",
      "countryCode": "FR",
      "stateCode": "PDL",
      "latitude": "46.38081000",
      "longitude": "-1.12112000"
   },
   {
      "name": "Champfleur",
      "countryCode": "FR",
      "stateCode": "PDL",
      "latitude": "48.38668000",
      "longitude": "0.12942000"
   },
   {
      "name": "Champigné",
      "countryCode": "FR",
      "stateCode": "PDL",
      "latitude": "47.66332000",
      "longitude": "-0.57160000"
   },
   {
      "name": "Champtoceaux",
      "countryCode": "FR",
      "stateCode": "PDL",
      "latitude": "47.33476000",
      "longitude": "-1.26131000"
   },
   {
      "name": "Champtocé-sur-Loire",
      "countryCode": "FR",
      "stateCode": "PDL",
      "latitude": "47.41239000",
      "longitude": "-0.86452000"
   },
   {
      "name": "Changé",
      "countryCode": "FR",
      "stateCode": "PDL",
      "latitude": "48.09918000",
      "longitude": "-0.79292000"
   },
   {
      "name": "Chantonnay",
      "countryCode": "FR",
      "stateCode": "PDL",
      "latitude": "46.68702000",
      "longitude": "-1.05024000"
   },
   {
      "name": "Chauché",
      "countryCode": "FR",
      "stateCode": "PDL",
      "latitude": "46.82963000",
      "longitude": "-1.27178000"
   },
   {
      "name": "Chaudron-en-Mauges",
      "countryCode": "FR",
      "stateCode": "PDL",
      "latitude": "47.28809000",
      "longitude": "-0.98547000"
   },
   {
      "name": "Chauvé",
      "countryCode": "FR",
      "stateCode": "PDL",
      "latitude": "47.15174000",
      "longitude": "-1.98489000"
   },
   {
      "name": "Chavagnes-en-Paillers",
      "countryCode": "FR",
      "stateCode": "PDL",
      "latitude": "46.89167000",
      "longitude": "-1.25214000"
   },
   {
      "name": "Chemazé",
      "countryCode": "FR",
      "stateCode": "PDL",
      "latitude": "47.78690000",
      "longitude": "-0.77523000"
   },
   {
      "name": "Chemillé-Melay",
      "countryCode": "FR",
      "stateCode": "PDL",
      "latitude": "47.21476000",
      "longitude": "-0.72488000"
   },
   {
      "name": "Cherré",
      "countryCode": "FR",
      "stateCode": "PDL",
      "latitude": "48.17290000",
      "longitude": "0.65781000"
   },
   {
      "name": "Cholet",
      "countryCode": "FR",
      "stateCode": "PDL",
      "latitude": "47.05905000",
      "longitude": "-0.87953000"
   },
   {
      "name": "Château-Gontier",
      "countryCode": "FR",
      "stateCode": "PDL",
      "latitude": "47.82872000",
      "longitude": "-0.70265000"
   },
   {
      "name": "Château-Guibert",
      "countryCode": "FR",
      "stateCode": "PDL",
      "latitude": "46.58110000",
      "longitude": "-1.23656000"
   },
   {
      "name": "Château-du-Loir",
      "countryCode": "FR",
      "stateCode": "PDL",
      "latitude": "47.69492000",
      "longitude": "0.41851000"
   },
   {
      "name": "Château-d’Olonne",
      "countryCode": "FR",
      "stateCode": "PDL",
      "latitude": "46.50382000",
      "longitude": "-1.74097000"
   },
   {
      "name": "Châteaubriant",
      "countryCode": "FR",
      "stateCode": "PDL",
      "latitude": "47.71712000",
      "longitude": "-1.37624000"
   },
   {
      "name": "Châteauneuf-sur-Sarthe",
      "countryCode": "FR",
      "stateCode": "PDL",
      "latitude": "47.68145000",
      "longitude": "-0.48652000"
   },
   {
      "name": "Chéméré",
      "countryCode": "FR",
      "stateCode": "PDL",
      "latitude": "47.11667000",
      "longitude": "-1.91667000"
   },
   {
      "name": "Chênehutte-Trèves-Cunault",
      "countryCode": "FR",
      "stateCode": "PDL",
      "latitude": "47.31084000",
      "longitude": "-0.16042000"
   },
   {
      "name": "Clermont-Créans",
      "countryCode": "FR",
      "stateCode": "PDL",
      "latitude": "47.71831000",
      "longitude": "-0.01459000"
   },
   {
      "name": "Clisson",
      "countryCode": "FR",
      "stateCode": "PDL",
      "latitude": "47.08714000",
      "longitude": "-1.28286000"
   },
   {
      "name": "Combrée",
      "countryCode": "FR",
      "stateCode": "PDL",
      "latitude": "47.70446000",
      "longitude": "-1.03003000"
   },
   {
      "name": "Commequiers",
      "countryCode": "FR",
      "stateCode": "PDL",
      "latitude": "46.76049000",
      "longitude": "-1.83901000"
   },
   {
      "name": "Commer",
      "countryCode": "FR",
      "stateCode": "PDL",
      "latitude": "48.23333000",
      "longitude": "-0.61667000"
   },
   {
      "name": "Congrier",
      "countryCode": "FR",
      "stateCode": "PDL",
      "latitude": "47.80989000",
      "longitude": "-1.11700000"
   },
   {
      "name": "Conlie",
      "countryCode": "FR",
      "stateCode": "PDL",
      "latitude": "48.12334000",
      "longitude": "-0.01739000"
   },
   {
      "name": "Connerré",
      "countryCode": "FR",
      "stateCode": "PDL",
      "latitude": "48.05698000",
      "longitude": "0.49344000"
   },
   {
      "name": "Conquereuil",
      "countryCode": "FR",
      "stateCode": "PDL",
      "latitude": "47.62524000",
      "longitude": "-1.75105000"
   },
   {
      "name": "Corcoué-sur-Logne",
      "countryCode": "FR",
      "stateCode": "PDL",
      "latitude": "46.96667000",
      "longitude": "-1.58333000"
   },
   {
      "name": "Cordemais",
      "countryCode": "FR",
      "stateCode": "PDL",
      "latitude": "47.29107000",
      "longitude": "-1.87869000"
   },
   {
      "name": "Corné",
      "countryCode": "FR",
      "stateCode": "PDL",
      "latitude": "47.47091000",
      "longitude": "-0.34992000"
   },
   {
      "name": "Coron",
      "countryCode": "FR",
      "stateCode": "PDL",
      "latitude": "47.12726000",
      "longitude": "-0.64512000"
   },
   {
      "name": "Corsept",
      "countryCode": "FR",
      "stateCode": "PDL",
      "latitude": "47.27703000",
      "longitude": "-2.05904000"
   },
   {
      "name": "Corzé",
      "countryCode": "FR",
      "stateCode": "PDL",
      "latitude": "47.55956000",
      "longitude": "-0.39062000"
   },
   {
      "name": "Cossé-le-Vivien",
      "countryCode": "FR",
      "stateCode": "PDL",
      "latitude": "47.94599000",
      "longitude": "-0.91185000"
   },
   {
      "name": "Couffé",
      "countryCode": "FR",
      "stateCode": "PDL",
      "latitude": "47.39120000",
      "longitude": "-1.29321000"
   },
   {
      "name": "Coulaines",
      "countryCode": "FR",
      "stateCode": "PDL",
      "latitude": "48.02409000",
      "longitude": "0.20411000"
   },
   {
      "name": "Coulans-sur-Gée",
      "countryCode": "FR",
      "stateCode": "PDL",
      "latitude": "48.02070000",
      "longitude": "0.00974000"
   },
   {
      "name": "Courcité",
      "countryCode": "FR",
      "stateCode": "PDL",
      "latitude": "48.30633000",
      "longitude": "-0.24961000"
   },
   {
      "name": "Couëron",
      "countryCode": "FR",
      "stateCode": "PDL",
      "latitude": "47.21508000",
      "longitude": "-1.72171000"
   },
   {
      "name": "Coëx",
      "countryCode": "FR",
      "stateCode": "PDL",
      "latitude": "46.69808000",
      "longitude": "-1.75956000"
   },
   {
      "name": "Craon",
      "countryCode": "FR",
      "stateCode": "PDL",
      "latitude": "47.84687000",
      "longitude": "-0.94929000"
   },
   {
      "name": "Crossac",
      "countryCode": "FR",
      "stateCode": "PDL",
      "latitude": "47.41119000",
      "longitude": "-2.16952000"
   },
   {
      "name": "Cugand",
      "countryCode": "FR",
      "stateCode": "PDL",
      "latitude": "47.06318000",
      "longitude": "-1.25270000"
   },
   {
      "name": "Cérans-Foulletourte",
      "countryCode": "FR",
      "stateCode": "PDL",
      "latitude": "47.82651000",
      "longitude": "0.07724000"
   },
   {
      "name": "Daumeray",
      "countryCode": "FR",
      "stateCode": "PDL",
      "latitude": "47.70070000",
      "longitude": "-0.36119000"
   },
   {
      "name": "Denée",
      "countryCode": "FR",
      "stateCode": "PDL",
      "latitude": "47.37885000",
      "longitude": "-0.60816000"
   },
   {
      "name": "Derval",
      "countryCode": "FR",
      "stateCode": "PDL",
      "latitude": "47.66724000",
      "longitude": "-1.66990000"
   },
   {
      "name": "Distré",
      "countryCode": "FR",
      "stateCode": "PDL",
      "latitude": "47.22281000",
      "longitude": "-0.11071000"
   },
   {
      "name": "Dollon",
      "countryCode": "FR",
      "stateCode": "PDL",
      "latitude": "48.03879000",
      "longitude": "0.58686000"
   },
   {
      "name": "Dompierre-sur-Yon",
      "countryCode": "FR",
      "stateCode": "PDL",
      "latitude": "46.73857000",
      "longitude": "-1.38463000"
   },
   {
      "name": "Donges",
      "countryCode": "FR",
      "stateCode": "PDL",
      "latitude": "47.31824000",
      "longitude": "-2.07538000"
   },
   {
      "name": "Doué-la-Fontaine",
      "countryCode": "FR",
      "stateCode": "PDL",
      "latitude": "47.19372000",
      "longitude": "-0.27492000"
   },
   {
      "name": "Drain",
      "countryCode": "FR",
      "stateCode": "PDL",
      "latitude": "47.33655000",
      "longitude": "-1.20773000"
   },
   {
      "name": "Drefféac",
      "countryCode": "FR",
      "stateCode": "PDL",
      "latitude": "47.47464000",
      "longitude": "-2.05774000"
   },
   {
      "name": "Durtal",
      "countryCode": "FR",
      "stateCode": "PDL",
      "latitude": "47.67247000",
      "longitude": "-0.23393000"
   },
   {
      "name": "Département de Maine-et-Loire",
      "countryCode": "FR",
      "stateCode": "PDL",
      "latitude": "47.50000000",
      "longitude": "-0.33333000"
   },
   {
      "name": "Département de la Vendée",
      "countryCode": "FR",
      "stateCode": "PDL",
      "latitude": "46.64169000",
      "longitude": "-1.30407000"
   },
   {
      "name": "Entrammes",
      "countryCode": "FR",
      "stateCode": "PDL",
      "latitude": "47.99759000",
      "longitude": "-0.71399000"
   },
   {
      "name": "Erbray",
      "countryCode": "FR",
      "stateCode": "PDL",
      "latitude": "47.65492000",
      "longitude": "-1.31783000"
   },
   {
      "name": "Ernée",
      "countryCode": "FR",
      "stateCode": "PDL",
      "latitude": "48.29764000",
      "longitude": "-0.93143000"
   },
   {
      "name": "Falleron",
      "countryCode": "FR",
      "stateCode": "PDL",
      "latitude": "46.88160000",
      "longitude": "-1.70208000"
   },
   {
      "name": "Fay-de-Bretagne",
      "countryCode": "FR",
      "stateCode": "PDL",
      "latitude": "47.41453000",
      "longitude": "-1.79155000"
   },
   {
      "name": "Feneu",
      "countryCode": "FR",
      "stateCode": "PDL",
      "latitude": "47.57211000",
      "longitude": "-0.59422000"
   },
   {
      "name": "Fillé",
      "countryCode": "FR",
      "stateCode": "PDL",
      "latitude": "47.90011000",
      "longitude": "0.12543000"
   },
   {
      "name": "Fontenay-le-Comte",
      "countryCode": "FR",
      "stateCode": "PDL",
      "latitude": "46.46720000",
      "longitude": "-0.80645000"
   },
   {
      "name": "Fontevraud-l'Abbaye",
      "countryCode": "FR",
      "stateCode": "PDL",
      "latitude": "47.18333000",
      "longitude": "0.05000000"
   },
   {
      "name": "Fougerolles-du-Plessis",
      "countryCode": "FR",
      "stateCode": "PDL",
      "latitude": "48.47424000",
      "longitude": "-0.97255000"
   },
   {
      "name": "Foussais-Payré",
      "countryCode": "FR",
      "stateCode": "PDL",
      "latitude": "46.53333000",
      "longitude": "-0.68333000"
   },
   {
      "name": "Freigné",
      "countryCode": "FR",
      "stateCode": "PDL",
      "latitude": "47.54858000",
      "longitude": "-1.12274000"
   },
   {
      "name": "Fresnay-sur-Sarthe",
      "countryCode": "FR",
      "stateCode": "PDL",
      "latitude": "48.28199000",
      "longitude": "0.02288000"
   },
   {
      "name": "Froidfond",
      "countryCode": "FR",
      "stateCode": "PDL",
      "latitude": "46.86898000",
      "longitude": "-1.75740000"
   },
   {
      "name": "Frossay",
      "countryCode": "FR",
      "stateCode": "PDL",
      "latitude": "47.24451000",
      "longitude": "-1.93557000"
   },
   {
      "name": "Fégréac",
      "countryCode": "FR",
      "stateCode": "PDL",
      "latitude": "47.58476000",
      "longitude": "-2.04410000"
   },
   {
      "name": "Geneston",
      "countryCode": "FR",
      "stateCode": "PDL",
      "latitude": "47.05639000",
      "longitude": "-1.51139000"
   },
   {
      "name": "Gennes",
      "countryCode": "FR",
      "stateCode": "PDL",
      "latitude": "47.34010000",
      "longitude": "-0.23149000"
   },
   {
      "name": "Gesté",
      "countryCode": "FR",
      "stateCode": "PDL",
      "latitude": "47.18179000",
      "longitude": "-1.10917000"
   },
   {
      "name": "Givrand",
      "countryCode": "FR",
      "stateCode": "PDL",
      "latitude": "46.67083000",
      "longitude": "-1.88612000"
   },
   {
      "name": "Gorges",
      "countryCode": "FR",
      "stateCode": "PDL",
      "latitude": "47.09917000",
      "longitude": "-1.30024000"
   },
   {
      "name": "Gorron",
      "countryCode": "FR",
      "stateCode": "PDL",
      "latitude": "48.41095000",
      "longitude": "-0.81267000"
   },
   {
      "name": "Grez-Neuville",
      "countryCode": "FR",
      "stateCode": "PDL",
      "latitude": "47.60288000",
      "longitude": "-0.68193000"
   },
   {
      "name": "Grosbreuil",
      "countryCode": "FR",
      "stateCode": "PDL",
      "latitude": "46.53946000",
      "longitude": "-1.61655000"
   },
   {
      "name": "Guenrouet",
      "countryCode": "FR",
      "stateCode": "PDL",
      "latitude": "47.51881000",
      "longitude": "-1.95381000"
   },
   {
      "name": "Guécélard",
      "countryCode": "FR",
      "stateCode": "PDL",
      "latitude": "47.87751000",
      "longitude": "0.12930000"
   },
   {
      "name": "Guémené-Penfao",
      "countryCode": "FR",
      "stateCode": "PDL",
      "latitude": "47.63333000",
      "longitude": "-1.83333000"
   },
   {
      "name": "Guérande",
      "countryCode": "FR",
      "stateCode": "PDL",
      "latitude": "47.32911000",
      "longitude": "-2.42829000"
   },
   {
      "name": "Gétigné",
      "countryCode": "FR",
      "stateCode": "PDL",
      "latitude": "47.07650000",
      "longitude": "-1.24810000"
   },
   {
      "name": "Haute-Goulaine",
      "countryCode": "FR",
      "stateCode": "PDL",
      "latitude": "47.19905000",
      "longitude": "-1.42941000"
   },
   {
      "name": "Herbignac",
      "countryCode": "FR",
      "stateCode": "PDL",
      "latitude": "47.44822000",
      "longitude": "-2.31810000"
   },
   {
      "name": "Héric",
      "countryCode": "FR",
      "stateCode": "PDL",
      "latitude": "47.41417000",
      "longitude": "-1.65309000"
   },
   {
      "name": "Indre",
      "countryCode": "FR",
      "stateCode": "PDL",
      "latitude": "47.20000000",
      "longitude": "-1.66667000"
   },
   {
      "name": "Ingrandes",
      "countryCode": "FR",
      "stateCode": "PDL",
      "latitude": "47.40500000",
      "longitude": "-0.92336000"
   },
   {
      "name": "Issé",
      "countryCode": "FR",
      "stateCode": "PDL",
      "latitude": "47.62419000",
      "longitude": "-1.45152000"
   },
   {
      "name": "Jallais",
      "countryCode": "FR",
      "stateCode": "PDL",
      "latitude": "47.19691000",
      "longitude": "-0.86738000"
   },
   {
      "name": "Jans",
      "countryCode": "FR",
      "stateCode": "PDL",
      "latitude": "47.62029000",
      "longitude": "-1.61438000"
   },
   {
      "name": "Jard-sur-Mer",
      "countryCode": "FR",
      "stateCode": "PDL",
      "latitude": "46.41451000",
      "longitude": "-1.57639000"
   },
   {
      "name": "Jarzé",
      "countryCode": "FR",
      "stateCode": "PDL",
      "latitude": "47.55563000",
      "longitude": "-0.23183000"
   },
   {
      "name": "Javron-les-Chapelles",
      "countryCode": "FR",
      "stateCode": "PDL",
      "latitude": "48.41797000",
      "longitude": "-0.33742000"
   },
   {
      "name": "Juigné",
      "countryCode": "FR",
      "stateCode": "PDL",
      "latitude": "47.71878000",
      "longitude": "-0.39405000"
   },
   {
      "name": "Juigné-sur-Loire",
      "countryCode": "FR",
      "stateCode": "PDL",
      "latitude": "47.40741000",
      "longitude": "-0.47682000"
   },
   {
      "name": "Juigné-sur-Sarthe",
      "countryCode": "FR",
      "stateCode": "PDL",
      "latitude": "47.86499000",
      "longitude": "-0.28624000"
   },
   {
      "name": "Jumelles",
      "countryCode": "FR",
      "stateCode": "PDL",
      "latitude": "47.43511000",
      "longitude": "-0.10370000"
   },
   {
      "name": "Juvigné",
      "countryCode": "FR",
      "stateCode": "PDL",
      "latitude": "48.22891000",
      "longitude": "-1.03408000"
   },
   {
      "name": "La Baconnière",
      "countryCode": "FR",
      "stateCode": "PDL",
      "latitude": "48.18012000",
      "longitude": "-0.89202000"
   },
   {
      "name": "La Barre-de-Monts",
      "countryCode": "FR",
      "stateCode": "PDL",
      "latitude": "46.88059000",
      "longitude": "-2.12168000"
   },
   {
      "name": "La Baule-Escoublac",
      "countryCode": "FR",
      "stateCode": "PDL",
      "latitude": "47.29221000",
      "longitude": "-2.36395000"
   },
   {
      "name": "La Bazoge",
      "countryCode": "FR",
      "stateCode": "PDL",
      "latitude": "48.09689000",
      "longitude": "0.15534000"
   },
   {
      "name": "La Bernardière",
      "countryCode": "FR",
      "stateCode": "PDL",
      "latitude": "47.04952000",
      "longitude": "-1.26587000"
   },
   {
      "name": "La Bernerie-en-Retz",
      "countryCode": "FR",
      "stateCode": "PDL",
      "latitude": "47.08040000",
      "longitude": "-2.03642000"
   },
   {
      "name": "La Bohalle",
      "countryCode": "FR",
      "stateCode": "PDL",
      "latitude": "47.42095000",
      "longitude": "-0.39723000"
   },
   {
      "name": "La Boissière-de-Montaigu",
      "countryCode": "FR",
      "stateCode": "PDL",
      "latitude": "46.95012000",
      "longitude": "-1.19047000"
   },
   {
      "name": "La Boissière-des-Landes",
      "countryCode": "FR",
      "stateCode": "PDL",
      "latitude": "46.56398000",
      "longitude": "-1.46172000"
   },
   {
      "name": "La Bruffière",
      "countryCode": "FR",
      "stateCode": "PDL",
      "latitude": "47.01492000",
      "longitude": "-1.19730000"
   },
   {
      "name": "La Chaize-le-Vicomte",
      "countryCode": "FR",
      "stateCode": "PDL",
      "latitude": "46.67166000",
      "longitude": "-1.29084000"
   },
   {
      "name": "La Chapelle-Achard",
      "countryCode": "FR",
      "stateCode": "PDL",
      "latitude": "46.58862000",
      "longitude": "-1.64757000"
   },
   {
      "name": "La Chapelle-Basse-Mer",
      "countryCode": "FR",
      "stateCode": "PDL",
      "latitude": "47.27086000",
      "longitude": "-1.33913000"
   },
   {
      "name": "La Chapelle-Heulin",
      "countryCode": "FR",
      "stateCode": "PDL",
      "latitude": "47.17667000",
      "longitude": "-1.34000000"
   },
   {
      "name": "La Chapelle-Launay",
      "countryCode": "FR",
      "stateCode": "PDL",
      "latitude": "47.37226000",
      "longitude": "-1.97071000"
   },
   {
      "name": "La Chapelle-Saint-Aubin",
      "countryCode": "FR",
      "stateCode": "PDL",
      "latitude": "48.03595000",
      "longitude": "0.15624000"
   },
   {
      "name": "La Chapelle-Saint-Florent",
      "countryCode": "FR",
      "stateCode": "PDL",
      "latitude": "47.33393000",
      "longitude": "-1.05631000"
   },
   {
      "name": "La Chapelle-des-Marais",
      "countryCode": "FR",
      "stateCode": "PDL",
      "latitude": "47.44845000",
      "longitude": "-2.23834000"
   },
   {
      "name": "La Chapelle-du-Genêt",
      "countryCode": "FR",
      "stateCode": "PDL",
      "latitude": "47.18203000",
      "longitude": "-1.01857000"
   },
   {
      "name": "La Chapelle-sur-Erdre",
      "countryCode": "FR",
      "stateCode": "PDL",
      "latitude": "47.29583000",
      "longitude": "-1.55309000"
   },
   {
      "name": "La Chartre-sur-le-Loir",
      "countryCode": "FR",
      "stateCode": "PDL",
      "latitude": "47.73117000",
      "longitude": "0.56852000"
   },
   {
      "name": "La Chevrolière",
      "countryCode": "FR",
      "stateCode": "PDL",
      "latitude": "47.09124000",
      "longitude": "-1.60973000"
   },
   {
      "name": "La Châtaigneraie",
      "countryCode": "FR",
      "stateCode": "PDL",
      "latitude": "46.64786000",
      "longitude": "-0.73916000"
   },
   {
      "name": "La Daguenière",
      "countryCode": "FR",
      "stateCode": "PDL",
      "latitude": "47.41934000",
      "longitude": "-0.43128000"
   },
   {
      "name": "La Ferrière",
      "countryCode": "FR",
      "stateCode": "PDL",
      "latitude": "46.71453000",
      "longitude": "-1.31417000"
   },
   {
      "name": "La Ferté-Bernard",
      "countryCode": "FR",
      "stateCode": "PDL",
      "latitude": "48.18633000",
      "longitude": "0.65357000"
   },
   {
      "name": "La Flocellière",
      "countryCode": "FR",
      "stateCode": "PDL",
      "latitude": "46.83202000",
      "longitude": "-0.86215000"
   },
   {
      "name": "La Flèche",
      "countryCode": "FR",
      "stateCode": "PDL",
      "latitude": "47.69815000",
      "longitude": "-0.07553000"
   },
   {
      "name": "La Garnache",
      "countryCode": "FR",
      "stateCode": "PDL",
      "latitude": "46.89176000",
      "longitude": "-1.83163000"
   },
   {
      "name": "La Gaubretière",
      "countryCode": "FR",
      "stateCode": "PDL",
      "latitude": "46.94143000",
      "longitude": "-1.06215000"
   },
   {
      "name": "La Grigonnais",
      "countryCode": "FR",
      "stateCode": "PDL",
      "latitude": "47.52724000",
      "longitude": "-1.66781000"
   },
   {
      "name": "La Guyonnière",
      "countryCode": "FR",
      "stateCode": "PDL",
      "latitude": "46.96476000",
      "longitude": "-1.25059000"
   },
   {
      "name": "La Guérinière",
      "countryCode": "FR",
      "stateCode": "PDL",
      "latitude": "46.96667000",
      "longitude": "-2.23333000"
   },
   {
      "name": "La Génétouze",
      "countryCode": "FR",
      "stateCode": "PDL",
      "latitude": "46.73333000",
      "longitude": "-1.51667000"
   },
   {
      "name": "La Haie-Fouassière",
      "countryCode": "FR",
      "stateCode": "PDL",
      "latitude": "47.15492000",
      "longitude": "-1.39794000"
   },
   {
      "name": "La Jubaudière",
      "countryCode": "FR",
      "stateCode": "PDL",
      "latitude": "47.17202000",
      "longitude": "-0.89215000"
   },
   {
      "name": "La Jumellière",
      "countryCode": "FR",
      "stateCode": "PDL",
      "latitude": "47.27976000",
      "longitude": "-0.72952000"
   },
   {
      "name": "La Limouzinière",
      "countryCode": "FR",
      "stateCode": "PDL",
      "latitude": "46.99274000",
      "longitude": "-1.59722000"
   },
   {
      "name": "La Meignanne",
      "countryCode": "FR",
      "stateCode": "PDL",
      "latitude": "47.51700000",
      "longitude": "-0.66861000"
   },
   {
      "name": "La Meilleraie-Tillay",
      "countryCode": "FR",
      "stateCode": "PDL",
      "latitude": "46.74059000",
      "longitude": "-0.84500000"
   },
   {
      "name": "La Meilleraye-de-Bretagne",
      "countryCode": "FR",
      "stateCode": "PDL",
      "latitude": "47.55941000",
      "longitude": "-1.40200000"
   },
   {
      "name": "La Membrolle-sur-Longuenée",
      "countryCode": "FR",
      "stateCode": "PDL",
      "latitude": "47.55991000",
      "longitude": "-0.67236000"
   },
   {
      "name": "La Milesse",
      "countryCode": "FR",
      "stateCode": "PDL",
      "latitude": "48.06314000",
      "longitude": "0.13428000"
   },
   {
      "name": "La Montagne",
      "countryCode": "FR",
      "stateCode": "PDL",
      "latitude": "47.18651000",
      "longitude": "-1.68272000"
   },
   {
      "name": "La Mothe-Achard",
      "countryCode": "FR",
      "stateCode": "PDL",
      "latitude": "46.61586000",
      "longitude": "-1.65938000"
   },
   {
      "name": "La Ménitré",
      "countryCode": "FR",
      "stateCode": "PDL",
      "latitude": "47.40000000",
      "longitude": "-0.26667000"
   },
   {
      "name": "La Plaine-sur-Mer",
      "countryCode": "FR",
      "stateCode": "PDL",
      "latitude": "47.13619000",
      "longitude": "-2.19182000"
   },
   {
      "name": "La Planche",
      "countryCode": "FR",
      "stateCode": "PDL",
      "latitude": "47.01619000",
      "longitude": "-1.43159000"
   },
   {
      "name": "La Pommeraie-sur-Sèvre",
      "countryCode": "FR",
      "stateCode": "PDL",
      "latitude": "46.83535000",
      "longitude": "-0.77785000"
   },
   {
      "name": "La Pommeraye",
      "countryCode": "FR",
      "stateCode": "PDL",
      "latitude": "47.35562000",
      "longitude": "-0.85892000"
   },
   {
      "name": "La Possonnière",
      "countryCode": "FR",
      "stateCode": "PDL",
      "latitude": "47.37485000",
      "longitude": "-0.68539000"
   },
   {
      "name": "La Pouëze",
      "countryCode": "FR",
      "stateCode": "PDL",
      "latitude": "47.55357000",
      "longitude": "-0.80928000"
   },
   {
      "name": "La Regrippière",
      "countryCode": "FR",
      "stateCode": "PDL",
      "latitude": "47.18167000",
      "longitude": "-1.17620000"
   },
   {
      "name": "La Remaudière",
      "countryCode": "FR",
      "stateCode": "PDL",
      "latitude": "47.23762000",
      "longitude": "-1.24358000"
   },
   {
      "name": "La Roche-sur-Yon",
      "countryCode": "FR",
      "stateCode": "PDL",
      "latitude": "46.66667000",
      "longitude": "-1.43333000"
   },
   {
      "name": "La Romagne",
      "countryCode": "FR",
      "stateCode": "PDL",
      "latitude": "47.06119000",
      "longitude": "-1.02000000"
   },
   {
      "name": "La Salle-et-Chapelle-Aubry",
      "countryCode": "FR",
      "stateCode": "PDL",
      "latitude": "47.25013000",
      "longitude": "-0.97512000"
   },
   {
      "name": "La Suze-sur-Sarthe",
      "countryCode": "FR",
      "stateCode": "PDL",
      "latitude": "47.88753000",
      "longitude": "0.02519000"
   },
   {
      "name": "La Séguinière",
      "countryCode": "FR",
      "stateCode": "PDL",
      "latitude": "47.06357000",
      "longitude": "-0.93857000"
   },
   {
      "name": "La Tardière",
      "countryCode": "FR",
      "stateCode": "PDL",
      "latitude": "46.66096000",
      "longitude": "-0.73143000"
   },
   {
      "name": "La Tessoualle",
      "countryCode": "FR",
      "stateCode": "PDL",
      "latitude": "47.00476000",
      "longitude": "-0.85119000"
   },
   {
      "name": "La Tourlandry",
      "countryCode": "FR",
      "stateCode": "PDL",
      "latitude": "47.14375000",
      "longitude": "-0.69688000"
   },
   {
      "name": "La Tranche-sur-Mer",
      "countryCode": "FR",
      "stateCode": "PDL",
      "latitude": "46.34300000",
      "longitude": "-1.43700000"
   },
   {
      "name": "La Turballe",
      "countryCode": "FR",
      "stateCode": "PDL",
      "latitude": "47.34686000",
      "longitude": "-2.50734000"
   },
   {
      "name": "La Varenne",
      "countryCode": "FR",
      "stateCode": "PDL",
      "latitude": "47.31107000",
      "longitude": "-1.31976000"
   },
   {
      "name": "La Verrie",
      "countryCode": "FR",
      "stateCode": "PDL",
      "latitude": "46.96131000",
      "longitude": "-0.99596000"
   },
   {
      "name": "Laigné-en-Belin",
      "countryCode": "FR",
      "stateCode": "PDL",
      "latitude": "47.87706000",
      "longitude": "0.22795000"
   },
   {
      "name": "Landemont",
      "countryCode": "FR",
      "stateCode": "PDL",
      "latitude": "47.26536000",
      "longitude": "-1.23989000"
   },
   {
      "name": "Landeronde",
      "countryCode": "FR",
      "stateCode": "PDL",
      "latitude": "46.65722000",
      "longitude": "-1.56953000"
   },
   {
      "name": "Landivy",
      "countryCode": "FR",
      "stateCode": "PDL",
      "latitude": "48.47868000",
      "longitude": "-1.03320000"
   },
   {
      "name": "Larchamp",
      "countryCode": "FR",
      "stateCode": "PDL",
      "latitude": "48.36131000",
      "longitude": "-0.99900000"
   },
   {
      "name": "Lassay-les-Châteaux",
      "countryCode": "FR",
      "stateCode": "PDL",
      "latitude": "48.43835000",
      "longitude": "-0.49758000"
   },
   {
      "name": "Laval",
      "countryCode": "FR",
      "stateCode": "PDL",
      "latitude": "48.07320000",
      "longitude": "-0.76340000"
   },
   {
      "name": "Le Bignon",
      "countryCode": "FR",
      "stateCode": "PDL",
      "latitude": "47.09722000",
      "longitude": "-1.49167000"
   },
   {
      "name": "Le Boupère",
      "countryCode": "FR",
      "stateCode": "PDL",
      "latitude": "46.79595000",
      "longitude": "-0.92654000"
   },
   {
      "name": "Le Bourgneuf-la-Forêt",
      "countryCode": "FR",
      "stateCode": "PDL",
      "latitude": "48.16325000",
      "longitude": "-0.96963000"
   },
   {
      "name": "Le Breil-sur-Mérize",
      "countryCode": "FR",
      "stateCode": "PDL",
      "latitude": "48.00755000",
      "longitude": "0.47808000"
   },
   {
      "name": "Le Cellier",
      "countryCode": "FR",
      "stateCode": "PDL",
      "latitude": "47.31988000",
      "longitude": "-1.34584000"
   },
   {
      "name": "Le Champ-Saint-Père",
      "countryCode": "FR",
      "stateCode": "PDL",
      "latitude": "46.50773000",
      "longitude": "-1.34726000"
   },
   {
      "name": "Le Croisic",
      "countryCode": "FR",
      "stateCode": "PDL",
      "latitude": "47.29189000",
      "longitude": "-2.51380000"
   },
   {
      "name": "Le Fenouiller",
      "countryCode": "FR",
      "stateCode": "PDL",
      "latitude": "46.71901000",
      "longitude": "-1.90175000"
   },
   {
      "name": "Le Fief-Sauvin",
      "countryCode": "FR",
      "stateCode": "PDL",
      "latitude": "47.22143000",
      "longitude": "-1.04214000"
   },
   {
      "name": "Le Fuilet",
      "countryCode": "FR",
      "stateCode": "PDL",
      "latitude": "47.28345000",
      "longitude": "-1.11310000"
   },
   {
      "name": "Le Grand-Lucé",
      "countryCode": "FR",
      "stateCode": "PDL",
      "latitude": "47.86618000",
      "longitude": "0.46919000"
   },
   {
      "name": "Le Gâvre",
      "countryCode": "FR",
      "stateCode": "PDL",
      "latitude": "47.52131000",
      "longitude": "-1.74905000"
   },
   {
      "name": "Le Landreau",
      "countryCode": "FR",
      "stateCode": "PDL",
      "latitude": "47.20512000",
      "longitude": "-1.30452000"
   },
   {
      "name": "Le Langon",
      "countryCode": "FR",
      "stateCode": "PDL",
      "latitude": "46.43850000",
      "longitude": "-0.94767000"
   },
   {
      "name": "Le Longeron",
      "countryCode": "FR",
      "stateCode": "PDL",
      "latitude": "47.01845000",
      "longitude": "-1.05763000"
   },
   {
      "name": "Le Loroux-Bottereau",
      "countryCode": "FR",
      "stateCode": "PDL",
      "latitude": "47.23763000",
      "longitude": "-1.34952000"
   },
   {
      "name": "Le Louroux-Béconnais",
      "countryCode": "FR",
      "stateCode": "PDL",
      "latitude": "47.52211000",
      "longitude": "-0.88663000"
   },
   {
      "name": "Le Luart",
      "countryCode": "FR",
      "stateCode": "PDL",
      "latitude": "48.07053000",
      "longitude": "0.58564000"
   },
   {
      "name": "Le Lude",
      "countryCode": "FR",
      "stateCode": "PDL",
      "latitude": "47.64648000",
      "longitude": "0.15664000"
   },
   {
      "name": "Le Mans",
      "countryCode": "FR",
      "stateCode": "PDL",
      "latitude": "48.00039000",
      "longitude": "0.20471000"
   },
   {
      "name": "Le May-sur-Èvre",
      "countryCode": "FR",
      "stateCode": "PDL",
      "latitude": "47.13714000",
      "longitude": "-0.89227000"
   },
   {
      "name": "Le Mesnil-en-Vallée",
      "countryCode": "FR",
      "stateCode": "PDL",
      "latitude": "47.36551000",
      "longitude": "-0.93485000"
   },
   {
      "name": "Le Pallet",
      "countryCode": "FR",
      "stateCode": "PDL",
      "latitude": "47.13809000",
      "longitude": "-1.33476000"
   },
   {
      "name": "Le Pellerin",
      "countryCode": "FR",
      "stateCode": "PDL",
      "latitude": "47.19915000",
      "longitude": "-1.75514000"
   },
   {
      "name": "Le Perrier",
      "countryCode": "FR",
      "stateCode": "PDL",
      "latitude": "46.81932000",
      "longitude": "-1.99306000"
   },
   {
      "name": "Le Pin-en-Mauges",
      "countryCode": "FR",
      "stateCode": "PDL",
      "latitude": "47.25357000",
      "longitude": "-0.89917000"
   },
   {
      "name": "Le Plessis-Grammoire",
      "countryCode": "FR",
      "stateCode": "PDL",
      "latitude": "47.49884000",
      "longitude": "-0.43021000"
   },
   {
      "name": "Le Plessis-Macé",
      "countryCode": "FR",
      "stateCode": "PDL",
      "latitude": "47.54304000",
      "longitude": "-0.67436000"
   },
   {
      "name": "Le Poiré-sur-Vie",
      "countryCode": "FR",
      "stateCode": "PDL",
      "latitude": "46.76921000",
      "longitude": "-1.50938000"
   },
   {
      "name": "Le Pouliguen",
      "countryCode": "FR",
      "stateCode": "PDL",
      "latitude": "47.26973000",
      "longitude": "-2.42780000"
   },
   {
      "name": "Le Puy-Notre-Dame",
      "countryCode": "FR",
      "stateCode": "PDL",
      "latitude": "47.12551000",
      "longitude": "-0.23572000"
   },
   {
      "name": "Le Temple-de-Bretagne",
      "countryCode": "FR",
      "stateCode": "PDL",
      "latitude": "47.32737000",
      "longitude": "-1.78904000"
   },
   {
      "name": "Le Vieil-Baugé",
      "countryCode": "FR",
      "stateCode": "PDL",
      "latitude": "47.53193000",
      "longitude": "-0.11888000"
   },
   {
      "name": "Legé",
      "countryCode": "FR",
      "stateCode": "PDL",
      "latitude": "46.88484000",
      "longitude": "-1.60127000"
   },
   {
      "name": "Les Brouzils",
      "countryCode": "FR",
      "stateCode": "PDL",
      "latitude": "46.88571000",
      "longitude": "-1.32095000"
   },
   {
      "name": "Les Clouzeaux",
      "countryCode": "FR",
      "stateCode": "PDL",
      "latitude": "46.62881000",
      "longitude": "-1.50947000"
   },
   {
      "name": "Les Epesses",
      "countryCode": "FR",
      "stateCode": "PDL",
      "latitude": "46.88333000",
      "longitude": "-0.90000000"
   },
   {
      "name": "Les Essarts",
      "countryCode": "FR",
      "stateCode": "PDL",
      "latitude": "46.77440000",
      "longitude": "-1.22834000"
   },
   {
      "name": "Les Herbiers",
      "countryCode": "FR",
      "stateCode": "PDL",
      "latitude": "46.86667000",
      "longitude": "-1.01667000"
   },
   {
      "name": "Les Landes-Genusson",
      "countryCode": "FR",
      "stateCode": "PDL",
      "latitude": "46.96667000",
      "longitude": "-1.11667000"
   },
   {
      "name": "Les Lucs-sur-Boulogne",
      "countryCode": "FR",
      "stateCode": "PDL",
      "latitude": "46.84478000",
      "longitude": "-1.49445000"
   },
   {
      "name": "Les Magnils-Reigniers",
      "countryCode": "FR",
      "stateCode": "PDL",
      "latitude": "46.48333000",
      "longitude": "-1.21667000"
   },
   {
      "name": "Les Moutiers-en-Retz",
      "countryCode": "FR",
      "stateCode": "PDL",
      "latitude": "47.06375000",
      "longitude": "-1.99900000"
   },
   {
      "name": "Les Ponts-de-Cé",
      "countryCode": "FR",
      "stateCode": "PDL",
      "latitude": "47.42315000",
      "longitude": "-0.52477000"
   },
   {
      "name": "Les Rosiers-sur-Loire",
      "countryCode": "FR",
      "stateCode": "PDL",
      "latitude": "47.35000000",
      "longitude": "-0.21667000"
   },
   {
      "name": "Les Sables-d’Olonne",
      "countryCode": "FR",
      "stateCode": "PDL",
      "latitude": "46.49645000",
      "longitude": "-1.78472000"
   },
   {
      "name": "Les Sorinières",
      "countryCode": "FR",
      "stateCode": "PDL",
      "latitude": "47.14831000",
      "longitude": "-1.52932000"
   },
   {
      "name": "Les Touches",
      "countryCode": "FR",
      "stateCode": "PDL",
      "latitude": "47.44249000",
      "longitude": "-1.43097000"
   },
   {
      "name": "Ligné",
      "countryCode": "FR",
      "stateCode": "PDL",
      "latitude": "47.41096000",
      "longitude": "-1.37726000"
   },
   {
      "name": "Liré",
      "countryCode": "FR",
      "stateCode": "PDL",
      "latitude": "47.34322000",
      "longitude": "-1.16536000"
   },
   {
      "name": "Loire-Atlantique",
      "countryCode": "FR",
      "stateCode": "PDL",
      "latitude": "47.32863000",
      "longitude": "-1.65764000"
   },
   {
      "name": "Loiron",
      "countryCode": "FR",
      "stateCode": "PDL",
      "latitude": "48.06667000",
      "longitude": "-0.93333000"
   },
   {
      "name": "Lombron",
      "countryCode": "FR",
      "stateCode": "PDL",
      "latitude": "48.07879000",
      "longitude": "0.41869000"
   },
   {
      "name": "Longeville-sur-Mer",
      "countryCode": "FR",
      "stateCode": "PDL",
      "latitude": "46.41667000",
      "longitude": "-1.50000000"
   },
   {
      "name": "Louplande",
      "countryCode": "FR",
      "stateCode": "PDL",
      "latitude": "47.95000000",
      "longitude": "-0.05000000"
   },
   {
      "name": "Louverné",
      "countryCode": "FR",
      "stateCode": "PDL",
      "latitude": "48.12178000",
      "longitude": "-0.71721000"
   },
   {
      "name": "Loué",
      "countryCode": "FR",
      "stateCode": "PDL",
      "latitude": "47.99575000",
      "longitude": "-0.15450000"
   },
   {
      "name": "Luceau",
      "countryCode": "FR",
      "stateCode": "PDL",
      "latitude": "47.71167000",
      "longitude": "0.39734000"
   },
   {
      "name": "Luché-Pringé",
      "countryCode": "FR",
      "stateCode": "PDL",
      "latitude": "47.70326000",
      "longitude": "0.07549000"
   },
   {
      "name": "Lusanger",
      "countryCode": "FR",
      "stateCode": "PDL",
      "latitude": "47.68153000",
      "longitude": "-1.58857000"
   },
   {
      "name": "Luçon",
      "countryCode": "FR",
      "stateCode": "PDL",
      "latitude": "46.45773000",
      "longitude": "-1.16512000"
   },
   {
      "name": "Machecoul",
      "countryCode": "FR",
      "stateCode": "PDL",
      "latitude": "46.99358000",
      "longitude": "-1.82352000"
   },
   {
      "name": "Maché",
      "countryCode": "FR",
      "stateCode": "PDL",
      "latitude": "46.75405000",
      "longitude": "-1.68692000"
   },
   {
      "name": "Maillezais",
      "countryCode": "FR",
      "stateCode": "PDL",
      "latitude": "46.37267000",
      "longitude": "-0.73963000"
   },
   {
      "name": "Maisdon-sur-Sèvre",
      "countryCode": "FR",
      "stateCode": "PDL",
      "latitude": "47.09714000",
      "longitude": "-1.38000000"
   },
   {
      "name": "Malicorne-sur-Sarthe",
      "countryCode": "FR",
      "stateCode": "PDL",
      "latitude": "47.81317000",
      "longitude": "-0.08152000"
   },
   {
      "name": "Malville",
      "countryCode": "FR",
      "stateCode": "PDL",
      "latitude": "47.35905000",
      "longitude": "-1.86227000"
   },
   {
      "name": "Mamers",
      "countryCode": "FR",
      "stateCode": "PDL",
      "latitude": "48.34961000",
      "longitude": "0.36937000"
   },
   {
      "name": "Mansigné",
      "countryCode": "FR",
      "stateCode": "PDL",
      "latitude": "47.74833000",
      "longitude": "0.13311000"
   },
   {
      "name": "Mareuil-sur-Lay-Dissais",
      "countryCode": "FR",
      "stateCode": "PDL",
      "latitude": "46.53333000",
      "longitude": "-1.23333000"
   },
   {
      "name": "Marigné-Laillé",
      "countryCode": "FR",
      "stateCode": "PDL",
      "latitude": "47.81765000",
      "longitude": "0.34050000"
   },
   {
      "name": "Marolles-les-Braults",
      "countryCode": "FR",
      "stateCode": "PDL",
      "latitude": "48.25271000",
      "longitude": "0.31631000"
   },
   {
      "name": "Marsac-sur-Don",
      "countryCode": "FR",
      "stateCode": "PDL",
      "latitude": "47.59648000",
      "longitude": "-1.67952000"
   },
   {
      "name": "Martigné-Briand",
      "countryCode": "FR",
      "stateCode": "PDL",
      "latitude": "47.23358000",
      "longitude": "-0.42933000"
   },
   {
      "name": "Martigné-sur-Mayenne",
      "countryCode": "FR",
      "stateCode": "PDL",
      "latitude": "48.20000000",
      "longitude": "-0.66667000"
   },
   {
      "name": "Marçon",
      "countryCode": "FR",
      "stateCode": "PDL",
      "latitude": "47.71059000",
      "longitude": "0.51101000"
   },
   {
      "name": "Maulévrier",
      "countryCode": "FR",
      "stateCode": "PDL",
      "latitude": "47.00929000",
      "longitude": "-0.74239000"
   },
   {
      "name": "Mauves-sur-Loire",
      "countryCode": "FR",
      "stateCode": "PDL",
      "latitude": "47.29738000",
      "longitude": "-1.38763000"
   },
   {
      "name": "Mayenne",
      "countryCode": "FR",
      "stateCode": "PDL",
      "latitude": "48.13494000",
      "longitude": "-0.66667000"
   },
   {
      "name": "Mayet",
      "countryCode": "FR",
      "stateCode": "PDL",
      "latitude": "47.75968000",
      "longitude": "0.27468000"
   },
   {
      "name": "Mazières-en-Mauges",
      "countryCode": "FR",
      "stateCode": "PDL",
      "latitude": "47.04536000",
      "longitude": "-0.81702000"
   },
   {
      "name": "Mazé",
      "countryCode": "FR",
      "stateCode": "PDL",
      "latitude": "47.45632000",
      "longitude": "-0.27106000"
   },
   {
      "name": "Melay",
      "countryCode": "FR",
      "stateCode": "PDL",
      "latitude": "47.18333000",
      "longitude": "-0.69429000"
   },
   {
      "name": "Mervent",
      "countryCode": "FR",
      "stateCode": "PDL",
      "latitude": "46.52239000",
      "longitude": "-0.75654000"
   },
   {
      "name": "Meslay-du-Maine",
      "countryCode": "FR",
      "stateCode": "PDL",
      "latitude": "47.95116000",
      "longitude": "-0.55428000"
   },
   {
      "name": "Mesquer",
      "countryCode": "FR",
      "stateCode": "PDL",
      "latitude": "47.39919000",
      "longitude": "-2.45986000"
   },
   {
      "name": "Miré",
      "countryCode": "FR",
      "stateCode": "PDL",
      "latitude": "47.75759000",
      "longitude": "-0.49157000"
   },
   {
      "name": "Missillac",
      "countryCode": "FR",
      "stateCode": "PDL",
      "latitude": "47.48155000",
      "longitude": "-2.16000000"
   },
   {
      "name": "Moisdon-la-Rivière",
      "countryCode": "FR",
      "stateCode": "PDL",
      "latitude": "47.62175000",
      "longitude": "-1.37258000"
   },
   {
      "name": "Moncé-en-Belin",
      "countryCode": "FR",
      "stateCode": "PDL",
      "latitude": "47.89442000",
      "longitude": "0.19809000"
   },
   {
      "name": "Monnières",
      "countryCode": "FR",
      "stateCode": "PDL",
      "latitude": "47.13301000",
      "longitude": "-1.35317000"
   },
   {
      "name": "Montaigu",
      "countryCode": "FR",
      "stateCode": "PDL",
      "latitude": "46.97667000",
      "longitude": "-1.30846000"
   },
   {
      "name": "Montbert",
      "countryCode": "FR",
      "stateCode": "PDL",
      "latitude": "47.05613000",
      "longitude": "-1.48890000"
   },
   {
      "name": "Montbizot",
      "countryCode": "FR",
      "stateCode": "PDL",
      "latitude": "48.14995000",
      "longitude": "0.18384000"
   },
   {
      "name": "Montenay",
      "countryCode": "FR",
      "stateCode": "PDL",
      "latitude": "48.28787000",
      "longitude": "-0.89373000"
   },
   {
      "name": "Montfaucon-Montigné",
      "countryCode": "FR",
      "stateCode": "PDL",
      "latitude": "47.10000000",
      "longitude": "-1.11667000"
   },
   {
      "name": "Montfort-le-Gesnois",
      "countryCode": "FR",
      "stateCode": "PDL",
      "latitude": "48.05000000",
      "longitude": "0.41667000"
   },
   {
      "name": "Montigné-le-Brillant",
      "countryCode": "FR",
      "stateCode": "PDL",
      "latitude": "48.00872000",
      "longitude": "-0.81488000"
   },
   {
      "name": "Montjean-sur-Loire",
      "countryCode": "FR",
      "stateCode": "PDL",
      "latitude": "47.38842000",
      "longitude": "-0.85873000"
   },
   {
      "name": "Montoir-de-Bretagne",
      "countryCode": "FR",
      "stateCode": "PDL",
      "latitude": "47.33012000",
      "longitude": "-2.15107000"
   },
   {
      "name": "Montournais",
      "countryCode": "FR",
      "stateCode": "PDL",
      "latitude": "46.74191000",
      "longitude": "-0.76464000"
   },
   {
      "name": "Montreuil-Bellay",
      "countryCode": "FR",
      "stateCode": "PDL",
      "latitude": "47.13106000",
      "longitude": "-0.15209000"
   },
   {
      "name": "Montrevault",
      "countryCode": "FR",
      "stateCode": "PDL",
      "latitude": "47.25965000",
      "longitude": "-1.04679000"
   },
   {
      "name": "Montsûrs",
      "countryCode": "FR",
      "stateCode": "PDL",
      "latitude": "48.13604000",
      "longitude": "-0.55413000"
   },
   {
      "name": "Morannes",
      "countryCode": "FR",
      "stateCode": "PDL",
      "latitude": "47.74364000",
      "longitude": "-0.41604000"
   },
   {
      "name": "Mortagne-sur-Sèvre",
      "countryCode": "FR",
      "stateCode": "PDL",
      "latitude": "46.99203000",
      "longitude": "-0.94738000"
   },
   {
      "name": "Mouchamps",
      "countryCode": "FR",
      "stateCode": "PDL",
      "latitude": "46.78131000",
      "longitude": "-1.06179000"
   },
   {
      "name": "Mouilleron-en-Pareds",
      "countryCode": "FR",
      "stateCode": "PDL",
      "latitude": "46.67630000",
      "longitude": "-0.84940000"
   },
   {
      "name": "Mouilleron-le-Captif",
      "countryCode": "FR",
      "stateCode": "PDL",
      "latitude": "46.71898000",
      "longitude": "-1.45463000"
   },
   {
      "name": "Moulay",
      "countryCode": "FR",
      "stateCode": "PDL",
      "latitude": "48.27245000",
      "longitude": "-0.62734000"
   },
   {
      "name": "Moutiers-les-Mauxfaits",
      "countryCode": "FR",
      "stateCode": "PDL",
      "latitude": "46.48333000",
      "longitude": "-1.41667000"
   },
   {
      "name": "Mouzeil",
      "countryCode": "FR",
      "stateCode": "PDL",
      "latitude": "47.44738000",
      "longitude": "-1.34786000"
   },
   {
      "name": "Mouzillon",
      "countryCode": "FR",
      "stateCode": "PDL",
      "latitude": "47.14096000",
      "longitude": "-1.28191000"
   },
   {
      "name": "Mozé-sur-Louet",
      "countryCode": "FR",
      "stateCode": "PDL",
      "latitude": "47.35856000",
      "longitude": "-0.55295000"
   },
   {
      "name": "Mulsanne",
      "countryCode": "FR",
      "stateCode": "PDL",
      "latitude": "47.91172000",
      "longitude": "0.24938000"
   },
   {
      "name": "Mésanger",
      "countryCode": "FR",
      "stateCode": "PDL",
      "latitude": "47.43131000",
      "longitude": "-1.22798000"
   },
   {
      "name": "Mézeray",
      "countryCode": "FR",
      "stateCode": "PDL",
      "latitude": "47.82682000",
      "longitude": "-0.01770000"
   },
   {
      "name": "Mûrs-Erigné",
      "countryCode": "FR",
      "stateCode": "PDL",
      "latitude": "47.40000000",
      "longitude": "-0.55000000"
   },
   {
      "name": "Nalliers",
      "countryCode": "FR",
      "stateCode": "PDL",
      "latitude": "46.47071000",
      "longitude": "-1.02774000"
   },
   {
      "name": "Nantes",
      "countryCode": "FR",
      "stateCode": "PDL",
      "latitude": "47.21725000",
      "longitude": "-1.55336000"
   },
   {
      "name": "Nesmy",
      "countryCode": "FR",
      "stateCode": "PDL",
      "latitude": "46.59078000",
      "longitude": "-1.40074000"
   },
   {
      "name": "Neuville-sur-Sarthe",
      "countryCode": "FR",
      "stateCode": "PDL",
      "latitude": "48.07615000",
      "longitude": "0.19264000"
   },
   {
      "name": "Nieul-le-Dolent",
      "countryCode": "FR",
      "stateCode": "PDL",
      "latitude": "46.57379000",
      "longitude": "-1.50808000"
   },
   {
      "name": "Noirmoutier-en-l’Île",
      "countryCode": "FR",
      "stateCode": "PDL",
      "latitude": "46.99733000",
      "longitude": "-2.27374000"
   },
   {
      "name": "Nort-sur-Erdre",
      "countryCode": "FR",
      "stateCode": "PDL",
      "latitude": "47.43881000",
      "longitude": "-1.49833000"
   },
   {
      "name": "Notre-Dame-de-Monts",
      "countryCode": "FR",
      "stateCode": "PDL",
      "latitude": "46.83100000",
      "longitude": "-2.13100000"
   },
   {
      "name": "Notre-Dame-de-Riez",
      "countryCode": "FR",
      "stateCode": "PDL",
      "latitude": "46.74445000",
      "longitude": "-1.90857000"
   },
   {
      "name": "Notre-Dame-des-Landes",
      "countryCode": "FR",
      "stateCode": "PDL",
      "latitude": "47.38048000",
      "longitude": "-1.70904000"
   },
   {
      "name": "Noyant",
      "countryCode": "FR",
      "stateCode": "PDL",
      "latitude": "47.51048000",
      "longitude": "0.11771000"
   },
   {
      "name": "Noyant-la-Gravoyère",
      "countryCode": "FR",
      "stateCode": "PDL",
      "latitude": "47.70348000",
      "longitude": "-0.95730000"
   },
   {
      "name": "Noyen-sur-Sarthe",
      "countryCode": "FR",
      "stateCode": "PDL",
      "latitude": "47.87187000",
      "longitude": "-0.09916000"
   },
   {
      "name": "Nozay",
      "countryCode": "FR",
      "stateCode": "PDL",
      "latitude": "47.56495000",
      "longitude": "-1.62629000"
   },
   {
      "name": "Nuaillé",
      "countryCode": "FR",
      "stateCode": "PDL",
      "latitude": "47.09524000",
      "longitude": "-0.79477000"
   },
   {
      "name": "Nueil-sur-Layon",
      "countryCode": "FR",
      "stateCode": "PDL",
      "latitude": "47.11811000",
      "longitude": "-0.36573000"
   },
   {
      "name": "Nuillé-sur-Vicoin",
      "countryCode": "FR",
      "stateCode": "PDL",
      "latitude": "47.98556000",
      "longitude": "-0.78351000"
   },
   {
      "name": "Nyoiseau",
      "countryCode": "FR",
      "stateCode": "PDL",
      "latitude": "47.71667000",
      "longitude": "-0.91667000"
   },
   {
      "name": "Oisseau",
      "countryCode": "FR",
      "stateCode": "PDL",
      "latitude": "48.35559000",
      "longitude": "-0.67148000"
   },
   {
      "name": "Olonne-sur-Mer",
      "countryCode": "FR",
      "stateCode": "PDL",
      "latitude": "46.53524000",
      "longitude": "-1.77293000"
   },
   {
      "name": "Orvault",
      "countryCode": "FR",
      "stateCode": "PDL",
      "latitude": "47.27095000",
      "longitude": "-1.62190000"
   },
   {
      "name": "Oudon",
      "countryCode": "FR",
      "stateCode": "PDL",
      "latitude": "47.34774000",
      "longitude": "-1.28500000"
   },
   {
      "name": "Paimboeuf",
      "countryCode": "FR",
      "stateCode": "PDL",
      "latitude": "47.28654000",
      "longitude": "-2.03048000"
   },
   {
      "name": "Pannecé",
      "countryCode": "FR",
      "stateCode": "PDL",
      "latitude": "47.48583000",
      "longitude": "-1.23940000"
   },
   {
      "name": "Parcé-sur-Sarthe",
      "countryCode": "FR",
      "stateCode": "PDL",
      "latitude": "47.84356000",
      "longitude": "-0.20104000"
   },
   {
      "name": "Parigné-le-Pôlin",
      "countryCode": "FR",
      "stateCode": "PDL",
      "latitude": "47.84987000",
      "longitude": "0.10705000"
   },
   {
      "name": "Parçay-les-Pins",
      "countryCode": "FR",
      "stateCode": "PDL",
      "latitude": "47.43668000",
      "longitude": "0.16312000"
   },
   {
      "name": "Paulx",
      "countryCode": "FR",
      "stateCode": "PDL",
      "latitude": "46.96181000",
      "longitude": "-1.75520000"
   },
   {
      "name": "Pellouailles-les-Vignes",
      "countryCode": "FR",
      "stateCode": "PDL",
      "latitude": "47.52172000",
      "longitude": "-0.43954000"
   },
   {
      "name": "Petit-Mars",
      "countryCode": "FR",
      "stateCode": "PDL",
      "latitude": "47.39512000",
      "longitude": "-1.45262000"
   },
   {
      "name": "Piriac-sur-Mer",
      "countryCode": "FR",
      "stateCode": "PDL",
      "latitude": "47.37938000",
      "longitude": "-2.54616000"
   },
   {
      "name": "Pissotte",
      "countryCode": "FR",
      "stateCode": "PDL",
      "latitude": "46.49725000",
      "longitude": "-0.80666000"
   },
   {
      "name": "Plessé",
      "countryCode": "FR",
      "stateCode": "PDL",
      "latitude": "47.54180000",
      "longitude": "-1.88609000"
   },
   {
      "name": "Pont-Saint-Martin",
      "countryCode": "FR",
      "stateCode": "PDL",
      "latitude": "47.12338000",
      "longitude": "-1.58455000"
   },
   {
      "name": "Pontchâteau",
      "countryCode": "FR",
      "stateCode": "PDL",
      "latitude": "47.43797000",
      "longitude": "-2.09011000"
   },
   {
      "name": "Pontvallain",
      "countryCode": "FR",
      "stateCode": "PDL",
      "latitude": "47.75169000",
      "longitude": "0.19145000"
   },
   {
      "name": "Pornic",
      "countryCode": "FR",
      "stateCode": "PDL",
      "latitude": "47.11205000",
      "longitude": "-2.08888000"
   },
   {
      "name": "Pornichet",
      "countryCode": "FR",
      "stateCode": "PDL",
      "latitude": "47.26682000",
      "longitude": "-2.33794000"
   },
   {
      "name": "Port-Brillet",
      "countryCode": "FR",
      "stateCode": "PDL",
      "latitude": "48.11315000",
      "longitude": "-0.97080000"
   },
   {
      "name": "Port-Saint-Père",
      "countryCode": "FR",
      "stateCode": "PDL",
      "latitude": "47.13294000",
      "longitude": "-1.74850000"
   },
   {
      "name": "Pouancé",
      "countryCode": "FR",
      "stateCode": "PDL",
      "latitude": "47.74167000",
      "longitude": "-1.17366000"
   },
   {
      "name": "Pouzauges",
      "countryCode": "FR",
      "stateCode": "PDL",
      "latitude": "46.77941000",
      "longitude": "-0.83619000"
   },
   {
      "name": "Prinquiau",
      "countryCode": "FR",
      "stateCode": "PDL",
      "latitude": "47.36215000",
      "longitude": "-2.00952000"
   },
   {
      "name": "Pruillé-le-Chétif",
      "countryCode": "FR",
      "stateCode": "PDL",
      "latitude": "47.99383000",
      "longitude": "0.10677000"
   },
   {
      "name": "Pré-en-Pail",
      "countryCode": "FR",
      "stateCode": "PDL",
      "latitude": "48.45993000",
      "longitude": "-0.19814000"
   },
   {
      "name": "Précigné",
      "countryCode": "FR",
      "stateCode": "PDL",
      "latitude": "47.76692000",
      "longitude": "-0.32491000"
   },
   {
      "name": "Préfailles",
      "countryCode": "FR",
      "stateCode": "PDL",
      "latitude": "47.12839000",
      "longitude": "-2.21693000"
   },
   {
      "name": "Quelaines-Saint-Gault",
      "countryCode": "FR",
      "stateCode": "PDL",
      "latitude": "47.93333000",
      "longitude": "-0.80000000"
   },
   {
      "name": "Quilly",
      "countryCode": "FR",
      "stateCode": "PDL",
      "latitude": "47.46131000",
      "longitude": "-1.95274000"
   },
   {
      "name": "Remouillé",
      "countryCode": "FR",
      "stateCode": "PDL",
      "latitude": "47.05587000",
      "longitude": "-1.37682000"
   },
   {
      "name": "Renazé",
      "countryCode": "FR",
      "stateCode": "PDL",
      "latitude": "47.79340000",
      "longitude": "-1.05437000"
   },
   {
      "name": "Requeil",
      "countryCode": "FR",
      "stateCode": "PDL",
      "latitude": "47.78371000",
      "longitude": "0.16105000"
   },
   {
      "name": "Rezé",
      "countryCode": "FR",
      "stateCode": "PDL",
      "latitude": "47.18144000",
      "longitude": "-1.54965000"
   },
   {
      "name": "Riaillé",
      "countryCode": "FR",
      "stateCode": "PDL",
      "latitude": "47.51797000",
      "longitude": "-1.29404000"
   },
   {
      "name": "Rochefort-sur-Loire",
      "countryCode": "FR",
      "stateCode": "PDL",
      "latitude": "47.35705000",
      "longitude": "-0.65696000"
   },
   {
      "name": "Rocheservière",
      "countryCode": "FR",
      "stateCode": "PDL",
      "latitude": "46.93765000",
      "longitude": "-1.51143000"
   },
   {
      "name": "Rouans",
      "countryCode": "FR",
      "stateCode": "PDL",
      "latitude": "47.18321000",
      "longitude": "-1.85929000"
   },
   {
      "name": "Rougé",
      "countryCode": "FR",
      "stateCode": "PDL",
      "latitude": "47.78367000",
      "longitude": "-1.44763000"
   },
   {
      "name": "Rouillon",
      "countryCode": "FR",
      "stateCode": "PDL",
      "latitude": "48.00629000",
      "longitude": "0.13527000"
   },
   {
      "name": "Roussay",
      "countryCode": "FR",
      "stateCode": "PDL",
      "latitude": "47.09011000",
      "longitude": "-1.06417000"
   },
   {
      "name": "Roézé-sur-Sarthe",
      "countryCode": "FR",
      "stateCode": "PDL",
      "latitude": "47.89546000",
      "longitude": "0.06723000"
   },
   {
      "name": "Ruaudin",
      "countryCode": "FR",
      "stateCode": "PDL",
      "latitude": "47.94509000",
      "longitude": "0.26760000"
   },
   {
      "name": "Ruillé-sur-Loir",
      "countryCode": "FR",
      "stateCode": "PDL",
      "latitude": "47.75075000",
      "longitude": "0.62058000"
   },
   {
      "name": "Sablé-sur-Sarthe",
      "countryCode": "FR",
      "stateCode": "PDL",
      "latitude": "47.83765000",
      "longitude": "-0.33294000"
   },
   {
      "name": "Saffré",
      "countryCode": "FR",
      "stateCode": "PDL",
      "latitude": "47.50143000",
      "longitude": "-1.57856000"
   },
   {
      "name": "Saint-André-Treize-Voies",
      "countryCode": "FR",
      "stateCode": "PDL",
      "latitude": "46.93369000",
      "longitude": "-1.41274000"
   },
   {
      "name": "Saint-André-de-la-Marche",
      "countryCode": "FR",
      "stateCode": "PDL",
      "latitude": "47.09952000",
      "longitude": "-0.99441000"
   },
   {
      "name": "Saint-André-des-Eaux",
      "countryCode": "FR",
      "stateCode": "PDL",
      "latitude": "47.31461000",
      "longitude": "-2.31105000"
   },
   {
      "name": "Saint-Aubin-des-Châteaux",
      "countryCode": "FR",
      "stateCode": "PDL",
      "latitude": "47.72047000",
      "longitude": "-1.48876000"
   },
   {
      "name": "Saint-Aubin-des-Ormeaux",
      "countryCode": "FR",
      "stateCode": "PDL",
      "latitude": "46.99238000",
      "longitude": "-1.04274000"
   },
   {
      "name": "Saint-Baudelle",
      "countryCode": "FR",
      "stateCode": "PDL",
      "latitude": "48.28081000",
      "longitude": "-0.63728000"
   },
   {
      "name": "Saint-Berthevin",
      "countryCode": "FR",
      "stateCode": "PDL",
      "latitude": "48.06667000",
      "longitude": "-0.83333000"
   },
   {
      "name": "Saint-Brevin-les-Pins",
      "countryCode": "FR",
      "stateCode": "PDL",
      "latitude": "47.25000000",
      "longitude": "-2.16667000"
   },
   {
      "name": "Saint-Calais",
      "countryCode": "FR",
      "stateCode": "PDL",
      "latitude": "47.92211000",
      "longitude": "0.74587000"
   },
   {
      "name": "Saint-Christophe-du-Bois",
      "countryCode": "FR",
      "stateCode": "PDL",
      "latitude": "47.03012000",
      "longitude": "-0.94441000"
   },
   {
      "name": "Saint-Christophe-du-Ligneron",
      "countryCode": "FR",
      "stateCode": "PDL",
      "latitude": "46.82478000",
      "longitude": "-1.76586000"
   },
   {
      "name": "Saint-Clément-de-la-Place",
      "countryCode": "FR",
      "stateCode": "PDL",
      "latitude": "47.52744000",
      "longitude": "-0.74545000"
   },
   {
      "name": "Saint-Clément-des-Levées",
      "countryCode": "FR",
      "stateCode": "PDL",
      "latitude": "47.33333000",
      "longitude": "-0.18222000"
   },
   {
      "name": "Saint-Cosme-en-Vairais",
      "countryCode": "FR",
      "stateCode": "PDL",
      "latitude": "48.26667000",
      "longitude": "0.46667000"
   },
   {
      "name": "Saint-Crespin-sur-Moine",
      "countryCode": "FR",
      "stateCode": "PDL",
      "latitude": "47.09968000",
      "longitude": "-1.18651000"
   },
   {
      "name": "Saint-Cyr-en-Bourg",
      "countryCode": "FR",
      "stateCode": "PDL",
      "latitude": "47.19520000",
      "longitude": "-0.06085000"
   },
   {
      "name": "Saint-Denis-de-Gastines",
      "countryCode": "FR",
      "stateCode": "PDL",
      "latitude": "48.34210000",
      "longitude": "-0.85869000"
   },
   {
      "name": "Saint-Denis-la-Chevasse",
      "countryCode": "FR",
      "stateCode": "PDL",
      "latitude": "46.82273000",
      "longitude": "-1.35749000"
   },
   {
      "name": "Saint-Fiacre-sur-Maine",
      "countryCode": "FR",
      "stateCode": "PDL",
      "latitude": "47.14255000",
      "longitude": "-1.41714000"
   },
   {
      "name": "Saint-Florent-des-Bois",
      "countryCode": "FR",
      "stateCode": "PDL",
      "latitude": "46.59377000",
      "longitude": "-1.31580000"
   },
   {
      "name": "Saint-Florent-le-Vieil",
      "countryCode": "FR",
      "stateCode": "PDL",
      "latitude": "47.36069000",
      "longitude": "-1.01515000"
   },
   {
      "name": "Saint-Fort",
      "countryCode": "FR",
      "stateCode": "PDL",
      "latitude": "47.79928000",
      "longitude": "-0.72095000"
   },
   {
      "name": "Saint-Fulgent",
      "countryCode": "FR",
      "stateCode": "PDL",
      "latitude": "46.85226000",
      "longitude": "-1.17798000"
   },
   {
      "name": "Saint-Georges-Buttavent",
      "countryCode": "FR",
      "stateCode": "PDL",
      "latitude": "48.31018000",
      "longitude": "-0.69372000"
   },
   {
      "name": "Saint-Georges-de-Montaigu",
      "countryCode": "FR",
      "stateCode": "PDL",
      "latitude": "46.94655000",
      "longitude": "-1.29262000"
   },
   {
      "name": "Saint-Georges-de-Pointindoux",
      "countryCode": "FR",
      "stateCode": "PDL",
      "latitude": "46.64462000",
      "longitude": "-1.62204000"
   },
   {
      "name": "Saint-Georges-du-Bois",
      "countryCode": "FR",
      "stateCode": "PDL",
      "latitude": "47.97242000",
      "longitude": "0.10113000"
   },
   {
      "name": "Saint-Georges-sur-Loire",
      "countryCode": "FR",
      "stateCode": "PDL",
      "latitude": "47.40792000",
      "longitude": "-0.76194000"
   },
   {
      "name": "Saint-Germain-de-Prinçay",
      "countryCode": "FR",
      "stateCode": "PDL",
      "latitude": "46.72107000",
      "longitude": "-1.02153000"
   },
   {
      "name": "Saint-Germain-des-Prés",
      "countryCode": "FR",
      "stateCode": "PDL",
      "latitude": "47.40998000",
      "longitude": "-0.83342000"
   },
   {
      "name": "Saint-Germain-sur-Moine",
      "countryCode": "FR",
      "stateCode": "PDL",
      "latitude": "47.11746000",
      "longitude": "-1.12223000"
   },
   {
      "name": "Saint-Gervais",
      "countryCode": "FR",
      "stateCode": "PDL",
      "latitude": "46.90174000",
      "longitude": "-2.00210000"
   },
   {
      "name": "Saint-Gervais-en-Belin",
      "countryCode": "FR",
      "stateCode": "PDL",
      "latitude": "47.87720000",
      "longitude": "0.21770000"
   },
   {
      "name": "Saint-Gildas-des-Bois",
      "countryCode": "FR",
      "stateCode": "PDL",
      "latitude": "47.51622000",
      "longitude": "-2.03659000"
   },
   {
      "name": "Saint-Gilles-Croix-de-Vie",
      "countryCode": "FR",
      "stateCode": "PDL",
      "latitude": "46.69761000",
      "longitude": "-1.94561000"
   },
   {
      "name": "Saint-Géréon",
      "countryCode": "FR",
      "stateCode": "PDL",
      "latitude": "47.36774000",
      "longitude": "-1.20262000"
   },
   {
      "name": "Saint-Herblain",
      "countryCode": "FR",
      "stateCode": "PDL",
      "latitude": "47.21765000",
      "longitude": "-1.64841000"
   },
   {
      "name": "Saint-Herblon",
      "countryCode": "FR",
      "stateCode": "PDL",
      "latitude": "47.40786000",
      "longitude": "-1.09738000"
   },
   {
      "name": "Saint-Hilaire-de-Chaléons",
      "countryCode": "FR",
      "stateCode": "PDL",
      "latitude": "47.10196000",
      "longitude": "-1.86690000"
   },
   {
      "name": "Saint-Hilaire-de-Clisson",
      "countryCode": "FR",
      "stateCode": "PDL",
      "latitude": "47.06222000",
      "longitude": "-1.30778000"
   },
   {
      "name": "Saint-Hilaire-de-Loulay",
      "countryCode": "FR",
      "stateCode": "PDL",
      "latitude": "47.00190000",
      "longitude": "-1.33079000"
   },
   {
      "name": "Saint-Hilaire-de-Riez",
      "countryCode": "FR",
      "stateCode": "PDL",
      "latitude": "46.71308000",
      "longitude": "-1.92583000"
   },
   {
      "name": "Saint-Hilaire-de-Talmont",
      "countryCode": "FR",
      "stateCode": "PDL",
      "latitude": "46.47002000",
      "longitude": "-1.60359000"
   },
   {
      "name": "Saint-Hilaire-des-Loges",
      "countryCode": "FR",
      "stateCode": "PDL",
      "latitude": "46.47190000",
      "longitude": "-0.66393000"
   },
   {
      "name": "Saint-Jean",
      "countryCode": "FR",
      "stateCode": "PDL",
      "latitude": "47.24553000",
      "longitude": "-0.38413000"
   },
   {
      "name": "Saint-Jean-de-Boiseau",
      "countryCode": "FR",
      "stateCode": "PDL",
      "latitude": "47.19315000",
      "longitude": "-1.72340000"
   },
   {
      "name": "Saint-Jean-de-Monts",
      "countryCode": "FR",
      "stateCode": "PDL",
      "latitude": "46.79088000",
      "longitude": "-2.08219000"
   },
   {
      "name": "Saint-Jean-des-Mauvrets",
      "countryCode": "FR",
      "stateCode": "PDL",
      "latitude": "47.39857000",
      "longitude": "-0.44929000"
   },
   {
      "name": "Saint-Jean-sur-Mayenne",
      "countryCode": "FR",
      "stateCode": "PDL",
      "latitude": "48.13522000",
      "longitude": "-0.75613000"
   },
   {
      "name": "Saint-Joachim",
      "countryCode": "FR",
      "stateCode": "PDL",
      "latitude": "47.38349000",
      "longitude": "-2.19239000"
   },
   {
      "name": "Saint-Julien-de-Concelles",
      "countryCode": "FR",
      "stateCode": "PDL",
      "latitude": "47.25285000",
      "longitude": "-1.38428000"
   },
   {
      "name": "Saint-Julien-des-Landes",
      "countryCode": "FR",
      "stateCode": "PDL",
      "latitude": "46.63940000",
      "longitude": "-1.71381000"
   },
   {
      "name": "Saint-Lambert-du-Lattay",
      "countryCode": "FR",
      "stateCode": "PDL",
      "latitude": "47.30250000",
      "longitude": "-0.63321000"
   },
   {
      "name": "Saint-Lambert-la-Potherie",
      "countryCode": "FR",
      "stateCode": "PDL",
      "latitude": "47.48289000",
      "longitude": "-0.67789000"
   },
   {
      "name": "Saint-Laurent-de-la-Plaine",
      "countryCode": "FR",
      "stateCode": "PDL",
      "latitude": "47.31738000",
      "longitude": "-0.80333000"
   },
   {
      "name": "Saint-Laurent-des-Autels",
      "countryCode": "FR",
      "stateCode": "PDL",
      "latitude": "47.28524000",
      "longitude": "-1.18881000"
   },
   {
      "name": "Saint-Laurent-sur-Sèvre",
      "countryCode": "FR",
      "stateCode": "PDL",
      "latitude": "46.95809000",
      "longitude": "-0.89392000"
   },
   {
      "name": "Saint-Lumine-de-Clisson",
      "countryCode": "FR",
      "stateCode": "PDL",
      "latitude": "47.08413000",
      "longitude": "-1.33524000"
   },
   {
      "name": "Saint-Lumine-de-Coutais",
      "countryCode": "FR",
      "stateCode": "PDL",
      "latitude": "47.05399000",
      "longitude": "-1.72777000"
   },
   {
      "name": "Saint-Lyphard",
      "countryCode": "FR",
      "stateCode": "PDL",
      "latitude": "47.39822000",
      "longitude": "-2.30642000"
   },
   {
      "name": "Saint-Léger-des-Bois",
      "countryCode": "FR",
      "stateCode": "PDL",
      "latitude": "47.46238000",
      "longitude": "-0.70953000"
   },
   {
      "name": "Saint-Léger-les-Vignes",
      "countryCode": "FR",
      "stateCode": "PDL",
      "latitude": "47.13587000",
      "longitude": "-1.73060000"
   },
   {
      "name": "Saint-Léger-sous-Cholet",
      "countryCode": "FR",
      "stateCode": "PDL",
      "latitude": "47.09405000",
      "longitude": "-0.91024000"
   },
   {
      "name": "Saint-Macaire-en-Mauges",
      "countryCode": "FR",
      "stateCode": "PDL",
      "latitude": "47.12357000",
      "longitude": "-0.99120000"
   },
   {
      "name": "Saint-Malo-de-Guersac",
      "countryCode": "FR",
      "stateCode": "PDL",
      "latitude": "47.35345000",
      "longitude": "-2.17773000"
   },
   {
      "name": "Saint-Malô-du-Bois",
      "countryCode": "FR",
      "stateCode": "PDL",
      "latitude": "46.93333000",
      "longitude": "-0.90000000"
   },
   {
      "name": "Saint-Mars-de-Coutais",
      "countryCode": "FR",
      "stateCode": "PDL",
      "latitude": "47.11153000",
      "longitude": "-1.73437000"
   },
   {
      "name": "Saint-Mars-du-Désert",
      "countryCode": "FR",
      "stateCode": "PDL",
      "latitude": "47.36560000",
      "longitude": "-1.40678000"
   },
   {
      "name": "Saint-Mars-d’Outillé",
      "countryCode": "FR",
      "stateCode": "PDL",
      "latitude": "47.87034000",
      "longitude": "0.33221000"
   },
   {
      "name": "Saint-Mars-la-Brière",
      "countryCode": "FR",
      "stateCode": "PDL",
      "latitude": "48.03046000",
      "longitude": "0.37319000"
   },
   {
      "name": "Saint-Mars-la-Jaille",
      "countryCode": "FR",
      "stateCode": "PDL",
      "latitude": "47.52566000",
      "longitude": "-1.18483000"
   },
   {
      "name": "Saint-Martin-de-la-Place",
      "countryCode": "FR",
      "stateCode": "PDL",
      "latitude": "47.31747000",
      "longitude": "-0.14849000"
   },
   {
      "name": "Saint-Martin-des-Noyers",
      "countryCode": "FR",
      "stateCode": "PDL",
      "latitude": "46.72226000",
      "longitude": "-1.17727000"
   },
   {
      "name": "Saint-Martin-du-Fouilloux",
      "countryCode": "FR",
      "stateCode": "PDL",
      "latitude": "47.43360000",
      "longitude": "-0.70357000"
   },
   {
      "name": "Saint-Martin-sous-Mouzeuil",
      "countryCode": "FR",
      "stateCode": "PDL",
      "latitude": "46.45905000",
      "longitude": "-0.98893000"
   },
   {
      "name": "Saint-Mathurin",
      "countryCode": "FR",
      "stateCode": "PDL",
      "latitude": "46.56493000",
      "longitude": "-1.71389000"
   },
   {
      "name": "Saint-Mathurin-sur-Loire",
      "countryCode": "FR",
      "stateCode": "PDL",
      "latitude": "47.41667000",
      "longitude": "-0.31667000"
   },
   {
      "name": "Saint-Melaine-sur-Aubance",
      "countryCode": "FR",
      "stateCode": "PDL",
      "latitude": "47.36667000",
      "longitude": "-0.50000000"
   },
   {
      "name": "Saint-Mesmin",
      "countryCode": "FR",
      "stateCode": "PDL",
      "latitude": "46.79369000",
      "longitude": "-0.73262000"
   },
   {
      "name": "Saint-Michel-Chef-Chef",
      "countryCode": "FR",
      "stateCode": "PDL",
      "latitude": "47.18072000",
      "longitude": "-2.14869000"
   },
   {
      "name": "Saint-Michel-Mont-Mercure",
      "countryCode": "FR",
      "stateCode": "PDL",
      "latitude": "46.82941000",
      "longitude": "-0.88298000"
   },
   {
      "name": "Saint-Michel-le-Cloucq",
      "countryCode": "FR",
      "stateCode": "PDL",
      "latitude": "46.48500000",
      "longitude": "-0.75262000"
   },
   {
      "name": "Saint-Molf",
      "countryCode": "FR",
      "stateCode": "PDL",
      "latitude": "47.39167000",
      "longitude": "-2.42357000"
   },
   {
      "name": "Saint-Même-le-Tenu",
      "countryCode": "FR",
      "stateCode": "PDL",
      "latitude": "47.02005000",
      "longitude": "-1.79459000"
   },
   {
      "name": "Saint-Nazaire",
      "countryCode": "FR",
      "stateCode": "PDL",
      "latitude": "47.27956000",
      "longitude": "-2.20993000"
   },
   {
      "name": "Saint-Nicolas-de-Redon",
      "countryCode": "FR",
      "stateCode": "PDL",
      "latitude": "47.64343000",
      "longitude": "-2.06305000"
   },
   {
      "name": "Saint-Ouen-en-Belin",
      "countryCode": "FR",
      "stateCode": "PDL",
      "latitude": "47.83302000",
      "longitude": "0.20924000"
   },
   {
      "name": "Saint-Ouën-des-Toits",
      "countryCode": "FR",
      "stateCode": "PDL",
      "latitude": "48.13333000",
      "longitude": "-0.90000000"
   },
   {
      "name": "Saint-Paterne",
      "countryCode": "FR",
      "stateCode": "PDL",
      "latitude": "48.41614000",
      "longitude": "0.11271000"
   },
   {
      "name": "Saint-Paul-en-Pareds",
      "countryCode": "FR",
      "stateCode": "PDL",
      "latitude": "46.82214000",
      "longitude": "-0.98977000"
   },
   {
      "name": "Saint-Philbert-de-Bouaine",
      "countryCode": "FR",
      "stateCode": "PDL",
      "latitude": "46.98568000",
      "longitude": "-1.52022000"
   },
   {
      "name": "Saint-Philbert-de-Grand-Lieu",
      "countryCode": "FR",
      "stateCode": "PDL",
      "latitude": "47.03580000",
      "longitude": "-1.64120000"
   },
   {
      "name": "Saint-Philbert-du-Peuple",
      "countryCode": "FR",
      "stateCode": "PDL",
      "latitude": "47.39314000",
      "longitude": "-0.04360000"
   },
   {
      "name": "Saint-Pierre-Montlimart",
      "countryCode": "FR",
      "stateCode": "PDL",
      "latitude": "47.26976000",
      "longitude": "-1.02738000"
   },
   {
      "name": "Saint-Pierre-des-Nids",
      "countryCode": "FR",
      "stateCode": "PDL",
      "latitude": "48.39826000",
      "longitude": "-0.09984000"
   },
   {
      "name": "Saint-Pierre-du-Chemin",
      "countryCode": "FR",
      "stateCode": "PDL",
      "latitude": "46.69523000",
      "longitude": "-0.70095000"
   },
   {
      "name": "Saint-Pierre-la-Cour",
      "countryCode": "FR",
      "stateCode": "PDL",
      "latitude": "48.11258000",
      "longitude": "-1.02496000"
   },
   {
      "name": "Saint-Prouant",
      "countryCode": "FR",
      "stateCode": "PDL",
      "latitude": "46.75822000",
      "longitude": "-0.95703000"
   },
   {
      "name": "Saint-Père-en-Retz",
      "countryCode": "FR",
      "stateCode": "PDL",
      "latitude": "47.20559000",
      "longitude": "-2.04095000"
   },
   {
      "name": "Saint-Quentin-en-Mauges",
      "countryCode": "FR",
      "stateCode": "PDL",
      "latitude": "47.29130000",
      "longitude": "-0.91191000"
   },
   {
      "name": "Saint-Rémy-en-Mauges",
      "countryCode": "FR",
      "stateCode": "PDL",
      "latitude": "47.27202000",
      "longitude": "-1.07499000"
   },
   {
      "name": "Saint-Saturnin",
      "countryCode": "FR",
      "stateCode": "PDL",
      "latitude": "48.05795000",
      "longitude": "0.15218000"
   },
   {
      "name": "Saint-Saturnin-sur-Loire",
      "countryCode": "FR",
      "stateCode": "PDL",
      "latitude": "47.39438000",
      "longitude": "-0.43565000"
   },
   {
      "name": "Saint-Sébastien-sur-Loire",
      "countryCode": "FR",
      "stateCode": "PDL",
      "latitude": "47.20768000",
      "longitude": "-1.50332000"
   },
   {
      "name": "Saint-Urbain",
      "countryCode": "FR",
      "stateCode": "PDL",
      "latitude": "46.87557000",
      "longitude": "-2.00961000"
   },
   {
      "name": "Saint-Viaud",
      "countryCode": "FR",
      "stateCode": "PDL",
      "latitude": "47.25619000",
      "longitude": "-2.01833000"
   },
   {
      "name": "Saint-Vincent-des-Landes",
      "countryCode": "FR",
      "stateCode": "PDL",
      "latitude": "47.65695000",
      "longitude": "-1.49572000"
   },
   {
      "name": "Saint-Vincent-sur-Graon",
      "countryCode": "FR",
      "stateCode": "PDL",
      "latitude": "46.51690000",
      "longitude": "-1.38881000"
   },
   {
      "name": "Saint-Étienne-de-Mer-Morte",
      "countryCode": "FR",
      "stateCode": "PDL",
      "latitude": "46.92848000",
      "longitude": "-1.74272000"
   },
   {
      "name": "Saint-Étienne-de-Montluc",
      "countryCode": "FR",
      "stateCode": "PDL",
      "latitude": "47.27690000",
      "longitude": "-1.78072000"
   },
   {
      "name": "Saint-Étienne-du-Bois",
      "countryCode": "FR",
      "stateCode": "PDL",
      "latitude": "46.83041000",
      "longitude": "-1.59714000"
   },
   {
      "name": "Sainte-Anne-sur-Brivet",
      "countryCode": "FR",
      "stateCode": "PDL",
      "latitude": "47.46071000",
      "longitude": "-2.00415000"
   },
   {
      "name": "Sainte-Cécile",
      "countryCode": "FR",
      "stateCode": "PDL",
      "latitude": "46.74286000",
      "longitude": "-1.11429000"
   },
   {
      "name": "Sainte-Flaive-des-Loups",
      "countryCode": "FR",
      "stateCode": "PDL",
      "latitude": "46.61303000",
      "longitude": "-1.58082000"
   },
   {
      "name": "Sainte-Foy",
      "countryCode": "FR",
      "stateCode": "PDL",
      "latitude": "46.54488000",
      "longitude": "-1.67265000"
   },
   {
      "name": "Sainte-Gemme-la-Plaine",
      "countryCode": "FR",
      "stateCode": "PDL",
      "latitude": "46.48286000",
      "longitude": "-1.11321000"
   },
   {
      "name": "Sainte-Gemmes-sur-Loire",
      "countryCode": "FR",
      "stateCode": "PDL",
      "latitude": "47.42290000",
      "longitude": "-0.55684000"
   },
   {
      "name": "Sainte-Hermine",
      "countryCode": "FR",
      "stateCode": "PDL",
      "latitude": "46.55619000",
      "longitude": "-1.05476000"
   },
   {
      "name": "Sainte-Jamme-sur-Sarthe",
      "countryCode": "FR",
      "stateCode": "PDL",
      "latitude": "48.14264000",
      "longitude": "0.16743000"
   },
   {
      "name": "Sainte-Luce-sur-Loire",
      "countryCode": "FR",
      "stateCode": "PDL",
      "latitude": "47.25381000",
      "longitude": "-1.48430000"
   },
   {
      "name": "Sainte-Pazanne",
      "countryCode": "FR",
      "stateCode": "PDL",
      "latitude": "47.10301000",
      "longitude": "-1.80950000"
   },
   {
      "name": "Sainte-Reine-de-Bretagne",
      "countryCode": "FR",
      "stateCode": "PDL",
      "latitude": "47.44131000",
      "longitude": "-2.19238000"
   },
   {
      "name": "Sainte-Suzanne",
      "countryCode": "FR",
      "stateCode": "PDL",
      "latitude": "48.09818000",
      "longitude": "-0.35439000"
   },
   {
      "name": "Saligny",
      "countryCode": "FR",
      "stateCode": "PDL",
      "latitude": "46.80833000",
      "longitude": "-1.42726000"
   },
   {
      "name": "Sallertaine",
      "countryCode": "FR",
      "stateCode": "PDL",
      "latitude": "46.86017000",
      "longitude": "-1.95522000"
   },
   {
      "name": "Sargé-lès-le-Mans",
      "countryCode": "FR",
      "stateCode": "PDL",
      "latitude": "48.03333000",
      "longitude": "0.23333000"
   },
   {
      "name": "Sarthe",
      "countryCode": "FR",
      "stateCode": "PDL",
      "latitude": "48.00493000",
      "longitude": "0.26516000"
   },
   {
      "name": "Saumur",
      "countryCode": "FR",
      "stateCode": "PDL",
      "latitude": "47.25908000",
      "longitude": "-0.07796000"
   },
   {
      "name": "Sautron",
      "countryCode": "FR",
      "stateCode": "PDL",
      "latitude": "47.26274000",
      "longitude": "-1.67107000"
   },
   {
      "name": "Savenay",
      "countryCode": "FR",
      "stateCode": "PDL",
      "latitude": "47.36072000",
      "longitude": "-1.94215000"
   },
   {
      "name": "Savennières",
      "countryCode": "FR",
      "stateCode": "PDL",
      "latitude": "47.38225000",
      "longitude": "-0.65708000"
   },
   {
      "name": "Segré",
      "countryCode": "FR",
      "stateCode": "PDL",
      "latitude": "47.68646000",
      "longitude": "-0.87237000"
   },
   {
      "name": "Seiches-sur-le-Loir",
      "countryCode": "FR",
      "stateCode": "PDL",
      "latitude": "47.57351000",
      "longitude": "-0.35628000"
   },
   {
      "name": "Sillé-le-Guillaume",
      "countryCode": "FR",
      "stateCode": "PDL",
      "latitude": "48.18266000",
      "longitude": "-0.12642000"
   },
   {
      "name": "Sion-les-Mines",
      "countryCode": "FR",
      "stateCode": "PDL",
      "latitude": "47.73476000",
      "longitude": "-1.59190000"
   },
   {
      "name": "Solesmes",
      "countryCode": "FR",
      "stateCode": "PDL",
      "latitude": "47.85009000",
      "longitude": "-0.29806000"
   },
   {
      "name": "Soucelles",
      "countryCode": "FR",
      "stateCode": "PDL",
      "latitude": "47.56848000",
      "longitude": "-0.41819000"
   },
   {
      "name": "Soudan",
      "countryCode": "FR",
      "stateCode": "PDL",
      "latitude": "47.73777000",
      "longitude": "-1.30566000"
   },
   {
      "name": "Soulaines-sur-Aubance",
      "countryCode": "FR",
      "stateCode": "PDL",
      "latitude": "47.36381000",
      "longitude": "-0.52265000"
   },
   {
      "name": "Soulaire-et-Bourg",
      "countryCode": "FR",
      "stateCode": "PDL",
      "latitude": "47.57896000",
      "longitude": "-0.55232000"
   },
   {
      "name": "Soulgé-sur-Ouette",
      "countryCode": "FR",
      "stateCode": "PDL",
      "latitude": "48.06667000",
      "longitude": "-0.56667000"
   },
   {
      "name": "Souligné-sous-Ballon",
      "countryCode": "FR",
      "stateCode": "PDL",
      "latitude": "48.13758000",
      "longitude": "0.23572000"
   },
   {
      "name": "Soullans",
      "countryCode": "FR",
      "stateCode": "PDL",
      "latitude": "46.79624000",
      "longitude": "-1.90106000"
   },
   {
      "name": "Spay",
      "countryCode": "FR",
      "stateCode": "PDL",
      "latitude": "47.92384000",
      "longitude": "0.15258000"
   },
   {
      "name": "Sucé-sur-Erdre",
      "countryCode": "FR",
      "stateCode": "PDL",
      "latitude": "47.33333000",
      "longitude": "-1.53333000"
   },
   {
      "name": "Sérigné",
      "countryCode": "FR",
      "stateCode": "PDL",
      "latitude": "46.50107000",
      "longitude": "-0.84453000"
   },
   {
      "name": "Sévérac",
      "countryCode": "FR",
      "stateCode": "PDL",
      "latitude": "47.55008000",
      "longitude": "-2.07496000"
   },
   {
      "name": "Teillé",
      "countryCode": "FR",
      "stateCode": "PDL",
      "latitude": "47.46170000",
      "longitude": "-1.27810000"
   },
   {
      "name": "Teloché",
      "countryCode": "FR",
      "stateCode": "PDL",
      "latitude": "47.88819000",
      "longitude": "0.27086000"
   },
   {
      "name": "Tennie",
      "countryCode": "FR",
      "stateCode": "PDL",
      "latitude": "48.10769000",
      "longitude": "-0.07626000"
   },
   {
      "name": "Thorigné-sur-Dué",
      "countryCode": "FR",
      "stateCode": "PDL",
      "latitude": "48.03920000",
      "longitude": "0.53554000"
   },
   {
      "name": "Thouarcé",
      "countryCode": "FR",
      "stateCode": "PDL",
      "latitude": "47.26734000",
      "longitude": "-0.50186000"
   },
   {
      "name": "Thouaré-sur-Loire",
      "countryCode": "FR",
      "stateCode": "PDL",
      "latitude": "47.26893000",
      "longitude": "-1.43834000"
   },
   {
      "name": "Tiercé",
      "countryCode": "FR",
      "stateCode": "PDL",
      "latitude": "47.61587000",
      "longitude": "-0.46609000"
   },
   {
      "name": "Tiffauges",
      "countryCode": "FR",
      "stateCode": "PDL",
      "latitude": "47.01080000",
      "longitude": "-1.10999000"
   },
   {
      "name": "Tillières",
      "countryCode": "FR",
      "stateCode": "PDL",
      "latitude": "47.14397000",
      "longitude": "-1.16334000"
   },
   {
      "name": "Torfou",
      "countryCode": "FR",
      "stateCode": "PDL",
      "latitude": "47.03682000",
      "longitude": "-1.11635000"
   },
   {
      "name": "Toutlemonde",
      "countryCode": "FR",
      "stateCode": "PDL",
      "latitude": "47.05488000",
      "longitude": "-0.76548000"
   },
   {
      "name": "Touvois",
      "countryCode": "FR",
      "stateCode": "PDL",
      "latitude": "46.90208000",
      "longitude": "-1.68333000"
   },
   {
      "name": "Trangé",
      "countryCode": "FR",
      "stateCode": "PDL",
      "latitude": "48.02706000",
      "longitude": "0.11054000"
   },
   {
      "name": "Treillières",
      "countryCode": "FR",
      "stateCode": "PDL",
      "latitude": "47.33060000",
      "longitude": "-1.61918000"
   },
   {
      "name": "Treize-Septiers",
      "countryCode": "FR",
      "stateCode": "PDL",
      "latitude": "46.98524000",
      "longitude": "-1.22921000"
   },
   {
      "name": "Triaize",
      "countryCode": "FR",
      "stateCode": "PDL",
      "latitude": "46.39265000",
      "longitude": "-1.19785000"
   },