[
   {
      "name": "Alaca",
      "countryCode": "TR",
      "stateCode": "19",
      "latitude": "40.16833000",
      "longitude": "34.84250000"
   },
   {
      "name": "Bayat",
      "countryCode": "TR",
      "stateCode": "19",
      "latitude": "40.64583000",
      "longitude": "34.26139000"
   },
   {
      "name": "Boğazkale İlçesi",
      "countryCode": "TR",
      "stateCode": "19",
      "latitude": "40.03031000",
      "longitude": "34.61745000"
   },
   {
      "name": "Dodurga",
      "countryCode": "TR",
      "stateCode": "19",
      "latitude": "40.85489000",
      "longitude": "34.80703000"
   },
   {
      "name": "Kargı İlçesi",
      "countryCode": "TR",
      "stateCode": "19",
      "latitude": "41.14377000",
      "longitude": "34.49342000"
   },
   {
      "name": "Laçin",
      "countryCode": "TR",
      "stateCode": "19",
      "latitude": "40.77486000",
      "longitude": "34.88068000"
   },
   {
      "name": "Mecitözü",
      "countryCode": "TR",
      "stateCode": "19",
      "latitude": "40.52000000",
      "longitude": "35.29528000"
   },
   {
      "name": "Merkez",
      "countryCode": "TR",
      "stateCode": "19",
      "latitude": "40.50905000",
      "longitude": "34.85791000"
   },
   {
      "name": "Ortaköy",
      "countryCode": "TR",
      "stateCode": "19",
      "latitude": "40.27352000",
      "longitude": "35.25175000"
   },
   {
      "name": "Osmancık",
      "countryCode": "TR",
      "stateCode": "19",
      "latitude": "41.00240000",
      "longitude": "34.78243000"
   },
   {
      "name": "Oğuzlar İlçesi",
      "countryCode": "TR",
      "stateCode": "19",
      "latitude": "40.76323000",
      "longitude": "34.70813000"
   },
   {
      "name": "Sungurlu",
      "countryCode": "TR",
      "stateCode": "19",
      "latitude": "40.18213000",
      "longitude": "34.28217000"
   },
   {
      "name": "Uğurludağ",
      "countryCode": "TR",
      "stateCode": "19",
      "latitude": "40.44631000",
      "longitude": "34.45259000"
   },
   {
      "name": "Çorum",
      "countryCode": "TR",
      "stateCode": "19",
      "latitude": "40.54889000",
      "longitude": "34.95333000"
   },
   {
      "name": "İskilip",
      "countryCode": "TR",
      "stateCode": "19",
      "latitude": "40.73528000",
      "longitude": "34.47389000"
   }
]