[
   {
      "name": "Alaçam İlçesi",
      "countryCode": "TR",
      "stateCode": "55",
      "latitude": "41.61563000",
      "longitude": "35.60632000"
   },
   {
      "name": "Asarcık",
      "countryCode": "TR",
      "stateCode": "55",
      "latitude": "41.03556000",
      "longitude": "36.23556000"
   },
   {
      "name": "Atakum",
      "countryCode": "TR",
      "stateCode": "55",
      "latitude": "41.34730000",
      "longitude": "36.23051000"
   },
   {
      "name": "Ayvacık",
      "countryCode": "TR",
      "stateCode": "55",
      "latitude": "40.99111000",
      "longitude": "36.63139000"
   },
   {
      "name": "Bafra",
      "countryCode": "TR",
      "stateCode": "55",
      "latitude": "41.46082000",
      "longitude": "35.84435000"
   },
   {
      "name": "Canik",
      "countryCode": "TR",
      "stateCode": "55",
      "latitude": "41.23858000",
      "longitude": "36.33694000"
   },
   {
      "name": "Havza",
      "countryCode": "TR",
      "stateCode": "55",
      "latitude": "40.97056000",
      "longitude": "35.66222000"
   },
   {
      "name": "Kavak",
      "countryCode": "TR",
      "stateCode": "55",
      "latitude": "41.07833000",
      "longitude": "36.04250000"
   },
   {
      "name": "Ladik",
      "countryCode": "TR",
      "stateCode": "55",
      "latitude": "40.91056000",
      "longitude": "35.89194000"
   },
   {
      "name": "Ondokuzmayıs İlçesi",
      "countryCode": "TR",
      "stateCode": "55",
      "latitude": "41.51188000",
      "longitude": "36.07298000"
   },
   {
      "name": "Salıpazarı İlçesi",
      "countryCode": "TR",
      "stateCode": "55",
      "latitude": "41.09352000",
      "longitude": "36.81718000"
   },
   {
      "name": "Samsun",
      "countryCode": "TR",
      "stateCode": "55",
      "latitude": "41.27976000",
      "longitude": "36.33610000"
   },
   {
      "name": "Tekkeköy",
      "countryCode": "TR",
      "stateCode": "55",
      "latitude": "41.14493000",
      "longitude": "36.46205000"
   },
   {
      "name": "Terme",
      "countryCode": "TR",
      "stateCode": "55",
      "latitude": "41.20917000",
      "longitude": "36.97389000"
   },
   {
      "name": "Vezirköprü",
      "countryCode": "TR",
      "stateCode": "55",
      "latitude": "41.14361000",
      "longitude": "35.45472000"
   },
   {
      "name": "Yakakent",
      "countryCode": "TR",
      "stateCode": "55",
      "latitude": "41.63250000",
      "longitude": "35.52889000"
   },
   {
      "name": "Çarşamba",
      "countryCode": "TR",
      "stateCode": "55",
      "latitude": "41.19889000",
      "longitude": "36.72194000"
   },
   {
      "name": "İlkadım",
      "countryCode": "TR",
      "stateCode": "55",
      "latitude": "41.29161000",
      "longitude": "36.30106000"
   }
]