[
   {
      "name": "Hankasalmi",
      "countryCode": "FI",
      "stateCode": "08",
      "latitude": "62.38333000",
      "longitude": "26.43333000"
   },
   {
      "name": "Joutsa",
      "countryCode": "FI",
      "stateCode": "08",
      "latitude": "61.73333000",
      "longitude": "26.11667000"
   },
   {
      "name": "Jyväskylä",
      "countryCode": "FI",
      "stateCode": "08",
      "latitude": "62.24147000",
      "longitude": "25.72088000"
   },
   {
      "name": "Jämsä",
      "countryCode": "FI",
      "stateCode": "08",
      "latitude": "61.86420000",
      "longitude": "25.19002000"
   },
   {
      "name": "Jämsänkoski",
      "countryCode": "FI",
      "stateCode": "08",
      "latitude": "61.91900000",
      "longitude": "25.17011000"
   },
   {
      "name": "Kannonkoski",
      "countryCode": "FI",
      "stateCode": "08",
      "latitude": "62.96667000",
      "longitude": "25.25000000"
   },
   {
      "name": "Karstula",
      "countryCode": "FI",
      "stateCode": "08",
      "latitude": "62.86667000",
      "longitude": "24.78333000"
   },
   {
      "name": "Keuruu",
      "countryCode": "FI",
      "stateCode": "08",
      "latitude": "62.26667000",
      "longitude": "24.70000000"
   },
   {
      "name": "Kinnula",
      "countryCode": "FI",
      "stateCode": "08",
      "latitude": "63.38333000",
      "longitude": "24.95000000"
   },
   {
      "name": "Kivijärvi",
      "countryCode": "FI",
      "stateCode": "08",
      "latitude": "63.11984000",
      "longitude": "25.07835000"
   },
   {
      "name": "Konnevesi",
      "countryCode": "FI",
      "stateCode": "08",
      "latitude": "62.61667000",
      "longitude": "26.31667000"
   },
   {
      "name": "Korpilahti",
      "countryCode": "FI",
      "stateCode": "08",
      "latitude": "62.01667000",
      "longitude": "25.55000000"
   },
   {
      "name": "Kuhmoinen",
      "countryCode": "FI",
      "stateCode": "08",
      "latitude": "61.56667000",
      "longitude": "25.18333000"
   },
   {
      "name": "Kyyjärvi",
      "countryCode": "FI",
      "stateCode": "08",
      "latitude": "63.03333000",
      "longitude": "24.56667000"
   },
   {
      "name": "Laukaa",
      "countryCode": "FI",
      "stateCode": "08",
      "latitude": "62.41407000",
      "longitude": "25.95194000"
   },
   {
      "name": "Leivonmäki",
      "countryCode": "FI",
      "stateCode": "08",
      "latitude": "61.91198000",
      "longitude": "26.12796000"
   },
   {
      "name": "Luhanka",
      "countryCode": "FI",
      "stateCode": "08",
      "latitude": "61.79682000",
      "longitude": "25.70457000"
   },
   {
      "name": "Multia",
      "countryCode": "FI",
      "stateCode": "08",
      "latitude": "62.41667000",
      "longitude": "24.78333000"
   },
   {
      "name": "Muurame",
      "countryCode": "FI",
      "stateCode": "08",
      "latitude": "62.13333000",
      "longitude": "25.66667000"
   },
   {
      "name": "Petäjävesi",
      "countryCode": "FI",
      "stateCode": "08",
      "latitude": "62.25000000",
      "longitude": "25.20000000"
   },
   {
      "name": "Pihtipudas",
      "countryCode": "FI",
      "stateCode": "08",
      "latitude": "63.38333000",
      "longitude": "25.56667000"
   },
   {
      "name": "Pylkönmäki",
      "countryCode": "FI",
      "stateCode": "08",
      "latitude": "62.66667000",
      "longitude": "24.80000000"
   },
   {
      "name": "Saarijärvi",
      "countryCode": "FI",
      "stateCode": "08",
      "latitude": "62.70486000",
      "longitude": "25.25396000"
   },
   {
      "name": "Sumiainen",
      "countryCode": "FI",
      "stateCode": "08",
      "latitude": "62.65736000",
      "longitude": "26.04642000"
   },
   {
      "name": "Suolahti",
      "countryCode": "FI",
      "stateCode": "08",
      "latitude": "62.56421000",
      "longitude": "25.85363000"
   },
   {
      "name": "Säynätsalo",
      "countryCode": "FI",
      "stateCode": "08",
      "latitude": "62.14025000",
      "longitude": "25.76948000"
   },
   {
      "name": "Toivakka",
      "countryCode": "FI",
      "stateCode": "08",
      "latitude": "62.10000000",
      "longitude": "26.08333000"
   },
   {
      "name": "Uurainen",
      "countryCode": "FI",
      "stateCode": "08",
      "latitude": "62.50000000",
      "longitude": "25.45000000"
   },
   {
      "name": "Viitasaari",
      "countryCode": "FI",
      "stateCode": "08",
      "latitude": "63.06667000",
      "longitude": "25.86667000"
   },
   {
      "name": "Äänekoski",
      "countryCode": "FI",
      "stateCode": "08",
      "latitude": "62.60000000",
      "longitude": "25.73333000"
   }
]