[
   {
      "name": "Al Hada",
      "countryCode": "YE",
      "stateCode": "DH",
      "latitude": "14.80760000",
      "longitude": "44.56790000"
   },
   {
      "name": "Al Manar",
      "countryCode": "YE",
      "stateCode": "DH",
      "latitude": "14.65300000",
      "longitude": "44.11640000"
   },
   {
      "name": "Al-Medy Village, قرية المدي",
      "countryCode": "YE",
      "stateCode": "DH",
      "latitude": "14.40152000",
      "longitude": "43.79178000"
   },
   {
      "name": "Dawran Aness",
      "countryCode": "YE",
      "stateCode": "DH",
      "latitude": "14.82880000",
      "longitude": "44.11430000"
   },
   {
      "name": "Dhamār",
      "countryCode": "YE",
      "stateCode": "DH",
      "latitude": "14.54274000",
      "longitude": "44.40514000"
   },
   {
      "name": "Jabal Ash sharq",
      "countryCode": "YE",
      "stateCode": "DH",
      "latitude": "14.72960000",
      "longitude": "43.90620000"
   },
   {
      "name": "Jahran",
      "countryCode": "YE",
      "stateCode": "DH",
      "latitude": "14.73310000",
      "longitude": "44.31430000"
   },
   {
      "name": "Maghirib Ans",
      "countryCode": "YE",
      "stateCode": "DH",
      "latitude": "14.46530000",
      "longitude": "44.12330000"
   },
   {
      "name": "Mayfa'at Anss",
      "countryCode": "YE",
      "stateCode": "DH",
      "latitude": "14.51520000",
      "longitude": "44.61060000"
   },
   {
      "name": "Utmah",
      "countryCode": "YE",
      "stateCode": "DH",
      "latitude": "14.47380000",
      "longitude": "43.94830000"
   },
   {
      "name": "Wusab Al Ali",
      "countryCode": "YE",
      "stateCode": "DH",
      "latitude": "14.33440000",
      "longitude": "43.79470000"
   },
   {
      "name": "Wusab As Safil",
      "countryCode": "YE",
      "stateCode": "DH",
      "latitude": "14.25480000",
      "longitude": "43.63250000"
   },
   {
      "name": "‘Ans",
      "countryCode": "YE",
      "stateCode": "DH",
      "latitude": "14.43606000",
      "longitude": "44.38889000"
   }
]