[
   {
      "name": "Arrondissement de Fort Liberté",
      "countryCode": "HT",
      "stateCode": "NE",
      "latitude": "19.56667000",
      "longitude": "-71.83333000"
   },
   {
      "name": "Arrondissement du Trou du Nord",
      "countryCode": "HT",
      "stateCode": "NE",
      "latitude": "19.55000000",
      "longitude": "-71.98333000"
   },
   {
      "name": "Caracol",
      "countryCode": "HT",
      "stateCode": "NE",
      "latitude": "19.69274000",
      "longitude": "-72.01733000"
   },
   {
      "name": "Carice",
      "countryCode": "HT",
      "stateCode": "NE",
      "latitude": "19.37795000",
      "longitude": "-71.83030000"
   },
   {
      "name": "Dérac",
      "countryCode": "HT",
      "stateCode": "NE",
      "latitude": "19.65476000",
      "longitude": "-71.81451000"
   },
   {
      "name": "Ferrier",
      "countryCode": "HT",
      "stateCode": "NE",
      "latitude": "19.61549000",
      "longitude": "-71.77792000"
   },
   {
      "name": "Fort Liberté",
      "countryCode": "HT",
      "stateCode": "NE",
      "latitude": "19.66273000",
      "longitude": "-71.83798000"
   },
   {
      "name": "Montòrganize",
      "countryCode": "HT",
      "stateCode": "NE",
      "latitude": "19.40815000",
      "longitude": "-71.78132000"
   },
   {
      "name": "Ouanaminthe",
      "countryCode": "HT",
      "stateCode": "NE",
      "latitude": "19.54934000",
      "longitude": "-71.72475000"
   },
   {
      "name": "Perches",
      "countryCode": "HT",
      "stateCode": "NE",
      "latitude": "19.52201000",
      "longitude": "-71.92323000"
   },
   {
      "name": "Phaëton",
      "countryCode": "HT",
      "stateCode": "NE",
      "latitude": "19.67525000",
      "longitude": "-71.89691000"
   },
   {
      "name": "Trou du Nord",
      "countryCode": "HT",
      "stateCode": "NE",
      "latitude": "19.61668000",
      "longitude": "-72.02442000"
   },
   {
      "name": "Wanament",
      "countryCode": "HT",
      "stateCode": "NE",
      "latitude": "19.48333000",
      "longitude": "-71.76667000"
   }
]