[
   {
      "name": "Ampuero",
      "countryCode": "ES",
      "stateCode": "CB",
      "latitude": "43.34268000",
      "longitude": "-3.41667000"
   },
   {
      "name": "Arenas de Iguña",
      "countryCode": "ES",
      "stateCode": "CB",
      "latitude": "43.18293000",
      "longitude": "-4.04729000"
   },
   {
      "name": "Argoños",
      "countryCode": "ES",
      "stateCode": "CB",
      "latitude": "43.45740000",
      "longitude": "-3.49013000"
   },
   {
      "name": "Arnuero",
      "countryCode": "ES",
      "stateCode": "CB",
      "latitude": "43.47756000",
      "longitude": "-3.56959000"
   },
   {
      "name": "Arredondo",
      "countryCode": "ES",
      "stateCode": "CB",
      "latitude": "43.27325000",
      "longitude": "-3.60031000"
   },
   {
      "name": "Bareyo",
      "countryCode": "ES",
      "stateCode": "CB",
      "latitude": "43.46686000",
      "longitude": "-3.60083000"
   },
   {
      "name": "Bárcena de Cicero",
      "countryCode": "ES",
      "stateCode": "CB",
      "latitude": "43.42160000",
      "longitude": "-3.51030000"
   },
   {
      "name": "Bárcena de Pie de Concha",
      "countryCode": "ES",
      "stateCode": "CB",
      "latitude": "43.12580000",
      "longitude": "-4.05662000"
   },
   {
      "name": "Cabezón de Liébana",
      "countryCode": "ES",
      "stateCode": "CB",
      "latitude": "43.13437000",
      "longitude": "-4.57630000"
   },
   {
      "name": "Cabezón de la Sal",
      "countryCode": "ES",
      "stateCode": "CB",
      "latitude": "43.30824000",
      "longitude": "-4.23571000"
   },
   {
      "name": "Camargo",
      "countryCode": "ES",
      "stateCode": "CB",
      "latitude": "43.40744000",
      "longitude": "-3.88498000"
   },
   {
      "name": "Cartes",
      "countryCode": "ES",
      "stateCode": "CB",
      "latitude": "43.32596000",
      "longitude": "-4.06893000"
   },
   {
      "name": "Castro-Urdiales",
      "countryCode": "ES",
      "stateCode": "CB",
      "latitude": "43.38285000",
      "longitude": "-3.22043000"
   },
   {
      "name": "Colindres",
      "countryCode": "ES",
      "stateCode": "CB",
      "latitude": "43.39667000",
      "longitude": "-3.45361000"
   },
   {
      "name": "Comillas",
      "countryCode": "ES",
      "stateCode": "CB",
      "latitude": "43.38603000",
      "longitude": "-4.29162000"
   },
   {
      "name": "El Astillero",
      "countryCode": "ES",
      "stateCode": "CB",
      "latitude": "43.40094000",
      "longitude": "-3.82051000"
   },
   {
      "name": "Escalante",
      "countryCode": "ES",
      "stateCode": "CB",
      "latitude": "43.43678000",
      "longitude": "-3.51347000"
   },
   {
      "name": "Hazas de Cesto",
      "countryCode": "ES",
      "stateCode": "CB",
      "latitude": "43.39653000",
      "longitude": "-3.58916000"
   },
   {
      "name": "Laredo",
      "countryCode": "ES",
      "stateCode": "CB",
      "latitude": "43.40980000",
      "longitude": "-3.41613000"
   },
   {
      "name": "Limpias",
      "countryCode": "ES",
      "stateCode": "CB",
      "latitude": "43.36402000",
      "longitude": "-3.41778000"
   },
   {
      "name": "Los Corrales de Buelna",
      "countryCode": "ES",
      "stateCode": "CB",
      "latitude": "43.26358000",
      "longitude": "-4.07262000"
   },
   {
      "name": "Luzmela",
      "countryCode": "ES",
      "stateCode": "CB",
      "latitude": "43.29685000",
      "longitude": "-4.20884000"
   },
   {
      "name": "Mataporquera",
      "countryCode": "ES",
      "stateCode": "CB",
      "latitude": "42.87486000",
      "longitude": "-4.16276000"
   },
   {
      "name": "Miengo",
      "countryCode": "ES",
      "stateCode": "CB",
      "latitude": "43.42861000",
      "longitude": "-3.99866000"
   },
   {
      "name": "Molledo",
      "countryCode": "ES",
      "stateCode": "CB",
      "latitude": "43.14974000",
      "longitude": "-4.04239000"
   },
   {
      "name": "Noja",
      "countryCode": "ES",
      "stateCode": "CB",
      "latitude": "43.48917000",
      "longitude": "-3.52306000"
   },
   {
      "name": "Penagos",
      "countryCode": "ES",
      "stateCode": "CB",
      "latitude": "43.35216000",
      "longitude": "-3.81382000"
   },
   {
      "name": "Pesquera",
      "countryCode": "ES",
      "stateCode": "CB",
      "latitude": "43.08223000",
      "longitude": "-4.07932000"
   },
   {
      "name": "Polanco",
      "countryCode": "ES",
      "stateCode": "CB",
      "latitude": "43.38524000",
      "longitude": "-4.01642000"
   },
   {
      "name": "Potes",
      "countryCode": "ES",
      "stateCode": "CB",
      "latitude": "43.15457000",
      "longitude": "-4.62055000"
   },
   {
      "name": "Provincia de Cantabria",
      "countryCode": "ES",
      "stateCode": "CB",
      "latitude": "43.16667000",
      "longitude": "-4.00000000"
   },
   {
      "name": "Puente Viesgo",
      "countryCode": "ES",
      "stateCode": "CB",
      "latitude": "43.29815000",
      "longitude": "-3.96817000"
   },
   {
      "name": "Ramales de la Victoria",
      "countryCode": "ES",
      "stateCode": "CB",
      "latitude": "43.25720000",
      "longitude": "-3.46516000"
   },
   {
      "name": "Rasines",
      "countryCode": "ES",
      "stateCode": "CB",
      "latitude": "43.30505000",
      "longitude": "-3.42919000"
   },
   {
      "name": "Reinosa",
      "countryCode": "ES",
      "stateCode": "CB",
      "latitude": "42.99959000",
      "longitude": "-4.13801000"
   },
   {
      "name": "Reocín",
      "countryCode": "ES",
      "stateCode": "CB",
      "latitude": "43.33915000",
      "longitude": "-4.09403000"
   },
   {
      "name": "Ruente",
      "countryCode": "ES",
      "stateCode": "CB",
      "latitude": "43.25826000",
      "longitude": "-4.26791000"
   },
   {
      "name": "San Martín de Elines",
      "countryCode": "ES",
      "stateCode": "CB",
      "latitude": "42.82864000",
      "longitude": "-3.86865000"
   },
   {
      "name": "San Miguel de Aguayo",
      "countryCode": "ES",
      "stateCode": "CB",
      "latitude": "43.05383000",
      "longitude": "-4.02550000"
   },
   {
      "name": "San Miguel de Meruelo",
      "countryCode": "ES",
      "stateCode": "CB",
      "latitude": "43.46211000",
      "longitude": "-3.58877000"
   },
   {
      "name": "San Pedro del Romeral",
      "countryCode": "ES",
      "stateCode": "CB",
      "latitude": "43.11514000",
      "longitude": "-3.81860000"
   },
   {
      "name": "San Vicente de la Barquera",
      "countryCode": "ES",
      "stateCode": "CB",
      "latitude": "43.38509000",
      "longitude": "-4.39934000"
   },
   {
      "name": "Santa Cruz de Bezana",
      "countryCode": "ES",
      "stateCode": "CB",
      "latitude": "43.44370000",
      "longitude": "-3.90324000"
   },
   {
      "name": "Santa María de Cayón",
      "countryCode": "ES",
      "stateCode": "CB",
      "latitude": "43.30849000",
      "longitude": "-3.83680000"
   },
   {
      "name": "Santander",
      "countryCode": "ES",
      "stateCode": "CB",
      "latitude": "43.46472000",
      "longitude": "-3.80444000"
   },
   {
      "name": "Santillana",
      "countryCode": "ES",
      "stateCode": "CB",
      "latitude": "43.38903000",
      "longitude": "-4.10844000"
   },
   {
      "name": "Santiurde de Reinosa",
      "countryCode": "ES",
      "stateCode": "CB",
      "latitude": "43.06144000",
      "longitude": "-4.08351000"
   },
   {
      "name": "Santiurde de Toranzo",
      "countryCode": "ES",
      "stateCode": "CB",
      "latitude": "43.23819000",
      "longitude": "-3.93947000"
   },
   {
      "name": "Santoña",
      "countryCode": "ES",
      "stateCode": "CB",
      "latitude": "43.44386000",
      "longitude": "-3.45757000"
   },
   {
      "name": "Saro",
      "countryCode": "ES",
      "stateCode": "CB",
      "latitude": "43.25961000",
      "longitude": "-3.84283000"
   },
   {
      "name": "Selaya",
      "countryCode": "ES",
      "stateCode": "CB",
      "latitude": "43.21376000",
      "longitude": "-3.80563000"
   },
   {
      "name": "Solórzano",
      "countryCode": "ES",
      "stateCode": "CB",
      "latitude": "43.38233000",
      "longitude": "-3.58785000"
   },
   {
      "name": "Suances",
      "countryCode": "ES",
      "stateCode": "CB",
      "latitude": "43.43341000",
      "longitude": "-4.04338000"
   },
   {
      "name": "Torrelavega",
      "countryCode": "ES",
      "stateCode": "CB",
      "latitude": "43.34943000",
      "longitude": "-4.04785000"
   },
   {
      "name": "Vega de Pas",
      "countryCode": "ES",
      "stateCode": "CB",
      "latitude": "43.15692000",
      "longitude": "-3.78316000"
   },
   {
      "name": "Villacarriedo",
      "countryCode": "ES",
      "stateCode": "CB",
      "latitude": "43.22851000",
      "longitude": "-3.81057000"
   },
   {
      "name": "Villaescusa",
      "countryCode": "ES",
      "stateCode": "CB",
      "latitude": "42.96262000",
      "longitude": "-4.16706000"
   },
   {
      "name": "Villafufre",
      "countryCode": "ES",
      "stateCode": "CB",
      "latitude": "43.26557000",
      "longitude": "-3.89370000"
   }
]