[
   {
      "name": "Aktsyabrski",
      "countryCode": "BY",
      "stateCode": "HO",
      "latitude": "52.64400000",
      "longitude": "28.88010000"
   },
   {
      "name": "Brahin",
      "countryCode": "BY",
      "stateCode": "HO",
      "latitude": "51.78700000",
      "longitude": "30.26770000"
   },
   {
      "name": "Brahinski Rayon",
      "countryCode": "BY",
      "stateCode": "HO",
      "latitude": "51.66667000",
      "longitude": "30.33333000"
   },
   {
      "name": "Buda-Kashalyova",
      "countryCode": "BY",
      "stateCode": "HO",
      "latitude": "52.71790000",
      "longitude": "30.57010000"
   },
   {
      "name": "Chachersk",
      "countryCode": "BY",
      "stateCode": "HO",
      "latitude": "52.91640000",
      "longitude": "30.91790000"
   },
   {
      "name": "Chacherski Rayon",
      "countryCode": "BY",
      "stateCode": "HO",
      "latitude": "52.91667000",
      "longitude": "31.08333000"
   },
   {
      "name": "Dobrush",
      "countryCode": "BY",
      "stateCode": "HO",
      "latitude": "52.40890000",
      "longitude": "31.32370000"
   },
   {
      "name": "Dowsk",
      "countryCode": "BY",
      "stateCode": "HO",
      "latitude": "53.15710000",
      "longitude": "30.46010000"
   },
   {
      "name": "Homyel'",
      "countryCode": "BY",
      "stateCode": "HO",
      "latitude": "52.43450000",
      "longitude": "30.97540000"
   },
   {
      "name": "Homyel’ski Rayon",
      "countryCode": "BY",
      "stateCode": "HO",
      "latitude": "52.33333000",
      "longitude": "31.00000000"
   },
   {
      "name": "Kalinkavichy",
      "countryCode": "BY",
      "stateCode": "HO",
      "latitude": "52.13230000",
      "longitude": "29.32570000"
   },
   {
      "name": "Karanyowka",
      "countryCode": "BY",
      "stateCode": "HO",
      "latitude": "52.35060000",
      "longitude": "31.11210000"
   },
   {
      "name": "Karma",
      "countryCode": "BY",
      "stateCode": "HO",
      "latitude": "53.13010000",
      "longitude": "30.80160000"
   },
   {
      "name": "Kastsyukowka",
      "countryCode": "BY",
      "stateCode": "HO",
      "latitude": "52.53870000",
      "longitude": "30.91730000"
   },
   {
      "name": "Khal’ch",
      "countryCode": "BY",
      "stateCode": "HO",
      "latitude": "52.56430000",
      "longitude": "31.13640000"
   },
   {
      "name": "Khoyniki",
      "countryCode": "BY",
      "stateCode": "HO",
      "latitude": "51.89110000",
      "longitude": "29.95520000"
   },
   {
      "name": "Loyew",
      "countryCode": "BY",
      "stateCode": "HO",
      "latitude": "51.94580000",
      "longitude": "30.79530000"
   },
   {
      "name": "Lyel’chytski Rayon",
      "countryCode": "BY",
      "stateCode": "HO",
      "latitude": "51.83333000",
      "longitude": "28.25000000"
   },
   {
      "name": "Lyel’chytsy",
      "countryCode": "BY",
      "stateCode": "HO",
      "latitude": "51.78620000",
      "longitude": "28.32880000"
   },
   {
      "name": "Mazyr",
      "countryCode": "BY",
      "stateCode": "HO",
      "latitude": "52.04950000",
      "longitude": "29.24560000"
   },
   {
      "name": "Mazyrski Rayon",
      "countryCode": "BY",
      "stateCode": "HO",
      "latitude": "52.00000000",
      "longitude": "29.00000000"
   },
   {
      "name": "Narowlya",
      "countryCode": "BY",
      "stateCode": "HO",
      "latitude": "51.79610000",
      "longitude": "29.50040000"
   },
   {
      "name": "Novaya Huta",
      "countryCode": "BY",
      "stateCode": "HO",
      "latitude": "52.10320000",
      "longitude": "30.98370000"
   },
   {
      "name": "Parychy",
      "countryCode": "BY",
      "stateCode": "HO",
      "latitude": "52.80420000",
      "longitude": "29.41760000"
   },
   {
      "name": "Peramoga",
      "countryCode": "BY",
      "stateCode": "HO",
      "latitude": "52.39730000",
      "longitude": "31.07100000"
   },
   {
      "name": "Pyetrykaw",
      "countryCode": "BY",
      "stateCode": "HO",
      "latitude": "52.12890000",
      "longitude": "28.49210000"
   },
   {
      "name": "Rahachow",
      "countryCode": "BY",
      "stateCode": "HO",
      "latitude": "53.09340000",
      "longitude": "30.04950000"
   },
   {
      "name": "Rahachowski Rayon",
      "countryCode": "BY",
      "stateCode": "HO",
      "latitude": "53.16667000",
      "longitude": "30.16667000"
   },
   {
      "name": "Rechytsa",
      "countryCode": "BY",
      "stateCode": "HO",
      "latitude": "52.36170000",
      "longitude": "30.39160000"
   },
   {
      "name": "Sasnovy Bor",
      "countryCode": "BY",
      "stateCode": "HO",
      "latitude": "52.51940000",
      "longitude": "29.59880000"
   },
   {
      "name": "Svyetlahorsk",
      "countryCode": "BY",
      "stateCode": "HO",
      "latitude": "52.63290000",
      "longitude": "29.73890000"
   },
   {
      "name": "Turaw",
      "countryCode": "BY",
      "stateCode": "HO",
      "latitude": "52.06830000",
      "longitude": "27.73500000"
   },
   {
      "name": "Vasilyevichy",
      "countryCode": "BY",
      "stateCode": "HO",
      "latitude": "52.25120000",
      "longitude": "29.82880000"
   },
   {
      "name": "Vyetka",
      "countryCode": "BY",
      "stateCode": "HO",
      "latitude": "52.55910000",
      "longitude": "31.17940000"
   },
   {
      "name": "Vyetkawski Rayon",
      "countryCode": "BY",
      "stateCode": "HO",
      "latitude": "52.66667000",
      "longitude": "31.25000000"
   },
   {
      "name": "Yel’sk",
      "countryCode": "BY",
      "stateCode": "HO",
      "latitude": "51.81410000",
      "longitude": "29.15220000"
   },
   {
      "name": "Zhlobin",
      "countryCode": "BY",
      "stateCode": "HO",
      "latitude": "52.89260000",
      "longitude": "30.02400000"
   },
   {
      "name": "Zhlobinski Rayon",
      "countryCode": "BY",
      "stateCode": "HO",
      "latitude": "52.75000000",
      "longitude": "29.83333000"
   },
   {
      "name": "Zhytkavichy",
      "countryCode": "BY",
      "stateCode": "HO",
      "latitude": "52.21680000",
      "longitude": "27.85610000"
   }
]