[
   {
      "name": "Damaturu",
      "countryCode": "NG",
      "stateCode": "YO",
      "latitude": "11.74697000",
      "longitude": "11.96083000"
   },
   {
      "name": "Dankalwa",
      "countryCode": "NG",
      "stateCode": "YO",
      "latitude": "11.74449000",
      "longitude": "12.18545000"
   },
   {
      "name": "Dapchi",
      "countryCode": "NG",
      "stateCode": "YO",
      "latitude": "12.49536000",
      "longitude": "11.49977000"
   },
   {
      "name": "Daura",
      "countryCode": "NG",
      "stateCode": "YO",
      "latitude": "11.55410000",
      "longitude": "11.40600000"
   },
   {
      "name": "Fika",
      "countryCode": "NG",
      "stateCode": "YO",
      "latitude": "11.37700000",
      "longitude": "11.23746000"
   },
   {
      "name": "Gashua",
      "countryCode": "NG",
      "stateCode": "YO",
      "latitude": "12.87398000",
      "longitude": "11.04057000"
   },
   {
      "name": "Geidam",
      "countryCode": "NG",
      "stateCode": "YO",
      "latitude": "12.89439000",
      "longitude": "11.92649000"
   },
   {
      "name": "Goniri",
      "countryCode": "NG",
      "stateCode": "YO",
      "latitude": "11.48451000",
      "longitude": "12.31264000"
   },
   {
      "name": "Gorgoram",
      "countryCode": "NG",
      "stateCode": "YO",
      "latitude": "12.63958000",
      "longitude": "10.70422000"
   },
   {
      "name": "Gujba",
      "countryCode": "NG",
      "stateCode": "YO",
      "latitude": "11.49959000",
      "longitude": "11.93396000"
   },
   {
      "name": "Gwio Kura",
      "countryCode": "NG",
      "stateCode": "YO",
      "latitude": "12.67479000",
      "longitude": "11.06690000"
   },
   {
      "name": "Kumagunnam",
      "countryCode": "NG",
      "stateCode": "YO",
      "latitude": "13.15498000",
      "longitude": "10.63468000"
   },
   {
      "name": "Lajere",
      "countryCode": "NG",
      "stateCode": "YO",
      "latitude": "11.98022000",
      "longitude": "11.44002000"
   },
   {
      "name": "Machina",
      "countryCode": "NG",
      "stateCode": "YO",
      "latitude": "13.13639000",
      "longitude": "10.04924000"
   },
   {
      "name": "Nguru",
      "countryCode": "NG",
      "stateCode": "YO",
      "latitude": "12.87695000",
      "longitude": "10.45536000"
   },
   {
      "name": "Potiskum",
      "countryCode": "NG",
      "stateCode": "YO",
      "latitude": "11.71391000",
      "longitude": "11.08108000"
   }
]