[
   {
      "name": "Bláskógabyggð",
      "countryCode": "IS",
      "stateCode": "8",
      "latitude": "64.41667000",
      "longitude": "-20.33333000"
   },
   {
      "name": "Flóahreppur",
      "countryCode": "IS",
      "stateCode": "8",
      "latitude": "63.89569000",
      "longitude": "-20.80159000"
   },
   {
      "name": "Grímsnes- og Grafningshreppur",
      "countryCode": "IS",
      "stateCode": "8",
      "latitude": "64.08533000",
      "longitude": "-20.96710000"
   },
   {
      "name": "Hrunamannahreppur",
      "countryCode": "IS",
      "stateCode": "8",
      "latitude": "64.40944000",
      "longitude": "-19.72237000"
   },
   {
      "name": "Hveragerði",
      "countryCode": "IS",
      "stateCode": "8",
      "latitude": "64.00039000",
      "longitude": "-21.18602000"
   },
   {
      "name": "Mýrdalshreppur",
      "countryCode": "IS",
      "stateCode": "8",
      "latitude": "63.50000000",
      "longitude": "-19.00000000"
   },
   {
      "name": "Selfoss",
      "countryCode": "IS",
      "stateCode": "8",
      "latitude": "63.93311000",
      "longitude": "-20.99712000"
   },
   {
      "name": "Skaftárhreppur",
      "countryCode": "IS",
      "stateCode": "8",
      "latitude": "63.95948000",
      "longitude": "-18.14491000"
   },
   {
      "name": "Skeiða- og Gnúpverjahreppur",
      "countryCode": "IS",
      "stateCode": "8",
      "latitude": "64.34738000",
      "longitude": "-19.37757000"
   },
   {
      "name": "Vestmannaeyjabær",
      "countryCode": "IS",
      "stateCode": "8",
      "latitude": "63.43877000",
      "longitude": "-20.26900000"
   },
   {
      "name": "Vestmannaeyjar",
      "countryCode": "IS",
      "stateCode": "8",
      "latitude": "63.44273000",
      "longitude": "-20.27339000"
   },
   {
      "name": "Ásahreppur",
      "countryCode": "IS",
      "stateCode": "8",
      "latitude": "63.87589000",
      "longitude": "-20.59484000"
   },
   {
      "name": "Þorlákshöfn",
      "countryCode": "IS",
      "stateCode": "8",
      "latitude": "63.85591000",
      "longitude": "-21.38337000"
   }
]