[
   {
      "name": "Aremark",
      "countryCode": "NO",
      "stateCode": "01",
      "latitude": "59.22198000",
      "longitude": "11.69582000"
   },
   {
      "name": "Askim",
      "countryCode": "NO",
      "stateCode": "01",
      "latitude": "59.58464000",
      "longitude": "11.16084000"
   },
   {
      "name": "Eidsberg",
      "countryCode": "NO",
      "stateCode": "01",
      "latitude": "59.55148000",
      "longitude": "11.33587000"
   },
   {
      "name": "Fossby",
      "countryCode": "NO",
      "stateCode": "01",
      "latitude": "59.22218000",
      "longitude": "11.69928000"
   },
   {
      "name": "Fredrikstad",
      "countryCode": "NO",
      "stateCode": "01",
      "latitude": "59.21759000",
      "longitude": "10.93787000"
   },
   {
      "name": "Halden",
      "countryCode": "NO",
      "stateCode": "01",
      "latitude": "59.12258000",
      "longitude": "11.38709000"
   },
   {
      "name": "Hobøl",
      "countryCode": "NO",
      "stateCode": "01",
      "latitude": "59.62252000",
      "longitude": "10.94979000"
   },
   {
      "name": "Hvaler",
      "countryCode": "NO",
      "stateCode": "01",
      "latitude": "59.02809000",
      "longitude": "11.03110000"
   },
   {
      "name": "Karlshus",
      "countryCode": "NO",
      "stateCode": "01",
      "latitude": "59.35195000",
      "longitude": "10.87226000"
   },
   {
      "name": "Knappstad",
      "countryCode": "NO",
      "stateCode": "01",
      "latitude": "59.62424000",
      "longitude": "11.03274000"
   },
   {
      "name": "Larkollen",
      "countryCode": "NO",
      "stateCode": "01",
      "latitude": "59.33196000",
      "longitude": "10.66687000"
   },
   {
      "name": "Lervik",
      "countryCode": "NO",
      "stateCode": "01",
      "latitude": "59.27119000",
      "longitude": "10.74610000"
   },
   {
      "name": "Marker",
      "countryCode": "NO",
      "stateCode": "01",
      "latitude": "59.47952000",
      "longitude": "11.65917000"
   },
   {
      "name": "Moss",
      "countryCode": "NO",
      "stateCode": "01",
      "latitude": "59.43436000",
      "longitude": "10.65968000"
   },
   {
      "name": "Mysen",
      "countryCode": "NO",
      "stateCode": "01",
      "latitude": "59.55354000",
      "longitude": "11.32578000"
   },
   {
      "name": "Rakkestad",
      "countryCode": "NO",
      "stateCode": "01",
      "latitude": "59.42822000",
      "longitude": "11.34350000"
   },
   {
      "name": "Rygge",
      "countryCode": "NO",
      "stateCode": "01",
      "latitude": "59.40629000",
      "longitude": "10.69298000"
   },
   {
      "name": "Ryggebyen",
      "countryCode": "NO",
      "stateCode": "01",
      "latitude": "59.37500000",
      "longitude": "10.75000000"
   },
   {
      "name": "Råde",
      "countryCode": "NO",
      "stateCode": "01",
      "latitude": "59.35162000",
      "longitude": "10.87135000"
   },
   {
      "name": "Rømskog",
      "countryCode": "NO",
      "stateCode": "01",
      "latitude": "59.74968000",
      "longitude": "11.81122000"
   },
   {
      "name": "Sarpsborg",
      "countryCode": "NO",
      "stateCode": "01",
      "latitude": "59.28148000",
      "longitude": "11.11167000"
   },
   {
      "name": "Skiptvet",
      "countryCode": "NO",
      "stateCode": "01",
      "latitude": "59.47751000",
      "longitude": "11.16171000"
   },
   {
      "name": "Skjeberg",
      "countryCode": "NO",
      "stateCode": "01",
      "latitude": "59.21148000",
      "longitude": "11.19025000"
   },
   {
      "name": "Skjærhalden",
      "countryCode": "NO",
      "stateCode": "01",
      "latitude": "59.02526000",
      "longitude": "11.03685000"
   },
   {
      "name": "Spydeberg",
      "countryCode": "NO",
      "stateCode": "01",
      "latitude": "59.62028000",
      "longitude": "11.08069000"
   },
   {
      "name": "Tomter",
      "countryCode": "NO",
      "stateCode": "01",
      "latitude": "59.65910000",
      "longitude": "10.99487000"
   },
   {
      "name": "Trøgstad",
      "countryCode": "NO",
      "stateCode": "01",
      "latitude": "59.64016000",
      "longitude": "11.31890000"
   },
   {
      "name": "Våler",
      "countryCode": "NO",
      "stateCode": "01",
      "latitude": "59.48870000",
      "longitude": "10.86551000"
   },
   {
      "name": "Ørje",
      "countryCode": "NO",
      "stateCode": "01",
      "latitude": "59.48023000",
      "longitude": "11.66016000"
   }
]