[
   {
      "name": "Buena Vista",
      "countryCode": "PA",
      "stateCode": "3",
      "latitude": "9.27356000",
      "longitude": "-79.69551000"
   },
   {
      "name": "Cativá",
      "countryCode": "PA",
      "stateCode": "3",
      "latitude": "9.36218000",
      "longitude": "-79.83232000"
   },
   {
      "name": "Coclé del Norte",
      "countryCode": "PA",
      "stateCode": "3",
      "latitude": "9.07540000",
      "longitude": "-80.57177000"
   },
   {
      "name": "Colón",
      "countryCode": "PA",
      "stateCode": "3",
      "latitude": "9.35451000",
      "longitude": "-79.90011000"
   },
   {
      "name": "Cristóbal",
      "countryCode": "PA",
      "stateCode": "3",
      "latitude": "9.35222000",
      "longitude": "-79.90444000"
   },
   {
      "name": "Distrito de Chagres",
      "countryCode": "PA",
      "stateCode": "3",
      "latitude": "9.12300000",
      "longitude": "-80.11841000"
   },
   {
      "name": "Distrito de Colón",
      "countryCode": "PA",
      "stateCode": "3",
      "latitude": "9.24313000",
      "longitude": "-79.79463000"
   },
   {
      "name": "Distrito de Donoso",
      "countryCode": "PA",
      "stateCode": "3",
      "latitude": "9.01999000",
      "longitude": "-80.42967000"
   },
   {
      "name": "Distrito de Portobelo",
      "countryCode": "PA",
      "stateCode": "3",
      "latitude": "9.49748000",
      "longitude": "-79.60730000"
   },
   {
      "name": "Distrito de Santa Isabel",
      "countryCode": "PA",
      "stateCode": "3",
      "latitude": "9.48333000",
      "longitude": "-79.31667000"
   },
   {
      "name": "El Giral",
      "countryCode": "PA",
      "stateCode": "3",
      "latitude": "9.24509000",
      "longitude": "-79.69266000"
   },
   {
      "name": "El Guabo",
      "countryCode": "PA",
      "stateCode": "3",
      "latitude": "9.07842000",
      "longitude": "-80.08316000"
   },
   {
      "name": "El Valle de la Unión",
      "countryCode": "PA",
      "stateCode": "3",
      "latitude": "9.23630000",
      "longitude": "-79.65986000"
   },
   {
      "name": "Escobal",
      "countryCode": "PA",
      "stateCode": "3",
      "latitude": "9.14373000",
      "longitude": "-79.96439000"
   },
   {
      "name": "Gatuncillo",
      "countryCode": "PA",
      "stateCode": "3",
      "latitude": "9.24346000",
      "longitude": "-79.64856000"
   },
   {
      "name": "Gatún",
      "countryCode": "PA",
      "stateCode": "3",
      "latitude": "9.28922000",
      "longitude": "-79.77204000"
   },
   {
      "name": "Las Margaritas",
      "countryCode": "PA",
      "stateCode": "3",
      "latitude": "9.32603000",
      "longitude": "-79.89028000"
   },
   {
      "name": "María Chiquita",
      "countryCode": "PA",
      "stateCode": "3",
      "latitude": "9.43991000",
      "longitude": "-79.75455000"
   },
   {
      "name": "Miramar",
      "countryCode": "PA",
      "stateCode": "3",
      "latitude": "9.57544000",
      "longitude": "-79.33573000"
   },
   {
      "name": "Nombre de Dios",
      "countryCode": "PA",
      "stateCode": "3",
      "latitude": "9.57937000",
      "longitude": "-79.47109000"
   },
   {
      "name": "Nuevo Chagres",
      "countryCode": "PA",
      "stateCode": "3",
      "latitude": "9.23979000",
      "longitude": "-80.08267000"
   },
   {
      "name": "Nuevo San Juan",
      "countryCode": "PA",
      "stateCode": "3",
      "latitude": "9.22205000",
      "longitude": "-79.66602000"
   },
   {
      "name": "Nuevo Vigía",
      "countryCode": "PA",
      "stateCode": "3",
      "latitude": "9.24263000",
      "longitude": "-79.60756000"
   },
   {
      "name": "Palenque",
      "countryCode": "PA",
      "stateCode": "3",
      "latitude": "9.56970000",
      "longitude": "-79.36341000"
   },
   {
      "name": "Palmas Bellas",
      "countryCode": "PA",
      "stateCode": "3",
      "latitude": "9.22838000",
      "longitude": "-80.08503000"
   },
   {
      "name": "Palmira",
      "countryCode": "PA",
      "stateCode": "3",
      "latitude": "9.54359000",
      "longitude": "-79.21946000"
   },
   {
      "name": "Playa Chiquita",
      "countryCode": "PA",
      "stateCode": "3",
      "latitude": "9.56620000",
      "longitude": "-79.29185000"
   },
   {
      "name": "Portobelo",
      "countryCode": "PA",
      "stateCode": "3",
      "latitude": "9.55303000",
      "longitude": "-79.65693000"
   },
   {
      "name": "Puerto Escondido",
      "countryCode": "PA",
      "stateCode": "3",
      "latitude": "9.19333000",
      "longitude": "-80.08833000"
   },
   {
      "name": "Puerto Pilón",
      "countryCode": "PA",
      "stateCode": "3",
      "latitude": "9.36316000",
      "longitude": "-79.79333000"
   },
   {
      "name": "Quebrada Bonita Adentro",
      "countryCode": "PA",
      "stateCode": "3",
      "latitude": "9.29662000",
      "longitude": "-79.70606000"
   },
   {
      "name": "Río Alejandro",
      "countryCode": "PA",
      "stateCode": "3",
      "latitude": "9.37149000",
      "longitude": "-79.78809000"
   },
   {
      "name": "Río Duque",
      "countryCode": "PA",
      "stateCode": "3",
      "latitude": "9.25688000",
      "longitude": "-79.67937000"
   },
   {
      "name": "Río Rita",
      "countryCode": "PA",
      "stateCode": "3",
      "latitude": "9.30296000",
      "longitude": "-79.79234000"
   },
   {
      "name": "Sabanitas",
      "countryCode": "PA",
      "stateCode": "3",
      "latitude": "9.34269000",
      "longitude": "-79.80961000"
   },
   {
      "name": "Santa Isabel",
      "countryCode": "PA",
      "stateCode": "3",
      "latitude": "9.53922000",
      "longitude": "-79.19570000"
   },
   {
      "name": "Santa Rita Arriba",
      "countryCode": "PA",
      "stateCode": "3",
      "latitude": "9.33032000",
      "longitude": "-79.79363000"
   },
   {
      "name": "Viento Frío",
      "countryCode": "PA",
      "stateCode": "3",
      "latitude": "9.58263000",
      "longitude": "-79.40690000"
   }
]