[
   {
      "name": "Amphoe Chaiyo",
      "countryCode": "TH",
      "stateCode": "15",
      "latitude": "14.67225000",
      "longitude": "100.46786000"
   },
   {
      "name": "Amphoe Mueang Ang Thong",
      "countryCode": "TH",
      "stateCode": "15",
      "latitude": "14.57815000",
      "longitude": "100.44393000"
   },
   {
      "name": "Amphoe Pa Mok",
      "countryCode": "TH",
      "stateCode": "15",
      "latitude": "14.48620000",
      "longitude": "100.45730000"
   },
   {
      "name": "Amphoe Pho Thong",
      "countryCode": "TH",
      "stateCode": "15",
      "latitude": "14.67344000",
      "longitude": "100.34569000"
   },
   {
      "name": "Amphoe Sawaeng Ha",
      "countryCode": "TH",
      "stateCode": "15",
      "latitude": "14.74635000",
      "longitude": "100.28963000"
   },
   {
      "name": "Amphoe Wiset Chai Chan",
      "countryCode": "TH",
      "stateCode": "15",
      "latitude": "14.54990000",
      "longitude": "100.31743000"
   },
   {
      "name": "Ang Thong",
      "countryCode": "TH",
      "stateCode": "15",
      "latitude": "14.58839000",
      "longitude": "100.45283000"
   },
   {
      "name": "Ban Thai Tan",
      "countryCode": "TH",
      "stateCode": "15",
      "latitude": "14.62161000",
      "longitude": "100.48739000"
   },
   {
      "name": "Chaiyo",
      "countryCode": "TH",
      "stateCode": "15",
      "latitude": "14.67639000",
      "longitude": "100.46861000"
   },
   {
      "name": "Pho Thong",
      "countryCode": "TH",
      "stateCode": "15",
      "latitude": "14.66731000",
      "longitude": "100.40878000"
   },
   {
      "name": "Wiset Chaichan",
      "countryCode": "TH",
      "stateCode": "15",
      "latitude": "14.59450000",
      "longitude": "100.33825000"
   }
]