[
   {
      "name": "Angra dos Reis",
      "countryCode": "BR",
      "stateCode": "RJ",
      "latitude": "-23.00667000",
      "longitude": "-44.31806000"
   },
   {
      "name": "Aperibé",
      "countryCode": "BR",
      "stateCode": "RJ",
      "latitude": "-21.64148000",
      "longitude": "-42.12753000"
   },
   {
      "name": "Araruama",
      "countryCode": "BR",
      "stateCode": "RJ",
      "latitude": "-22.87278000",
      "longitude": "-42.34306000"
   },
   {
      "name": "Areal",
      "countryCode": "BR",
      "stateCode": "RJ",
      "latitude": "-22.23056000",
      "longitude": "-43.10556000"
   },
   {
      "name": "Armação dos Búzios",
      "countryCode": "BR",
      "stateCode": "RJ",
      "latitude": "-22.76948000",
      "longitude": "-41.90965000"
   },
   {
      "name": "Arraial do Cabo",
      "countryCode": "BR",
      "stateCode": "RJ",
      "latitude": "-22.95505000",
      "longitude": "-42.06098000"
   },
   {
      "name": "Barra Mansa",
      "countryCode": "BR",
      "stateCode": "RJ",
      "latitude": "-22.54417000",
      "longitude": "-44.17139000"
   },
   {
      "name": "Barra do Piraí",
      "countryCode": "BR",
      "stateCode": "RJ",
      "latitude": "-22.47000000",
      "longitude": "-43.82556000"
   },
   {
      "name": "Belford Roxo",
      "countryCode": "BR",
      "stateCode": "RJ",
      "latitude": "-22.76417000",
      "longitude": "-43.39944000"
   },
   {
      "name": "Bom Jardim",
      "countryCode": "BR",
      "stateCode": "RJ",
      "latitude": "-22.17871000",
      "longitude": "-42.33515000"
   },
   {
      "name": "Bom Jesus do Itabapoana",
      "countryCode": "BR",
      "stateCode": "RJ",
      "latitude": "-21.13389000",
      "longitude": "-41.67972000"
   },
   {
      "name": "Cabo Frio",
      "countryCode": "BR",
      "stateCode": "RJ",
      "latitude": "-22.88717000",
      "longitude": "-42.02622000"
   },
   {
      "name": "Cachoeiras de Macacu",
      "countryCode": "BR",
      "stateCode": "RJ",
      "latitude": "-22.46250000",
      "longitude": "-42.65306000"
   },
   {
      "name": "Cambuci",
      "countryCode": "BR",
      "stateCode": "RJ",
      "latitude": "-21.57528000",
      "longitude": "-41.91111000"
   },
   {
      "name": "Campos dos Goytacazes",
      "countryCode": "BR",
      "stateCode": "RJ",
      "latitude": "-21.75227000",
      "longitude": "-41.33044000"
   },
   {
      "name": "Cantagalo",
      "countryCode": "BR",
      "stateCode": "RJ",
      "latitude": "-21.98111000",
      "longitude": "-42.36806000"
   },
   {
      "name": "Carapebus",
      "countryCode": "BR",
      "stateCode": "RJ",
      "latitude": "-22.22429000",
      "longitude": "-41.61306000"
   },
   {
      "name": "Cardoso Moreira",
      "countryCode": "BR",
      "stateCode": "RJ",
      "latitude": "-21.51166000",
      "longitude": "-41.46121000"
   },
   {
      "name": "Carmo",
      "countryCode": "BR",
      "stateCode": "RJ",
      "latitude": "-21.89966000",
      "longitude": "-42.53760000"
   },
   {
      "name": "Casimiro de Abreu",
      "countryCode": "BR",
      "stateCode": "RJ",
      "latitude": "-22.48056000",
      "longitude": "-42.20417000"
   },
   {
      "name": "Comendador Levy Gasparian",
      "countryCode": "BR",
      "stateCode": "RJ",
      "latitude": "-22.03655000",
      "longitude": "-43.25312000"
   },
   {
      "name": "Conceição de Macabu",
      "countryCode": "BR",
      "stateCode": "RJ",
      "latitude": "-22.12612000",
      "longitude": "-41.85341000"
   },
   {
      "name": "Cordeiro",
      "countryCode": "BR",
      "stateCode": "RJ",
      "latitude": "-22.02861000",
      "longitude": "-42.36083000"
   },
   {
      "name": "Duas Barras",
      "countryCode": "BR",
      "stateCode": "RJ",
      "latitude": "-22.07281000",
      "longitude": "-42.52467000"
   },
   {
      "name": "Duque de Caxias",
      "countryCode": "BR",
      "stateCode": "RJ",
      "latitude": "-22.78556000",
      "longitude": "-43.31167000"
   },
   {
      "name": "Engenheiro Paulo de Frontin",
      "countryCode": "BR",
      "stateCode": "RJ",
      "latitude": "-22.54807000",
      "longitude": "-43.67270000"
   },
   {
      "name": "Guapimirim",
      "countryCode": "BR",
      "stateCode": "RJ",
      "latitude": "-22.58914000",
      "longitude": "-42.97530000"
   },
   {
      "name": "Iguaba Grande",
      "countryCode": "BR",
      "stateCode": "RJ",
      "latitude": "-22.83917000",
      "longitude": "-42.22889000"
   },
   {
      "name": "Ilha Grande",
      "countryCode": "BR",
      "stateCode": "RJ",
      "latitude": "-23.15236000",
      "longitude": "-44.23164000"
   },
   {
      "name": "Itaboraí",
      "countryCode": "BR",
      "stateCode": "RJ",
      "latitude": "-22.74444000",
      "longitude": "-42.85944000"
   },
   {
      "name": "Itaguaí",
      "countryCode": "BR",
      "stateCode": "RJ",
      "latitude": "-22.85222000",
      "longitude": "-43.77528000"
   },
   {
      "name": "Italva",
      "countryCode": "BR",
      "stateCode": "RJ",
      "latitude": "-21.38401000",
      "longitude": "-41.66728000"
   },
   {
      "name": "Itaocara",
      "countryCode": "BR",
      "stateCode": "RJ",
      "latitude": "-21.77006000",
      "longitude": "-42.07488000"
   },
   {
      "name": "Itaperuna",
      "countryCode": "BR",
      "stateCode": "RJ",
      "latitude": "-21.20500000",
      "longitude": "-41.88778000"
   },
   {
      "name": "Itatiaia",
      "countryCode": "BR",
      "stateCode": "RJ",
      "latitude": "-22.41099000",
      "longitude": "-44.57621000"
   },
   {
      "name": "Japeri",
      "countryCode": "BR",
      "stateCode": "RJ",
      "latitude": "-22.64306000",
      "longitude": "-43.65333000"
   },
   {
      "name": "Laje do Muriaé",
      "countryCode": "BR",
      "stateCode": "RJ",
      "latitude": "-21.23762000",
      "longitude": "-42.13269000"
   },
   {
      "name": "Macaé",
      "countryCode": "BR",
      "stateCode": "RJ",
      "latitude": "-22.38484000",
      "longitude": "-41.78324000"
   },
   {
      "name": "Macuco",
      "countryCode": "BR",
      "stateCode": "RJ",
      "latitude": "-22.02427000",
      "longitude": "-42.27369000"
   },
   {
      "name": "Magé",
      "countryCode": "BR",
      "stateCode": "RJ",
      "latitude": "-22.63490000",
      "longitude": "-43.12056000"
   },
   {
      "name": "Mangaratiba",
      "countryCode": "BR",
      "stateCode": "RJ",
      "latitude": "-22.95972000",
      "longitude": "-44.04056000"
   },
   {
      "name": "Maricá",
      "countryCode": "BR",
      "stateCode": "RJ",
      "latitude": "-22.91630000",
      "longitude": "-42.82203000"
   },
   {
      "name": "Mendes",
      "countryCode": "BR",
      "stateCode": "RJ",
      "latitude": "-22.54316000",
      "longitude": "-43.74899000"
   },
   {
      "name": "Mesquita",
      "countryCode": "BR",
      "stateCode": "RJ",
      "latitude": "-22.78993000",
      "longitude": "-43.45966000"
   },
   {
      "name": "Miguel Pereira",
      "countryCode": "BR",
      "stateCode": "RJ",
      "latitude": "-22.45389000",
      "longitude": "-43.46889000"
   },
   {
      "name": "Miracema",
      "countryCode": "BR",
      "stateCode": "RJ",
      "latitude": "-21.37442000",
      "longitude": "-42.15048000"
   },
   {
      "name": "Natividade",
      "countryCode": "BR",
      "stateCode": "RJ",
      "latitude": "-21.04222000",
      "longitude": "-41.97333000"
   },
   {
      "name": "Nilópolis",
      "countryCode": "BR",
      "stateCode": "RJ",
      "latitude": "-22.82106000",
      "longitude": "-43.42703000"
   },
   {
      "name": "Niterói",
      "countryCode": "BR",
      "stateCode": "RJ",
      "latitude": "-22.91715000",
      "longitude": "-43.08391000"
   },
   {
      "name": "Nova Friburgo",
      "countryCode": "BR",
      "stateCode": "RJ",
      "latitude": "-22.28194000",
      "longitude": "-42.53111000"
   },
   {
      "name": "Nova Iguaçu",
      "countryCode": "BR",
      "stateCode": "RJ",
      "latitude": "-22.75917000",
      "longitude": "-43.45111000"
   },
   {
      "name": "Paracambi",
      "countryCode": "BR",
      "stateCode": "RJ",
      "latitude": "-22.60829000",
      "longitude": "-43.70840000"
   },
   {
      "name": "Paraty",
      "countryCode": "BR",
      "stateCode": "RJ",
      "latitude": "-23.21778000",
      "longitude": "-44.71306000"
   },
   {
      "name": "Paraíba do Sul",
      "countryCode": "BR",
      "stateCode": "RJ",
      "latitude": "-22.15847000",
      "longitude": "-43.29321000"
   },
   {
      "name": "Paty do Alferes",
      "countryCode": "BR",
      "stateCode": "RJ",
      "latitude": "-22.42861000",
      "longitude": "-43.41861000"
   },
   {
      "name": "Petrópolis",
      "countryCode": "BR",
      "stateCode": "RJ",
      "latitude": "-22.38219000",
      "longitude": "-43.15909000"
   },
   {
      "name": "Pinheiral",
      "countryCode": "BR",
      "stateCode": "RJ",
      "latitude": "-22.51278000",
      "longitude": "-44.00056000"
   },
   {
      "name": "Piraí",
      "countryCode": "BR",
      "stateCode": "RJ",
      "latitude": "-22.62917000",
      "longitude": "-43.89806000"
   },
   {
      "name": "Porciúncula",
      "countryCode": "BR",
      "stateCode": "RJ",
      "latitude": "-20.96278000",
      "longitude": "-42.04083000"
   },
   {
      "name": "Porto Real",
      "countryCode": "BR",
      "stateCode": "RJ",
      "latitude": "-22.41972000",
      "longitude": "-44.29028000"
   },
   {
      "name": "Quatis",
      "countryCode": "BR",
      "stateCode": "RJ",
      "latitude": "-22.40722000",
      "longitude": "-44.25806000"
   },
   {
      "name": "Queimados",
      "countryCode": "BR",
      "stateCode": "RJ",
      "latitude": "-22.71611000",
      "longitude": "-43.55528000"
   },
   {
      "name": "Quissamã",
      "countryCode": "BR",
      "stateCode": "RJ",
      "latitude": "-22.09574000",
      "longitude": "-41.39137000"
   },
   {
      "name": "Resende",
      "countryCode": "BR",
      "stateCode": "RJ",
      "latitude": "-22.46889000",
      "longitude": "-44.44667000"
   },
   {
      "name": "Rio Bonito",
      "countryCode": "BR",
      "stateCode": "RJ",
      "latitude": "-22.74390000",
      "longitude": "-42.61916000"
   },
   {
      "name": "Rio Claro",
      "countryCode": "BR",
      "stateCode": "RJ",
      "latitude": "-22.77976000",
      "longitude": "-44.07721000"
   },
   {
      "name": "Rio das Flores",
      "countryCode": "BR",
      "stateCode": "RJ",
      "latitude": "-22.16104000",
      "longitude": "-43.57579000"
   },
   {
      "name": "Rio das Ostras",
      "countryCode": "BR",
      "stateCode": "RJ",
      "latitude": "-22.52694000",
      "longitude": "-41.94500000"
   },
   {
      "name": "Rio de Janeiro",
      "countryCode": "BR",
      "stateCode": "RJ",
      "latitude": "-22.92008000",
      "longitude": "-43.33069000"
   },
   {
      "name": "Santa Maria Madalena",
      "countryCode": "BR",
      "stateCode": "RJ",
      "latitude": "-21.95791000",
      "longitude": "-41.90903000"
   },
   {
      "name": "Santo Antônio de Pádua",
      "countryCode": "BR",
      "stateCode": "RJ",
      "latitude": "-21.57245000",
      "longitude": "-42.21090000"
   },
   {
      "name": "Sapucaia",
      "countryCode": "BR",
      "stateCode": "RJ",
      "latitude": "-22.04085000",
      "longitude": "-42.81392000"
   },
   {
      "name": "Saquarema",
      "countryCode": "BR",
      "stateCode": "RJ",
      "latitude": "-22.92000000",
      "longitude": "-42.51028000"
   },
   {
      "name": "Seropédica",
      "countryCode": "BR",
      "stateCode": "RJ",
      "latitude": "-22.73876000",
      "longitude": "-43.70855000"
   },
   {
      "name": "Silva Jardim",
      "countryCode": "BR",
      "stateCode": "RJ",
      "latitude": "-22.65083000",
      "longitude": "-42.39167000"
   },
   {
      "name": "Sumidouro",
      "countryCode": "BR",
      "stateCode": "RJ",
      "latitude": "-22.13179000",
      "longitude": "-42.66127000"
   },
   {
      "name": "São Fidélis",
      "countryCode": "BR",
      "stateCode": "RJ",
      "latitude": "-21.64611000",
      "longitude": "-41.74694000"
   },
   {
      "name": "São Francisco de Itabapoana",
      "countryCode": "BR",
      "stateCode": "RJ",
      "latitude": "-21.38002000",
      "longitude": "-41.14905000"
   },
   {
      "name": "São Gonçalo",
      "countryCode": "BR",
      "stateCode": "RJ",
      "latitude": "-22.82694000",
      "longitude": "-43.05389000"
   },
   {
      "name": "São José de Ubá",
      "countryCode": "BR",
      "stateCode": "RJ",
      "latitude": "-21.37831000",
      "longitude": "-41.95256000"
   },
   {
      "name": "São José do Vale do Rio Preto",
      "countryCode": "BR",
      "stateCode": "RJ",
      "latitude": "-22.17062000",
      "longitude": "-42.91651000"
   },
   {
      "name": "São João da Barra",
      "countryCode": "BR",
      "stateCode": "RJ",
      "latitude": "-21.64028000",
      "longitude": "-41.05111000"
   },
   {
      "name": "São João de Meriti",
      "countryCode": "BR",
      "stateCode": "RJ",
      "latitude": "-22.80389000",
      "longitude": "-43.37222000"
   },
   {
      "name": "São Pedro",
      "countryCode": "BR",
      "stateCode": "RJ",
      "latitude": "-22.42313000",
      "longitude": "-42.96612000"
   },
   {
      "name": "São Pedro da Aldeia",
      "countryCode": "BR",
      "stateCode": "RJ",
      "latitude": "-22.83917000",
      "longitude": "-42.10278000"
   },
   {
      "name": "São Sebastião do Alto",
      "countryCode": "BR",
      "stateCode": "RJ",
      "latitude": "-21.86591000",
      "longitude": "-42.09585000"
   },
   {
      "name": "Tanguá",
      "countryCode": "BR",
      "stateCode": "RJ",
      "latitude": "-22.79184000",
      "longitude": "-42.71941000"
   },
   {
      "name": "Teresópolis",
      "countryCode": "BR",
      "stateCode": "RJ",
      "latitude": "-22.31349000",
      "longitude": "-42.87414000"
   },
   {
      "name": "Trajano de Moraes",
      "countryCode": "BR",
      "stateCode": "RJ",
      "latitude": "-22.15204000",
      "longitude": "-42.18834000"
   },
   {
      "name": "Três Rios",
      "countryCode": "BR",
      "stateCode": "RJ",
      "latitude": "-22.12121000",
      "longitude": "-43.06617000"
   },
   {
      "name": "Valença",
      "countryCode": "BR",
      "stateCode": "RJ",
      "latitude": "-22.24020000",
      "longitude": "-43.87843000"
   },
   {
      "name": "Varre-Sai",
      "countryCode": "BR",
      "stateCode": "RJ",
      "latitude": "-20.89839000",
      "longitude": "-41.81982000"
   },
   {
      "name": "Vassouras",
      "countryCode": "BR",
      "stateCode": "RJ",
      "latitude": "-22.35995000",
      "longitude": "-43.59809000"
   },
   {
      "name": "Volta Redonda",
      "countryCode": "BR",
      "stateCode": "RJ",
      "latitude": "-22.52306000",
      "longitude": "-44.10417000"
   }
]