[
   {
      "name": "Abram Mys",
      "countryCode": "RU",
      "stateCode": "MUR",
      "latitude": "68.97839000",
      "longitude": "33.01926000"
   },
   {
      "name": "Afrikanda",
      "countryCode": "RU",
      "stateCode": "MUR",
      "latitude": "67.44289000",
      "longitude": "32.78279000"
   },
   {
      "name": "Alakurtti",
      "countryCode": "RU",
      "stateCode": "MUR",
      "latitude": "66.96720000",
      "longitude": "30.34905000"
   },
   {
      "name": "Apatity",
      "countryCode": "RU",
      "stateCode": "MUR",
      "latitude": "67.56414000",
      "longitude": "33.40310000"
   },
   {
      "name": "Gadzhiyevo",
      "countryCode": "RU",
      "stateCode": "MUR",
      "latitude": "69.25506000",
      "longitude": "33.33616000"
   },
   {
      "name": "Kandalaksha",
      "countryCode": "RU",
      "stateCode": "MUR",
      "latitude": "67.16200000",
      "longitude": "32.41229000"
   },
   {
      "name": "Kandalakshskiy rayon",
      "countryCode": "RU",
      "stateCode": "MUR",
      "latitude": "67.16622000",
      "longitude": "32.44606000"
   },
   {
      "name": "Kirovsk",
      "countryCode": "RU",
      "stateCode": "MUR",
      "latitude": "67.61475000",
      "longitude": "33.67274000"
   },
   {
      "name": "Kola",
      "countryCode": "RU",
      "stateCode": "MUR",
      "latitude": "68.88062000",
      "longitude": "33.01842000"
   },
   {
      "name": "Kol’skiy Rayon",
      "countryCode": "RU",
      "stateCode": "MUR",
      "latitude": "68.50000000",
      "longitude": "32.00000000"
   },
   {
      "name": "Kovdor",
      "countryCode": "RU",
      "stateCode": "MUR",
      "latitude": "67.56616000",
      "longitude": "30.47576000"
   },
   {
      "name": "Kovdorskiy Rayon",
      "countryCode": "RU",
      "stateCode": "MUR",
      "latitude": "67.56667000",
      "longitude": "30.40000000"
   },
   {
      "name": "Lovozero",
      "countryCode": "RU",
      "stateCode": "MUR",
      "latitude": "68.00638000",
      "longitude": "35.01589000"
   },
   {
      "name": "Lovozerskiy Rayon",
      "countryCode": "RU",
      "stateCode": "MUR",
      "latitude": "68.00000000",
      "longitude": "36.00000000"
   },
   {
      "name": "Molochnyy",
      "countryCode": "RU",
      "stateCode": "MUR",
      "latitude": "68.85389000",
      "longitude": "33.02046000"
   },
   {
      "name": "Monchegorsk",
      "countryCode": "RU",
      "stateCode": "MUR",
      "latitude": "67.93972000",
      "longitude": "32.87389000"
   },
   {
      "name": "Murmansk",
      "countryCode": "RU",
      "stateCode": "MUR",
      "latitude": "68.97917000",
      "longitude": "33.09251000"
   },
   {
      "name": "Murmashi",
      "countryCode": "RU",
      "stateCode": "MUR",
      "latitude": "68.81542000",
      "longitude": "32.81147000"
   },
   {
      "name": "Nikel",
      "countryCode": "RU",
      "stateCode": "MUR",
      "latitude": "69.41285000",
      "longitude": "30.22198000"
   },
   {
      "name": "Olenegorsk",
      "countryCode": "RU",
      "stateCode": "MUR",
      "latitude": "68.14320000",
      "longitude": "33.25287000"
   },
   {
      "name": "Ostrovnoy",
      "countryCode": "RU",
      "stateCode": "MUR",
      "latitude": "68.05306000",
      "longitude": "39.51306000"
   },
   {
      "name": "Pechenga",
      "countryCode": "RU",
      "stateCode": "MUR",
      "latitude": "69.52587000",
      "longitude": "31.17027000"
   },
   {
      "name": "Pechengskiy Rayon",
      "countryCode": "RU",
      "stateCode": "MUR",
      "latitude": "69.00000000",
      "longitude": "30.00000000"
   },
   {
      "name": "Polyarnyy",
      "countryCode": "RU",
      "stateCode": "MUR",
      "latitude": "69.19889000",
      "longitude": "33.44778000"
   },
   {
      "name": "Polyarnyye Zori",
      "countryCode": "RU",
      "stateCode": "MUR",
      "latitude": "67.36611000",
      "longitude": "32.49806000"
   },
   {
      "name": "Poyakonda",
      "countryCode": "RU",
      "stateCode": "MUR",
      "latitude": "66.59428000",
      "longitude": "32.82088000"
   },
   {
      "name": "Revda",
      "countryCode": "RU",
      "stateCode": "MUR",
      "latitude": "67.93710000",
      "longitude": "34.56149000"
   },
   {
      "name": "Roslyakovo",
      "countryCode": "RU",
      "stateCode": "MUR",
      "latitude": "69.04303000",
      "longitude": "33.19906000"
   },
   {
      "name": "Safonovo",
      "countryCode": "RU",
      "stateCode": "MUR",
      "latitude": "69.06043000",
      "longitude": "33.29523000"
   },
   {
      "name": "Severomorsk",
      "countryCode": "RU",
      "stateCode": "MUR",
      "latitude": "69.06889000",
      "longitude": "33.41622000"
   },
   {
      "name": "Severomorsk-3",
      "countryCode": "RU",
      "stateCode": "MUR",
      "latitude": "68.87862000",
      "longitude": "33.72631000"
   },
   {
      "name": "Shonguy",
      "countryCode": "RU",
      "stateCode": "MUR",
      "latitude": "68.75261000",
      "longitude": "33.14595000"
   },
   {
      "name": "Snezhnogorsk",
      "countryCode": "RU",
      "stateCode": "MUR",
      "latitude": "69.19333000",
      "longitude": "33.25314000"
   },
   {
      "name": "Teribërka",
      "countryCode": "RU",
      "stateCode": "MUR",
      "latitude": "69.16088000",
      "longitude": "35.14527000"
   },
   {
      "name": "Terskiy Rayon",
      "countryCode": "RU",
      "stateCode": "MUR",
      "latitude": "66.91667000",
      "longitude": "35.00000000"
   },
   {
      "name": "Umba",
      "countryCode": "RU",
      "stateCode": "MUR",
      "latitude": "66.68706000",
      "longitude": "34.34291000"
   },
   {
      "name": "Verkhnetulomskiy",
      "countryCode": "RU",
      "stateCode": "MUR",
      "latitude": "68.60727000",
      "longitude": "31.79621000"
   },
   {
      "name": "Vidyayevo",
      "countryCode": "RU",
      "stateCode": "MUR",
      "latitude": "69.31914000",
      "longitude": "32.80488000"
   },
   {
      "name": "Vysokiy",
      "countryCode": "RU",
      "stateCode": "MUR",
      "latitude": "68.13583000",
      "longitude": "33.41917000"
   },
   {
      "name": "Zaozërsk",
      "countryCode": "RU",
      "stateCode": "MUR",
      "latitude": "69.40052000",
      "longitude": "32.44761000"
   },
   {
      "name": "Zapolyarnyy",
      "countryCode": "RU",
      "stateCode": "MUR",
      "latitude": "69.41541000",
      "longitude": "30.81355000"
   },
   {
      "name": "Zelenoborskiy",
      "countryCode": "RU",
      "stateCode": "MUR",
      "latitude": "66.84500000",
      "longitude": "32.36222000"
   }
]