[
   {
      "name": "Amphoe Bang Rachan",
      "countryCode": "TH",
      "stateCode": "17",
      "latitude": "14.89959000",
      "longitude": "100.27795000"
   },
   {
      "name": "Amphoe In Buri",
      "countryCode": "TH",
      "stateCode": "17",
      "latitude": "15.02057000",
      "longitude": "100.34865000"
   },
   {
      "name": "Amphoe Khai Bang Rachan",
      "countryCode": "TH",
      "stateCode": "17",
      "latitude": "14.81438000",
      "longitude": "100.31389000"
   },
   {
      "name": "Amphoe Mueang Sing Buri",
      "countryCode": "TH",
      "stateCode": "17",
      "latitude": "14.90239000",
      "longitude": "100.39731000"
   },
   {
      "name": "Amphoe Phrom Buri",
      "countryCode": "TH",
      "stateCode": "17",
      "latitude": "14.78333000",
      "longitude": "100.45000000"
   },
   {
      "name": "Amphoe Tha Chang",
      "countryCode": "TH",
      "stateCode": "17",
      "latitude": "14.77941000",
      "longitude": "100.39349000"
   },
   {
      "name": "Bang Racham",
      "countryCode": "TH",
      "stateCode": "17",
      "latitude": "14.89200000",
      "longitude": "100.31728000"
   },
   {
      "name": "In Buri",
      "countryCode": "TH",
      "stateCode": "17",
      "latitude": "15.00787000",
      "longitude": "100.32691000"
   },
   {
      "name": "Sing Buri",
      "countryCode": "TH",
      "stateCode": "17",
      "latitude": "14.88786000",
      "longitude": "100.40464000"
   }
]