[
   {
      "name": "Bellavista",
      "countryCode": "PE",
      "stateCode": "SAM",
      "latitude": "-7.05614000",
      "longitude": "-76.59110000"
   },
   {
      "name": "Chazuta",
      "countryCode": "PE",
      "stateCode": "SAM",
      "latitude": "-6.57087000",
      "longitude": "-76.13753000"
   },
   {
      "name": "El Dorado",
      "countryCode": "PE",
      "stateCode": "SAM",
      "latitude": "-6.56298000",
      "longitude": "-76.74130000"
   },
   {
      "name": "Huicungo",
      "countryCode": "PE",
      "stateCode": "SAM",
      "latitude": "-7.31860000",
      "longitude": "-76.77556000"
   },
   {
      "name": "Jepelacio",
      "countryCode": "PE",
      "stateCode": "SAM",
      "latitude": "-6.11667000",
      "longitude": "-76.95000000"
   },
   {
      "name": "Juanjuí",
      "countryCode": "PE",
      "stateCode": "SAM",
      "latitude": "-7.17697000",
      "longitude": "-76.72774000"
   },
   {
      "name": "Lamas",
      "countryCode": "PE",
      "stateCode": "SAM",
      "latitude": "-6.41667000",
      "longitude": "-76.53333000"
   },
   {
      "name": "Moyobamba",
      "countryCode": "PE",
      "stateCode": "SAM",
      "latitude": "-6.03416000",
      "longitude": "-76.97168000"
   },
   {
      "name": "Picota",
      "countryCode": "PE",
      "stateCode": "SAM",
      "latitude": "-6.92033000",
      "longitude": "-76.33142000"
   },
   {
      "name": "Provincia de Huallaga",
      "countryCode": "PE",
      "stateCode": "SAM",
      "latitude": "-6.75664000",
      "longitude": "-76.90143000"
   },
   {
      "name": "Provincia de Lamas",
      "countryCode": "PE",
      "stateCode": "SAM",
      "latitude": "-6.33333000",
      "longitude": "-76.66667000"
   },
   {
      "name": "Provincia de Mariscal Cáceres",
      "countryCode": "PE",
      "stateCode": "SAM",
      "latitude": "-7.27390000",
      "longitude": "-77.18216000"
   },
   {
      "name": "Provincia de Moyobamba",
      "countryCode": "PE",
      "stateCode": "SAM",
      "latitude": "-5.75000000",
      "longitude": "-77.25000000"
   },
   {
      "name": "Provincia de Rioja",
      "countryCode": "PE",
      "stateCode": "SAM",
      "latitude": "-6.00000000",
      "longitude": "-77.41667000"
   },
   {
      "name": "Provincia de San Martín",
      "countryCode": "PE",
      "stateCode": "SAM",
      "latitude": "-6.58333000",
      "longitude": "-76.16667000"
   },
   {
      "name": "Rioja",
      "countryCode": "PE",
      "stateCode": "SAM",
      "latitude": "-6.05675000",
      "longitude": "-77.16651000"
   },
   {
      "name": "Saposoa",
      "countryCode": "PE",
      "stateCode": "SAM",
      "latitude": "-6.93395000",
      "longitude": "-76.77158000"
   },
   {
      "name": "Sisa",
      "countryCode": "PE",
      "stateCode": "SAM",
      "latitude": "-6.61085000",
      "longitude": "-76.69302000"
   },
   {
      "name": "Soritor",
      "countryCode": "PE",
      "stateCode": "SAM",
      "latitude": "-6.13917000",
      "longitude": "-77.10389000"
   },
   {
      "name": "Tabalosos",
      "countryCode": "PE",
      "stateCode": "SAM",
      "latitude": "-6.35000000",
      "longitude": "-76.68333000"
   },
   {
      "name": "Tarapoto",
      "countryCode": "PE",
      "stateCode": "SAM",
      "latitude": "-6.50139000",
      "longitude": "-76.36556000"
   },
   {
      "name": "Tocache",
      "countryCode": "PE",
      "stateCode": "SAM",
      "latitude": "-8.18770000",
      "longitude": "-76.52046000"
   },
   {
      "name": "Uchiza",
      "countryCode": "PE",
      "stateCode": "SAM",
      "latitude": "-8.45917000",
      "longitude": "-76.46333000"
   }
]