[
   {
      "name": "Al-Thawrah District",
      "countryCode": "SY",
      "stateCode": "RA",
      "latitude": "35.79843000",
      "longitude": "38.34550000"
   },
   {
      "name": "Ar Raqqah",
      "countryCode": "SY",
      "stateCode": "RA",
      "latitude": "35.95283000",
      "longitude": "39.00788000"
   },
   {
      "name": "Ar-Raqqah District",
      "countryCode": "SY",
      "stateCode": "RA",
      "latitude": "35.87204000",
      "longitude": "39.04706000"
   },
   {
      "name": "Ath Thawrah",
      "countryCode": "SY",
      "stateCode": "RA",
      "latitude": "35.83758000",
      "longitude": "38.54828000"
   },
   {
      "name": "Tall Abyaá¸‘",
      "countryCode": "SY",
      "stateCode": "RA",
      "latitude": "36.69648000",
      "longitude": "38.95382000"
   },
   {
      "name": "Tell Abyad District",
      "countryCode": "SY",
      "stateCode": "RA",
      "latitude": "36.48280000",
      "longitude": "39.21360000"
   }
]