[
   {
      "name": "Akkar Governorate",
      "isoCode": "AK",
      "countryCode": "LB",
      "latitude": "34.53287630",
      "longitude": "36.13281320"
   },
   {
      "name": "North Governorate",
      "isoCode": "AS",
      "countryCode": "LB",
      "latitude": "34.43806250",
      "longitude": "35.83082330"
   },
   {
      "name": "Beirut Governorate",
      "isoCode": "BA",
      "countryCode": "LB",
      "latitude": "33.88861060",
      "longitude": "35.49547720"
   },
   {
      "name": "Baalbek-Hermel Governorate",
      "isoCode": "BH",
      "countryCode": "LB",
      "latitude": "34.26585560",
      "longitude": "36.34980970"
   },
   {
      "name": "Beqaa Governorate",
      "isoCode": "BI",
      "countryCode": "LB",
      "latitude": "33.84626620",
      "longitude": "35.90194890"
   },
   {
      "name": "South Governorate",
      "isoCode": "JA",
      "countryCode": "LB",
      "latitude": "33.27214790",
      "longitude": "35.20327780"
   },
   {
      "name": "Mount Lebanon Governorate",
      "isoCode": "JL",
      "countryCode": "LB",
      "latitude": "33.81008580",
      "longitude": "35.59731390"
   },
   {
      "name": "Nabatieh Governorate",
      "isoCode": "NA",
      "countryCode": "LB",
      "latitude": "33.37716930",
      "longitude": "35.48382930"
   }
]