[
   {
      "name": "Bagra",
      "countryCode": "IN",
      "stateCode": "JH",
      "latitude": "23.73333000",
      "longitude": "86.31667000"
   },
   {
      "name": "Barka Kana",
      "countryCode": "IN",
      "stateCode": "JH",
      "latitude": "23.62118000",
      "longitude": "85.46748000"
   },
   {
      "name": "Barki Saria",
      "countryCode": "IN",
      "stateCode": "JH",
      "latitude": "24.17594000",
      "longitude": "85.88938000"
   },
   {
      "name": "Barwadih",
      "countryCode": "IN",
      "stateCode": "JH",
      "latitude": "23.84780000",
      "longitude": "84.11049000"
   },
   {
      "name": "Bhojudih",
      "countryCode": "IN",
      "stateCode": "JH",
      "latitude": "23.63962000",
      "longitude": "86.44105000"
   },
   {
      "name": "Bokaro",
      "countryCode": "IN",
      "stateCode": "JH",
      "latitude": "23.68562000",
      "longitude": "85.99026000"
   },
   {
      "name": "Bundu",
      "countryCode": "IN",
      "stateCode": "JH",
      "latitude": "23.16095000",
      "longitude": "85.59007000"
   },
   {
      "name": "Chaibasa",
      "countryCode": "IN",
      "stateCode": "JH",
      "latitude": "22.55038000",
      "longitude": "85.80249000"
   },
   {
      "name": "Chakradharpur",
      "countryCode": "IN",
      "stateCode": "JH",
      "latitude": "22.67611000",
      "longitude": "85.62892000"
   },
   {
      "name": "Chakulia",
      "countryCode": "IN",
      "stateCode": "JH",
      "latitude": "22.48301000",
      "longitude": "86.71793000"
   },
   {
      "name": "Chandil",
      "countryCode": "IN",
      "stateCode": "JH",
      "latitude": "22.95745000",
      "longitude": "86.05331000"
   },
   {
      "name": "Chas",
      "countryCode": "IN",
      "stateCode": "JH",
      "latitude": "23.63556000",
      "longitude": "86.16712000"
   },
   {
      "name": "Chatra",
      "countryCode": "IN",
      "stateCode": "JH",
      "latitude": "24.20645000",
      "longitude": "84.87085000"
   },
   {
      "name": "Chiria",
      "countryCode": "IN",
      "stateCode": "JH",
      "latitude": "22.31093000",
      "longitude": "85.27601000"
   },
   {
      "name": "Daltonganj",
      "countryCode": "IN",
      "stateCode": "JH",
      "latitude": "24.03971000",
      "longitude": "84.06580000"
   },
   {
      "name": "Deogarh",
      "countryCode": "IN",
      "stateCode": "JH",
      "latitude": "24.44382000",
      "longitude": "86.72607000"
   },
   {
      "name": "Dhanbad",
      "countryCode": "IN",
      "stateCode": "JH",
      "latitude": "23.80199000",
      "longitude": "86.44324000"
   },
   {
      "name": "Dhanwar",
      "countryCode": "IN",
      "stateCode": "JH",
      "latitude": "24.41074000",
      "longitude": "85.98183000"
   },
   {
      "name": "Dugda",
      "countryCode": "IN",
      "stateCode": "JH",
      "latitude": "23.74516000",
      "longitude": "86.17175000"
   },
   {
      "name": "Dumka",
      "countryCode": "IN",
      "stateCode": "JH",
      "latitude": "24.30000000",
      "longitude": "87.25000000"
   },
   {
      "name": "Garhwa",
      "countryCode": "IN",
      "stateCode": "JH",
      "latitude": "24.07494000",
      "longitude": "83.71023000"
   },
   {
      "name": "Ghatsila",
      "countryCode": "IN",
      "stateCode": "JH",
      "latitude": "22.58531000",
      "longitude": "86.47682000"
   },
   {
      "name": "Giridih",
      "countryCode": "IN",
      "stateCode": "JH",
      "latitude": "24.25000000",
      "longitude": "85.91667000"
   },
   {
      "name": "Gobindpur",
      "countryCode": "IN",
      "stateCode": "JH",
      "latitude": "22.63393000",
      "longitude": "86.07162000"
   },
   {
      "name": "Godda",
      "countryCode": "IN",
      "stateCode": "JH",
      "latitude": "24.83333000",
      "longitude": "87.21667000"
   },
   {
      "name": "Gomoh",
      "countryCode": "IN",
      "stateCode": "JH",
      "latitude": "23.87355000",
      "longitude": "86.15160000"
   },
   {
      "name": "Gopinathpur",
      "countryCode": "IN",
      "stateCode": "JH",
      "latitude": "22.66301000",
      "longitude": "86.07500000"
   },
   {
      "name": "Gua",
      "countryCode": "IN",
      "stateCode": "JH",
      "latitude": "22.21361000",
      "longitude": "85.38774000"
   },
   {
      "name": "Gumia",
      "countryCode": "IN",
      "stateCode": "JH",
      "latitude": "23.79750000",
      "longitude": "85.82523000"
   },
   {
      "name": "Gumla",
      "countryCode": "IN",
      "stateCode": "JH",
      "latitude": "23.08055000",
      "longitude": "84.53834000"
   },
   {
      "name": "Hazaribag",
      "countryCode": "IN",
      "stateCode": "JH",
      "latitude": "24.00000000",
      "longitude": "85.25000000"
   },
   {
      "name": "Hazaribagh",
      "countryCode": "IN",
      "stateCode": "JH",
      "latitude": "23.99241000",
      "longitude": "85.36162000"
   },
   {
      "name": "Hesla",
      "countryCode": "IN",
      "stateCode": "JH",
      "latitude": "24.06313000",
      "longitude": "85.87905000"
   },
   {
      "name": "Husainabad",
      "countryCode": "IN",
      "stateCode": "JH",
      "latitude": "24.52849000",
      "longitude": "84.00000000"
   },
   {
      "name": "Jagannathpur",
      "countryCode": "IN",
      "stateCode": "JH",
      "latitude": "22.22115000",
      "longitude": "85.63917000"
   },
   {
      "name": "Jamadoba",
      "countryCode": "IN",
      "stateCode": "JH",
      "latitude": "23.71667000",
      "longitude": "86.40000000"
   },
   {
      "name": "Jamshedpur",
      "countryCode": "IN",
      "stateCode": "JH",
      "latitude": "22.80278000",
      "longitude": "86.18545000"
   },
   {
      "name": "Jamtara",
      "countryCode": "IN",
      "stateCode": "JH",
      "latitude": "24.00000000",
      "longitude": "86.85000000"
   },
   {
      "name": "Jasidih",
      "countryCode": "IN",
      "stateCode": "JH",
      "latitude": "24.51379000",
      "longitude": "86.64576000"
   },
   {
      "name": "Jharia",
      "countryCode": "IN",
      "stateCode": "JH",
      "latitude": "23.74079000",
      "longitude": "86.41456000"
   },
   {
      "name": "Jugsalai",
      "countryCode": "IN",
      "stateCode": "JH",
      "latitude": "22.77668000",
      "longitude": "86.18351000"
   },
   {
      "name": "Jumri Tilaiya",
      "countryCode": "IN",
      "stateCode": "JH",
      "latitude": "24.43490000",
      "longitude": "85.52951000"
   },
   {
      "name": "Kalikapur",
      "countryCode": "IN",
      "stateCode": "JH",
      "latitude": "22.61662000",
      "longitude": "86.28810000"
   },
   {
      "name": "Kandra",
      "countryCode": "IN",
      "stateCode": "JH",
      "latitude": "22.85170000",
      "longitude": "86.05192000"
   },
   {
      "name": "Kanke",
      "countryCode": "IN",
      "stateCode": "JH",
      "latitude": "23.43478000",
      "longitude": "85.32059000"
   },
   {
      "name": "Katras",
      "countryCode": "IN",
      "stateCode": "JH",
      "latitude": "23.79752000",
      "longitude": "86.29834000"
   },
   {
      "name": "Kenduadih",
      "countryCode": "IN",
      "stateCode": "JH",
      "latitude": "23.77574000",
      "longitude": "86.37609000"
   },
   {
      "name": "Kharsawan",
      "countryCode": "IN",
      "stateCode": "JH",
      "latitude": "22.79093000",
      "longitude": "85.83102000"
   },
   {
      "name": "Khunti",
      "countryCode": "IN",
      "stateCode": "JH",
      "latitude": "23.07602000",
      "longitude": "85.27818000"
   },
   {
      "name": "Kodarma",
      "countryCode": "IN",
      "stateCode": "JH",
      "latitude": "24.46753000",
      "longitude": "85.59397000"
   },
   {
      "name": "Kuju",
      "countryCode": "IN",
      "stateCode": "JH",
      "latitude": "23.72536000",
      "longitude": "85.51023000"
   },
   {
      "name": "Latehar",
      "countryCode": "IN",
      "stateCode": "JH",
      "latitude": "23.75000000",
      "longitude": "84.40000000"
   },
   {
      "name": "Lohardaga",
      "countryCode": "IN",
      "stateCode": "JH",
      "latitude": "23.50000000",
      "longitude": "84.60000000"
   },
   {
      "name": "Madhupur",
      "countryCode": "IN",
      "stateCode": "JH",
      "latitude": "24.27419000",
      "longitude": "86.63929000"
   },
   {
      "name": "Malkera",
      "countryCode": "IN",
      "stateCode": "JH",
      "latitude": "23.78213000",
      "longitude": "86.28767000"
   },
   {
      "name": "Manoharpur",
      "countryCode": "IN",
      "stateCode": "JH",
      "latitude": "22.37456000",
      "longitude": "85.19234000"
   },
   {
      "name": "Mugma",
      "countryCode": "IN",
      "stateCode": "JH",
      "latitude": "23.77015000",
      "longitude": "86.72746000"
   },
   {
      "name": "Mushabani",
      "countryCode": "IN",
      "stateCode": "JH",
      "latitude": "22.51135000",
      "longitude": "86.45713000"
   },
   {
      "name": "Neturhat",
      "countryCode": "IN",
      "stateCode": "JH",
      "latitude": "23.47457000",
      "longitude": "84.26780000"
   },
   {
      "name": "Nirsa",
      "countryCode": "IN",
      "stateCode": "JH",
      "latitude": "23.78438000",
      "longitude": "86.70692000"
   },
   {
      "name": "Noamundi",
      "countryCode": "IN",
      "stateCode": "JH",
      "latitude": "22.16094000",
      "longitude": "85.50416000"
   },
   {
      "name": "Pakur",
      "countryCode": "IN",
      "stateCode": "JH",
      "latitude": "24.63925000",
      "longitude": "87.84239000"
   },
   {
      "name": "Palamu",
      "countryCode": "IN",
      "stateCode": "JH",
      "latitude": "23.91667000",
      "longitude": "84.08333000"
   },
   {
      "name": "Pashchim Singhbhum",
      "countryCode": "IN",
      "stateCode": "JH",
      "latitude": "22.50000000",
      "longitude": "85.50000000"
   },
   {
      "name": "Pathardih",
      "countryCode": "IN",
      "stateCode": "JH",
      "latitude": "23.66580000",
      "longitude": "86.43166000"
   },
   {
      "name": "Purba Singhbhum",
      "countryCode": "IN",
      "stateCode": "JH",
      "latitude": "22.59238000",
      "longitude": "86.48341000"
   },
   {
      "name": "Ramgarh",
      "countryCode": "IN",
      "stateCode": "JH",
      "latitude": "23.63073000",
      "longitude": "85.56057000"
   },
   {
      "name": "Ranchi",
      "countryCode": "IN",
      "stateCode": "JH",
      "latitude": "23.34316000",
      "longitude": "85.30940000"
   },
   {
      "name": "Ray",
      "countryCode": "IN",
      "stateCode": "JH",
      "latitude": "23.68430000",
      "longitude": "85.05457000"
   },
   {
      "name": "Sahibganj",
      "countryCode": "IN",
      "stateCode": "JH",
      "latitude": "24.99354000",
      "longitude": "87.67333000"
   },
   {
      "name": "Saraikela",
      "countryCode": "IN",
      "stateCode": "JH",
      "latitude": "22.69963000",
      "longitude": "85.93126000"
   },
   {
      "name": "Sarubera",
      "countryCode": "IN",
      "stateCode": "JH",
      "latitude": "23.81813000",
      "longitude": "85.99628000"
   },
   {
      "name": "Sijua",
      "countryCode": "IN",
      "stateCode": "JH",
      "latitude": "23.77617000",
      "longitude": "86.33028000"
   },
   {
      "name": "Simdega",
      "countryCode": "IN",
      "stateCode": "JH",
      "latitude": "22.61523000",
      "longitude": "84.50208000"
   },
   {
      "name": "Sini",
      "countryCode": "IN",
      "stateCode": "JH",
      "latitude": "22.79325000",
      "longitude": "85.94543000"
   },
   {
      "name": "Topchanchi",
      "countryCode": "IN",
      "stateCode": "JH",
      "latitude": "23.90381000",
      "longitude": "86.19792000"
   },
   {
      "name": "patamda",
      "countryCode": "IN",
      "stateCode": "JH",
      "latitude": "24.30000000",
      "longitude": "85.41667000"
   }
]