[
   {
      "name": "Amphoe Bua Chet",
      "countryCode": "TH",
      "stateCode": "32",
      "latitude": "14.48406000",
      "longitude": "103.97809000"
   },
   {
      "name": "Amphoe Chom Phra",
      "countryCode": "TH",
      "stateCode": "32",
      "latitude": "15.14356000",
      "longitude": "103.57881000"
   },
   {
      "name": "Amphoe Chumphon Buri",
      "countryCode": "TH",
      "stateCode": "32",
      "latitude": "15.37942000",
      "longitude": "103.37095000"
   },
   {
      "name": "Amphoe Kap Choeng",
      "countryCode": "TH",
      "stateCode": "32",
      "latitude": "14.46795000",
      "longitude": "103.58476000"
   },
   {
      "name": "Amphoe Khwao Sinarin",
      "countryCode": "TH",
      "stateCode": "32",
      "latitude": "15.00733000",
      "longitude": "103.62064000"
   },
   {
      "name": "Amphoe Lamduan",
      "countryCode": "TH",
      "stateCode": "32",
      "latitude": "14.71907000",
      "longitude": "103.69911000"
   },
   {
      "name": "Amphoe Mueang Surin",
      "countryCode": "TH",
      "stateCode": "32",
      "latitude": "14.88359000",
      "longitude": "103.51272000"
   },
   {
      "name": "Amphoe Non Narai",
      "countryCode": "TH",
      "stateCode": "32",
      "latitude": "15.19111000",
      "longitude": "103.92242000"
   },
   {
      "name": "Amphoe Phanom Dong Rak",
      "countryCode": "TH",
      "stateCode": "32",
      "latitude": "14.42745000",
      "longitude": "103.31007000"
   },
   {
      "name": "Amphoe Prasat",
      "countryCode": "TH",
      "stateCode": "32",
      "latitude": "14.62602000",
      "longitude": "103.41569000"
   },
   {
      "name": "Amphoe Rattanaburi",
      "countryCode": "TH",
      "stateCode": "32",
      "latitude": "15.33780000",
      "longitude": "103.90541000"
   },
   {
      "name": "Amphoe Samrong Thap",
      "countryCode": "TH",
      "stateCode": "32",
      "latitude": "15.03980000",
      "longitude": "103.94089000"
   },
   {
      "name": "Amphoe Sangkha",
      "countryCode": "TH",
      "stateCode": "32",
      "latitude": "14.57051000",
      "longitude": "103.83911000"
   },
   {
      "name": "Amphoe Sanom",
      "countryCode": "TH",
      "stateCode": "32",
      "latitude": "15.17099000",
      "longitude": "103.78475000"
   },
   {
      "name": "Amphoe Si Khoraphum",
      "countryCode": "TH",
      "stateCode": "32",
      "latitude": "14.94753000",
      "longitude": "103.78310000"
   },
   {
      "name": "Amphoe Si Narong",
      "countryCode": "TH",
      "stateCode": "32",
      "latitude": "14.78085000",
      "longitude": "103.88651000"
   },
   {
      "name": "Amphoe Tha Tum",
      "countryCode": "TH",
      "stateCode": "32",
      "latitude": "15.30940000",
      "longitude": "103.65111000"
   },
   {
      "name": "Surin",
      "countryCode": "TH",
      "stateCode": "32",
      "latitude": "14.88181000",
      "longitude": "103.49364000"
   }
]