[
   {
      "name": "Abalama",
      "countryCode": "NG",
      "stateCode": "RI",
      "latitude": "4.76305556",
      "longitude": "6.84027778"
   },
   {
      "name": "Abonnema",
      "countryCode": "NG",
      "stateCode": "RI",
      "latitude": "4.72311690",
      "longitude": "6.77884610"
   },
   {
      "name": "Ahoada",
      "countryCode": "NG",
      "stateCode": "RI",
      "latitude": "5.08333333",
      "longitude": "6.65000000"
   },
   {
      "name": "Bori",
      "countryCode": "NG",
      "stateCode": "RI",
      "latitude": "4.67277778",
      "longitude": "7.37027778"
   },
   {
      "name": "Buguma",
      "countryCode": "NG",
      "stateCode": "RI",
      "latitude": "4.73333333",
      "longitude": "6.86666667"
   },
   {
      "name": "Chokocho",
      "countryCode": "NG",
      "stateCode": "RI",
      "latitude": "4.99083300",
      "longitude": "7.05444400"
   },
   {
      "name": "Elele",
      "countryCode": "NG",
      "stateCode": "RI",
      "latitude": "5.10184167",
      "longitude": "6.81902222"
   },
   {
      "name": "Obonoma",
      "countryCode": "NG",
      "stateCode": "RI",
      "latitude": "4.71138889",
      "longitude": "6.79083333"
   },
   {
      "name": "Omoku",
      "countryCode": "NG",
      "stateCode": "RI",
      "latitude": "5.34200000",
      "longitude": "6.65600000"
   },
   {
      "name": "Onne",
      "countryCode": "NG",
      "stateCode": "RI",
      "latitude": "4.74444444",
      "longitude": "7.03611111"
   },
   {
      "name": "Opobo",
      "countryCode": "NG",
      "stateCode": "RI",
      "latitude": "4.51138889",
      "longitude": "7.54000000"
   },
   {
      "name": "Port Harcourt",
      "countryCode": "NG",
      "stateCode": "RI",
      "latitude": "4.75000000",
      "longitude": "7.00000000"
   },
   {
      "name": "Rumuokoro",
      "countryCode": "NG",
      "stateCode": "RI",
      "latitude": "4.86666667",
      "longitude": "6.98333333"
   }
]