[
   {
      "name": "Babati",
      "countryCode": "TZ",
      "stateCode": "26",
      "latitude": "-4.21667000",
      "longitude": "35.75000000"
   },
   {
      "name": "Bashanet",
      "countryCode": "TZ",
      "stateCode": "26",
      "latitude": "-4.23333000",
      "longitude": "35.41667000"
   },
   {
      "name": "Basotu",
      "countryCode": "TZ",
      "stateCode": "26",
      "latitude": "-4.36667000",
      "longitude": "35.08333000"
   },
   {
      "name": "Dareda",
      "countryCode": "TZ",
      "stateCode": "26",
      "latitude": "-4.21667000",
      "longitude": "35.55000000"
   },
   {
      "name": "Dongobesh",
      "countryCode": "TZ",
      "stateCode": "26",
      "latitude": "-4.06667000",
      "longitude": "35.38333000"
   },
   {
      "name": "Endasak",
      "countryCode": "TZ",
      "stateCode": "26",
      "latitude": "-4.41667000",
      "longitude": "35.51667000"
   },
   {
      "name": "Galappo",
      "countryCode": "TZ",
      "stateCode": "26",
      "latitude": "-4.26667000",
      "longitude": "35.85000000"
   },
   {
      "name": "Katesh",
      "countryCode": "TZ",
      "stateCode": "26",
      "latitude": "-4.52483000",
      "longitude": "35.38490000"
   },
   {
      "name": "Kibaya",
      "countryCode": "TZ",
      "stateCode": "26",
      "latitude": "-5.30000000",
      "longitude": "36.56667000"
   },
   {
      "name": "Kirya",
      "countryCode": "TZ",
      "stateCode": "26",
      "latitude": "-3.91667000",
      "longitude": "37.48333000"
   },
   {
      "name": "Magugu",
      "countryCode": "TZ",
      "stateCode": "26",
      "latitude": "-4.01667000",
      "longitude": "35.76667000"
   },
   {
      "name": "Mbulu",
      "countryCode": "TZ",
      "stateCode": "26",
      "latitude": "-3.85000000",
      "longitude": "35.53333000"
   },
   {
      "name": "Naberera",
      "countryCode": "TZ",
      "stateCode": "26",
      "latitude": "-4.20000000",
      "longitude": "36.93333000"
   },
   {
      "name": "Nangwa",
      "countryCode": "TZ",
      "stateCode": "26",
      "latitude": "-4.46667000",
      "longitude": "35.45000000"
   }
]