[
   {
      "name": "Huyện Bắc Bình",
      "countryCode": "VN",
      "stateCode": "40",
      "latitude": "11.27571000",
      "longitude": "108.38506000"
   },
   {
      "name": "Huyện Hàm Thuận Bắc",
      "countryCode": "VN",
      "stateCode": "40",
      "latitude": "11.14703000",
      "longitude": "108.08172000"
   },
   {
      "name": "Huyện Hàm Thuận Nam",
      "countryCode": "VN",
      "stateCode": "40",
      "latitude": "10.92101000",
      "longitude": "107.93325000"
   },
   {
      "name": "Huyện Hàm Tân",
      "countryCode": "VN",
      "stateCode": "40",
      "latitude": "10.76856000",
      "longitude": "107.64233000"
   },
   {
      "name": "Huyện Tuy Phong",
      "countryCode": "VN",
      "stateCode": "40",
      "latitude": "11.34746000",
      "longitude": "108.70466000"
   },
   {
      "name": "Huyện Tánh Linh",
      "countryCode": "VN",
      "stateCode": "40",
      "latitude": "11.11367000",
      "longitude": "107.68427000"
   },
   {
      "name": "La Gi",
      "countryCode": "VN",
      "stateCode": "40",
      "latitude": "10.65993000",
      "longitude": "107.77206000"
   },
   {
      "name": "Phan Thiết",
      "countryCode": "VN",
      "stateCode": "40",
      "latitude": "10.92889000",
      "longitude": "108.10208000"
   },
   {
      "name": "Thành Phố Phan Thiết",
      "countryCode": "VN",
      "stateCode": "40",
      "latitude": "10.93700000",
      "longitude": "108.15778000"
   }
]