[
   {
      "name": "Consolación del Sur",
      "countryCode": "CU",
      "stateCode": "01",
      "latitude": "22.50419000",
      "longitude": "-83.51442000"
   },
   {
      "name": "Guane",
      "countryCode": "CU",
      "stateCode": "01",
      "latitude": "22.20179000",
      "longitude": "-84.08484000"
   },
   {
      "name": "Los Palacios",
      "countryCode": "CU",
      "stateCode": "01",
      "latitude": "22.58882000",
      "longitude": "-83.24671000"
   },
   {
      "name": "Mantua",
      "countryCode": "CU",
      "stateCode": "01",
      "latitude": "22.29058000",
      "longitude": "-84.28599000"
   },
   {
      "name": "Minas de Matahambre",
      "countryCode": "CU",
      "stateCode": "01",
      "latitude": "22.58691000",
      "longitude": "-83.94551000"
   },
   {
      "name": "Municipio de Consolación del Sur",
      "countryCode": "CU",
      "stateCode": "01",
      "latitude": "22.44095000",
      "longitude": "-83.41985000"
   },
   {
      "name": "Municipio de Guane",
      "countryCode": "CU",
      "stateCode": "01",
      "latitude": "22.24591000",
      "longitude": "-84.03660000"
   },
   {
      "name": "Municipio de La Palma",
      "countryCode": "CU",
      "stateCode": "01",
      "latitude": "22.75000000",
      "longitude": "-83.55000000"
   },
   {
      "name": "Municipio de Los Palacios",
      "countryCode": "CU",
      "stateCode": "01",
      "latitude": "22.58333000",
      "longitude": "-83.25000000"
   },
   {
      "name": "Pinar del Río",
      "countryCode": "CU",
      "stateCode": "01",
      "latitude": "22.41667000",
      "longitude": "-83.69667000"
   },
   {
      "name": "Puerto Esperanza",
      "countryCode": "CU",
      "stateCode": "01",
      "latitude": "22.77041000",
      "longitude": "-83.73138000"
   },
   {
      "name": "San Diego de Los Baños",
      "countryCode": "CU",
      "stateCode": "01",
      "latitude": "22.64667000",
      "longitude": "-83.36972000"
   },
   {
      "name": "San Luis",
      "countryCode": "CU",
      "stateCode": "01",
      "latitude": "22.27898000",
      "longitude": "-83.75956000"
   },
   {
      "name": "Viñales",
      "countryCode": "CU",
      "stateCode": "01",
      "latitude": "22.61892000",
      "longitude": "-83.70694000"
   }
]