[
   {
      "name": "Hachimantai",
      "countryCode": "JP",
      "stateCode": "03",
      "latitude": "39.89979000",
      "longitude": "141.12989000"
   },
   {
      "name": "Hachimantai Shi",
      "countryCode": "JP",
      "stateCode": "03",
      "latitude": "40.02390000",
      "longitude": "140.99113000"
   },
   {
      "name": "Hanamaki",
      "countryCode": "JP",
      "stateCode": "03",
      "latitude": "39.38333000",
      "longitude": "141.11667000"
   },
   {
      "name": "Hanamaki Shi",
      "countryCode": "JP",
      "stateCode": "03",
      "latitude": "39.44187000",
      "longitude": "141.16751000"
   },
   {
      "name": "Ichinohe",
      "countryCode": "JP",
      "stateCode": "03",
      "latitude": "40.21965000",
      "longitude": "141.28986000"
   },
   {
      "name": "Ichinoseki",
      "countryCode": "JP",
      "stateCode": "03",
      "latitude": "38.91667000",
      "longitude": "141.13333000"
   },
   {
      "name": "Ichinoseki-shi",
      "countryCode": "JP",
      "stateCode": "03",
      "latitude": "38.91667000",
      "longitude": "141.13333000"
   },
   {
      "name": "Iwate-gun",
      "countryCode": "JP",
      "stateCode": "03",
      "latitude": "39.97238000",
      "longitude": "141.22719000"
   },
   {
      "name": "Kamaishi",
      "countryCode": "JP",
      "stateCode": "03",
      "latitude": "39.27694000",
      "longitude": "141.86801000"
   },
   {
      "name": "Kamaishi-shi",
      "countryCode": "JP",
      "stateCode": "03",
      "latitude": "39.28748000",
      "longitude": "141.79854000"
   },
   {
      "name": "Kitakami",
      "countryCode": "JP",
      "stateCode": "03",
      "latitude": "39.28333000",
      "longitude": "141.11667000"
   },
   {
      "name": "Kitakami-shi",
      "countryCode": "JP",
      "stateCode": "03",
      "latitude": "39.30765000",
      "longitude": "141.00795000"
   },
   {
      "name": "Kuji",
      "countryCode": "JP",
      "stateCode": "03",
      "latitude": "40.18778000",
      "longitude": "141.76889000"
   },
   {
      "name": "Kuji-shi",
      "countryCode": "JP",
      "stateCode": "03",
      "latitude": "40.14364000",
      "longitude": "141.65918000"
   },
   {
      "name": "Miyako",
      "countryCode": "JP",
      "stateCode": "03",
      "latitude": "39.64691000",
      "longitude": "141.94057000"
   },
   {
      "name": "Miyako-shi",
      "countryCode": "JP",
      "stateCode": "03",
      "latitude": "39.65724000",
      "longitude": "141.85144000"
   },
   {
      "name": "Mizusawa",
      "countryCode": "JP",
      "stateCode": "03",
      "latitude": "39.13333000",
      "longitude": "141.13333000"
   },
   {
      "name": "Morioka",
      "countryCode": "JP",
      "stateCode": "03",
      "latitude": "39.70000000",
      "longitude": "141.15000000"
   },
   {
      "name": "Morioka-shi",
      "countryCode": "JP",
      "stateCode": "03",
      "latitude": "39.74546000",
      "longitude": "141.26915000"
   },
   {
      "name": "Ninohe",
      "countryCode": "JP",
      "stateCode": "03",
      "latitude": "40.29081000",
      "longitude": "141.31334000"
   },
   {
      "name": "Ninohe Shi",
      "countryCode": "JP",
      "stateCode": "03",
      "latitude": "40.23798000",
      "longitude": "141.19576000"
   },
   {
      "name": "Rikuzentakata-shi",
      "countryCode": "JP",
      "stateCode": "03",
      "latitude": "39.04082000",
      "longitude": "141.57703000"
   },
   {
      "name": "Shizukuishi",
      "countryCode": "JP",
      "stateCode": "03",
      "latitude": "39.69414000",
      "longitude": "140.98442000"
   },
   {
      "name": "Takizawa-shi",
      "countryCode": "JP",
      "stateCode": "03",
      "latitude": "39.80000000",
      "longitude": "141.06667000"
   },
   {
      "name": "Tōno",
      "countryCode": "JP",
      "stateCode": "03",
      "latitude": "39.31667000",
      "longitude": "141.53333000"
   },
   {
      "name": "Tōno-shi",
      "countryCode": "JP",
      "stateCode": "03",
      "latitude": "39.36479000",
      "longitude": "141.50922000"
   },
   {
      "name": "Yamada",
      "countryCode": "JP",
      "stateCode": "03",
      "latitude": "39.46667000",
      "longitude": "141.95000000"
   },
   {
      "name": "Ōfunato",
      "countryCode": "JP",
      "stateCode": "03",
      "latitude": "39.07167000",
      "longitude": "141.71667000"
   },
   {
      "name": "Ōfunato-shi",
      "countryCode": "JP",
      "stateCode": "03",
      "latitude": "39.06667000",
      "longitude": "141.71667000"
   },
   {
      "name": "Ōshū",
      "countryCode": "JP",
      "stateCode": "03",
      "latitude": "39.13927000",
      "longitude": "141.16850000"
   },
   {
      "name": "Ōshū-shi",
      "countryCode": "JP",
      "stateCode": "03",
      "latitude": "39.12962000",
      "longitude": "141.09479000"
   },
   {
      "name": "Ōtsuchi",
      "countryCode": "JP",
      "stateCode": "03",
      "latitude": "39.36667000",
      "longitude": "141.90000000"
   }
]