[
   {
      "name": "Bacova",
      "countryCode": "RO",
      "stateCode": "TM",
      "latitude": "45.66410000",
      "longitude": "21.55238000"
   },
   {
      "name": "Balinţ",
      "countryCode": "RO",
      "stateCode": "TM",
      "latitude": "45.81250000",
      "longitude": "21.85361000"
   },
   {
      "name": "Banloc",
      "countryCode": "RO",
      "stateCode": "TM",
      "latitude": "45.38742000",
      "longitude": "21.13581000"
   },
   {
      "name": "Bara",
      "countryCode": "RO",
      "stateCode": "TM",
      "latitude": "45.89472000",
      "longitude": "21.87194000"
   },
   {
      "name": "Beba Veche",
      "countryCode": "RO",
      "stateCode": "TM",
      "latitude": "46.13333000",
      "longitude": "20.31667000"
   },
   {
      "name": "Becicherecu Mic",
      "countryCode": "RO",
      "stateCode": "TM",
      "latitude": "45.82917000",
      "longitude": "21.05139000"
   },
   {
      "name": "Belinţ",
      "countryCode": "RO",
      "stateCode": "TM",
      "latitude": "45.75500000",
      "longitude": "21.76028000"
   },
   {
      "name": "Beregsău Mare",
      "countryCode": "RO",
      "stateCode": "TM",
      "latitude": "45.75921000",
      "longitude": "21.02666000"
   },
   {
      "name": "Bethausen",
      "countryCode": "RO",
      "stateCode": "TM",
      "latitude": "45.83306000",
      "longitude": "21.95278000"
   },
   {
      "name": "Biled",
      "countryCode": "RO",
      "stateCode": "TM",
      "latitude": "45.88639000",
      "longitude": "20.95889000"
   },
   {
      "name": "Birda",
      "countryCode": "RO",
      "stateCode": "TM",
      "latitude": "45.42996000",
      "longitude": "21.34359000"
   },
   {
      "name": "Bogda",
      "countryCode": "RO",
      "stateCode": "TM",
      "latitude": "45.97833000",
      "longitude": "21.57250000"
   },
   {
      "name": "Boldur",
      "countryCode": "RO",
      "stateCode": "TM",
      "latitude": "45.69417000",
      "longitude": "21.77667000"
   },
   {
      "name": "Brestovăț",
      "countryCode": "RO",
      "stateCode": "TM",
      "latitude": "45.87342000",
      "longitude": "21.68201000"
   },
   {
      "name": "Bucovăț",
      "countryCode": "RO",
      "stateCode": "TM",
      "latitude": "45.75569000",
      "longitude": "21.38324000"
   },
   {
      "name": "Bulgăruș",
      "countryCode": "RO",
      "stateCode": "TM",
      "latitude": "45.91947000",
      "longitude": "20.82219000"
   },
   {
      "name": "Buziaş",
      "countryCode": "RO",
      "stateCode": "TM",
      "latitude": "45.64917000",
      "longitude": "21.60361000"
   },
   {
      "name": "Bârna",
      "countryCode": "RO",
      "stateCode": "TM",
      "latitude": "45.71667000",
      "longitude": "22.05000000"
   },
   {
      "name": "Carani",
      "countryCode": "RO",
      "stateCode": "TM",
      "latitude": "45.91095000",
      "longitude": "21.15686000"
   },
   {
      "name": "Cenad",
      "countryCode": "RO",
      "stateCode": "TM",
      "latitude": "46.13333000",
      "longitude": "20.58333000"
   },
   {
      "name": "Cenei",
      "countryCode": "RO",
      "stateCode": "TM",
      "latitude": "45.71583000",
      "longitude": "20.90389000"
   },
   {
      "name": "Checea",
      "countryCode": "RO",
      "stateCode": "TM",
      "latitude": "45.75298000",
      "longitude": "20.83596000"
   },
   {
      "name": "Chevereşu Mare",
      "countryCode": "RO",
      "stateCode": "TM",
      "latitude": "45.66694000",
      "longitude": "21.49083000"
   },
   {
      "name": "Chișoda",
      "countryCode": "RO",
      "stateCode": "TM",
      "latitude": "45.70380000",
      "longitude": "21.21437000"
   },
   {
      "name": "Ciacova",
      "countryCode": "RO",
      "stateCode": "TM",
      "latitude": "45.50806000",
      "longitude": "21.12861000"
   },
   {
      "name": "Colonia Fabricii",
      "countryCode": "RO",
      "stateCode": "TM",
      "latitude": "45.76620000",
      "longitude": "22.31463000"
   },
   {
      "name": "Comloşu Mare",
      "countryCode": "RO",
      "stateCode": "TM",
      "latitude": "45.89056000",
      "longitude": "20.62722000"
   },
   {
      "name": "Comuna Balinţ",
      "countryCode": "RO",
      "stateCode": "TM",
      "latitude": "45.82290000",
      "longitude": "21.85841000"
   },
   {
      "name": "Comuna Banloc",
      "countryCode": "RO",
      "stateCode": "TM",
      "latitude": "45.38603000",
      "longitude": "21.13203000"
   },
   {
      "name": "Comuna Bara",
      "countryCode": "RO",
      "stateCode": "TM",
      "latitude": "45.91096000",
      "longitude": "21.90440000"
   },
   {
      "name": "Comuna Beba Veche",
      "countryCode": "RO",
      "stateCode": "TM",
      "latitude": "46.13503000",
      "longitude": "20.36289000"
   },
   {
      "name": "Comuna Becicherecu Mic",
      "countryCode": "RO",
      "stateCode": "TM",
      "latitude": "45.83475000",
      "longitude": "21.05195000"
   },
   {
      "name": "Comuna Belinţ",
      "countryCode": "RO",
      "stateCode": "TM",
      "latitude": "45.77023000",
      "longitude": "21.77550000"
   },
   {
      "name": "Comuna Bethausen",
      "countryCode": "RO",
      "stateCode": "TM",
      "latitude": "45.82505000",
      "longitude": "21.96054000"
   },
   {
      "name": "Comuna Biled",
      "countryCode": "RO",
      "stateCode": "TM",
      "latitude": "45.88760000",
      "longitude": "20.96214000"
   },
   {
      "name": "Comuna Birda",
      "countryCode": "RO",
      "stateCode": "TM",
      "latitude": "45.41265000",
      "longitude": "21.33733000"
   },
   {
      "name": "Comuna Bogda",
      "countryCode": "RO",
      "stateCode": "TM",
      "latitude": "45.97025000",
      "longitude": "21.56964000"
   },
   {
      "name": "Comuna Boldur",
      "countryCode": "RO",
      "stateCode": "TM",
      "latitude": "45.70016000",
      "longitude": "21.76225000"
   },
   {
      "name": "Comuna Brestovăţ",
      "countryCode": "RO",
      "stateCode": "TM",
      "latitude": "45.87818000",
      "longitude": "21.67986000"
   },
   {
      "name": "Comuna Bucovăţ",
      "countryCode": "RO",
      "stateCode": "TM",
      "latitude": "45.75309000",
      "longitude": "21.40277000"
   },
   {
      "name": "Comuna Bârna",
      "countryCode": "RO",
      "stateCode": "TM",
      "latitude": "45.71642000",
      "longitude": "22.06530000"
   },
   {
      "name": "Comuna Cenad",
      "countryCode": "RO",
      "stateCode": "TM",
      "latitude": "46.13371000",
      "longitude": "20.58001000"
   },
   {
      "name": "Comuna Cenei",
      "countryCode": "RO",
      "stateCode": "TM",
      "latitude": "45.72608000",
      "longitude": "20.92561000"
   },
   {
      "name": "Comuna Checea",
      "countryCode": "RO",
      "stateCode": "TM",
      "latitude": "45.75298000",
      "longitude": "20.83596000"
   },
   {
      "name": "Comuna Chevereşu Mare",
      "countryCode": "RO",
      "stateCode": "TM",
      "latitude": "45.66230000",
      "longitude": "21.47888000"
   },
   {
      "name": "Comuna Comloşu Mare",
      "countryCode": "RO",
      "stateCode": "TM",
      "latitude": "45.87549000",
      "longitude": "20.62938000"
   },
   {
      "name": "Comuna Coşteiu",
      "countryCode": "RO",
      "stateCode": "TM",
      "latitude": "45.75242000",
      "longitude": "21.88756000"
   },
   {
      "name": "Comuna Criciova",
      "countryCode": "RO",
      "stateCode": "TM",
      "latitude": "45.64454000",
      "longitude": "22.06260000"
   },
   {
      "name": "Comuna Curtea",
      "countryCode": "RO",
      "stateCode": "TM",
      "latitude": "45.84453000",
      "longitude": "22.32658000"
   },
   {
      "name": "Comuna Cărpiniş",
      "countryCode": "RO",
      "stateCode": "TM",
      "latitude": "45.80603000",
      "longitude": "20.91452000"
   },
   {
      "name": "Comuna Darova",
      "countryCode": "RO",
      "stateCode": "TM",
      "latitude": "45.63081000",
      "longitude": "21.76709000"
   },
   {
      "name": "Comuna Denta",
      "countryCode": "RO",
      "stateCode": "TM",
      "latitude": "45.35950000",
      "longitude": "21.28331000"
   },
   {
      "name": "Comuna Dudeştii Noi",
      "countryCode": "RO",
      "stateCode": "TM",
      "latitude": "45.83989000",
      "longitude": "21.10215000"
   },
   {
      "name": "Comuna Dudeştii Vechi",
      "countryCode": "RO",
      "stateCode": "TM",
      "latitude": "46.08562000",
      "longitude": "20.44521000"
   },
   {
      "name": "Comuna Dumbrava",
      "countryCode": "RO",
      "stateCode": "TM",
      "latitude": "45.81746000",
      "longitude": "22.12550000"
   },
   {
      "name": "Comuna Dumbrăviţa",
      "countryCode": "RO",
      "stateCode": "TM",
      "latitude": "45.80011000",
      "longitude": "21.24648000"
   },
   {
      "name": "Comuna Fibiş",
      "countryCode": "RO",
      "stateCode": "TM",
      "latitude": "45.97280000",
      "longitude": "21.42355000"
   },
   {
      "name": "Comuna Foeni",
      "countryCode": "RO",
      "stateCode": "TM",
      "latitude": "45.48613000",
      "longitude": "20.87810000"
   },
   {
      "name": "Comuna Fârdea",
      "countryCode": "RO",
      "stateCode": "TM",
      "latitude": "45.74895000",
      "longitude": "22.19779000"
   },
   {
      "name": "Comuna Gavojdia",
      "countryCode": "RO",
      "stateCode": "TM",
      "latitude": "45.61284000",
      "longitude": "22.02471000"
   },
   {
      "name": "Comuna Ghilad",
      "countryCode": "RO",
      "stateCode": "TM",
      "latitude": "45.46633000",
      "longitude": "21.06467000"
   },
   {
      "name": "Comuna Ghiroda",
      "countryCode": "RO",
      "stateCode": "TM",
      "latitude": "45.78494000",
      "longitude": "21.30245000"
   },
   {
      "name": "Comuna Ghizela",
      "countryCode": "RO",
      "stateCode": "TM",
      "latitude": "45.82641000",
      "longitude": "21.75048000"
   },
   {
      "name": "Comuna Giarmata",
      "countryCode": "RO",
      "stateCode": "TM",
      "latitude": "45.84218000",
      "longitude": "21.28918000"
   },
   {
      "name": "Comuna Giera",
      "countryCode": "RO",
      "stateCode": "TM",
      "latitude": "45.42060000",
      "longitude": "20.94696000"
   },
   {
      "name": "Comuna Giroc",
      "countryCode": "RO",
      "stateCode": "TM",
      "latitude": "45.70020000",
      "longitude": "21.22641000"
   },
   {
      "name": "Comuna Giulvăz",
      "countryCode": "RO",
      "stateCode": "TM",
      "latitude": "45.52522000",
      "longitude": "20.98501000"
   },
   {
      "name": "Comuna Gottlob",
      "countryCode": "RO",
      "stateCode": "TM",
      "latitude": "45.93916000",
      "longitude": "20.68384000"
   },
   {
      "name": "Comuna Iecea Mare",
      "countryCode": "RO",
      "stateCode": "TM",
      "latitude": "45.85074000",
      "longitude": "20.89310000"
   },
   {
      "name": "Comuna Jamu Mare",
      "countryCode": "RO",
      "stateCode": "TM",
      "latitude": "45.26768000",
      "longitude": "21.44318000"
   },
   {
      "name": "Comuna Jebel",
      "countryCode": "RO",
      "stateCode": "TM",
      "latitude": "45.56020000",
      "longitude": "21.21805000"
   },
   {
      "name": "Comuna Lenauheim",
      "countryCode": "RO",
      "stateCode": "TM",
      "latitude": "45.89042000",
      "longitude": "20.78901000"
   },
   {
      "name": "Comuna Liebling",
      "countryCode": "RO",
      "stateCode": "TM",
      "latitude": "45.57121000",
      "longitude": "21.33526000"
   },
   {
      "name": "Comuna Livezile",
      "countryCode": "RO",
      "stateCode": "TM",
      "latitude": "45.40994000",
      "longitude": "21.06179000"
   },
   {
      "name": "Comuna Lovrin",
      "countryCode": "RO",
      "stateCode": "TM",
      "latitude": "45.96943000",
      "longitude": "20.76953000"
   },
   {
      "name": "Comuna Margina",
      "countryCode": "RO",
      "stateCode": "TM",
      "latitude": "45.86159000",
      "longitude": "22.27233000"
   },
   {
      "name": "Comuna Maşloc",
      "countryCode": "RO",
      "stateCode": "TM",
      "latitude": "45.99637000",
      "longitude": "21.45484000"
   },
   {
      "name": "Comuna Moraviţa",
      "countryCode": "RO",
      "stateCode": "TM",
      "latitude": "45.28025000",
      "longitude": "21.25570000"
   },
   {
      "name": "Comuna Moşniţa Nouã",
      "countryCode": "RO",
      "stateCode": "TM",
      "latitude": "45.71397000",
      "longitude": "21.32403000"
   },
   {
      "name": "Comuna Mănăştiur",
      "countryCode": "RO",
      "stateCode": "TM",
      "latitude": "45.86808000",
      "longitude": "22.05329000"
   },
   {
      "name": "Comuna Niţchidorf",
      "countryCode": "RO",
      "stateCode": "TM",
      "latitude": "45.57379000",
      "longitude": "21.52266000"
   },
   {
      "name": "Comuna Nădrag",
      "countryCode": "RO",
      "stateCode": "TM",
      "latitude": "45.65064000",
      "longitude": "22.15383000"
   },
   {
      "name": "Comuna Ohaba Lungă",
      "countryCode": "RO",
      "stateCode": "TM",
      "latitude": "45.91812000",
      "longitude": "21.99094000"
   },
   {
      "name": "Comuna Orţişoara",
      "countryCode": "RO",
      "stateCode": "TM",
      "latitude": "45.95206000",
      "longitude": "21.22370000"
   },
   {
      "name": "Comuna Otelec",
      "countryCode": "RO",
      "stateCode": "TM",
      "latitude": "45.59079000",
      "longitude": "20.85648000"
   },
   {
      "name": "Comuna Parţa",
      "countryCode": "RO",
      "stateCode": "TM",
      "latitude": "45.62888000",
      "longitude": "21.13877000"
   },
   {
      "name": "Comuna Peciu Nou",
      "countryCode": "RO",
      "stateCode": "TM",
      "latitude": "45.62070000",
      "longitude": "21.00816000"
   },
   {
      "name": "Comuna Periam",
      "countryCode": "RO",
      "stateCode": "TM",
      "latitude": "46.04394000",
      "longitude": "20.87517000"
   },
   {
      "name": "Comuna Pesac",
      "countryCode": "RO",
      "stateCode": "TM",
      "latitude": "45.99590000",
      "longitude": "20.83522000"
   },
   {
      "name": "Comuna Pietroasa",
      "countryCode": "RO",
      "stateCode": "TM",
      "latitude": "45.82012000",
      "longitude": "22.41805000"
   },
   {
      "name": "Comuna Pişchia",
      "countryCode": "RO",
      "stateCode": "TM",
      "latitude": "45.90460000",
      "longitude": "21.40241000"
   },
   {
      "name": "Comuna Pădureni",
      "countryCode": "RO",
      "stateCode": "TM",
      "latitude": "45.60039000",
      "longitude": "21.21773000"
   },
   {
      "name": "Comuna Racoviţa",
      "countryCode": "RO",
      "stateCode": "TM",
      "latitude": "45.70441000",
      "longitude": "21.63935000"
   },
   {
      "name": "Comuna Remetea Mare",
      "countryCode": "RO",
      "stateCode": "TM",
      "latitude": "45.81036000",
      "longitude": "21.39893000"
   },
   {
      "name": "Comuna Sacoşu Turcesc",
      "countryCode": "RO",
      "stateCode": "TM",
      "latitude": "45.63526000",
      "longitude": "21.39828000"
   },
   {
      "name": "Comuna Saravale",
      "countryCode": "RO",
      "stateCode": "TM",
      "latitude": "46.06929000",
      "longitude": "20.74085000"
   },
   {
      "name": "Comuna Satchinez",
      "countryCode": "RO",
      "stateCode": "TM",
      "latitude": "45.93933000",
      "longitude": "21.07597000"
   },
   {
      "name": "Comuna Secaş",
      "countryCode": "RO",
      "stateCode": "TM",
      "latitude": "45.90501000",
      "longitude": "21.80832000"
   },
   {
      "name": "Comuna Sânandrei",
      "countryCode": "RO",
      "stateCode": "TM",
      "latitude": "45.86677000",
      "longitude": "21.18623000"
   },
   {
      "name": "Comuna Sânmihaiu Român",
      "countryCode": "RO",
      "stateCode": "TM",
      "latitude": "45.71002000",
      "longitude": "21.08352000"
   },
   {
      "name": "Comuna Sânpetru Mare",
      "countryCode": "RO",
      "stateCode": "TM",
      "latitude": "46.07994000",
      "longitude": "20.80148000"
   },
   {
      "name": "Comuna Săcălaz",
      "countryCode": "RO",
      "stateCode": "TM",
      "latitude": "45.75681000",
      "longitude": "21.03903000"
   },
   {
      "name": "Comuna Teremia Mare",
      "countryCode": "RO",
      "stateCode": "TM",
      "latitude": "45.95401000",
      "longitude": "20.52908000"
   },
   {
      "name": "Comuna Tomeşti",
      "countryCode": "RO",
      "stateCode": "TM",
      "latitude": "45.76670000",
      "longitude": "22.30974000"
   },
   {
      "name": "Comuna Tomnatic",
      "countryCode": "RO",
      "stateCode": "TM",
      "latitude": "45.98857000",
      "longitude": "20.66186000"
   },
   {
      "name": "Comuna Topolovãţu Mare",
      "countryCode": "RO",
      "stateCode": "TM",
      "latitude": "45.78363000",
      "longitude": "21.63784000"
   },
   {
      "name": "Comuna Tormac",
      "countryCode": "RO",
      "stateCode": "TM",
      "latitude": "45.52140000",
      "longitude": "21.47648000"
   },
   {
      "name": "Comuna Traian Vuia",
      "countryCode": "RO",
      "stateCode": "TM",
      "latitude": "45.78754000",
      "longitude": "22.04595000"
   },
   {
      "name": "Comuna Uivar",
      "countryCode": "RO",
      "stateCode": "TM",
      "latitude": "45.65085000",
      "longitude": "20.90281000"
   },
   {
      "name": "Comuna Variaş",
      "countryCode": "RO",
      "stateCode": "TM",
      "latitude": "46.01491000",
      "longitude": "21.01965000"
   },
   {
      "name": "Comuna Victor Vlad Delamarina",
      "countryCode": "RO",
      "stateCode": "TM",
      "latitude": "45.61227000",
      "longitude": "21.87572000"
   },
   {
      "name": "Comuna Voiteg",
      "countryCode": "RO",
      "stateCode": "TM",
      "latitude": "45.48472000",
      "longitude": "21.26977000"
   },
   {
      "name": "Comuna Vălcani",
      "countryCode": "RO",
      "stateCode": "TM",
      "latitude": "46.00357000",
      "longitude": "20.39865000"
   },
   {
      "name": "Comuna Şag",
      "countryCode": "RO",
      "stateCode": "TM",
      "latitude": "45.65184000",
      "longitude": "21.16933000"
   },
   {
      "name": "Comuna Şandra",
      "countryCode": "RO",
      "stateCode": "TM",
      "latitude": "45.91878000",
      "longitude": "20.87801000"
   },
   {
      "name": "Comuna Ştiuca",
      "countryCode": "RO",
      "stateCode": "TM",
      "latitude": "45.56283000",
      "longitude": "21.97988000"
   },
   {
      "name": "Coşteiu",
      "countryCode": "RO",
      "stateCode": "TM",
      "latitude": "45.74111000",
      "longitude": "21.84917000"
   },
   {
      "name": "Criciova",
      "countryCode": "RO",
      "stateCode": "TM",
      "latitude": "45.63333000",
      "longitude": "22.06667000"
   },
   {
      "name": "Curtea",
      "countryCode": "RO",
      "stateCode": "TM",
      "latitude": "45.81667000",
      "longitude": "22.30000000"
   },
   {
      "name": "Cărpiniş",
      "countryCode": "RO",
      "stateCode": "TM",
      "latitude": "45.78722000",
      "longitude": "20.90417000"
   },
   {
      "name": "Darova",
      "countryCode": "RO",
      "stateCode": "TM",
      "latitude": "45.64200000",
      "longitude": "21.77333000"
   },
   {
      "name": "Darova Nouă",
      "countryCode": "RO",
      "stateCode": "TM",
      "latitude": "45.63333000",
      "longitude": "21.76667000"
   },
   {
      "name": "Denta",
      "countryCode": "RO",
      "stateCode": "TM",
      "latitude": "45.35389000",
      "longitude": "21.24917000"
   },
   {
      "name": "Deta",
      "countryCode": "RO",
      "stateCode": "TM",
      "latitude": "45.38889000",
      "longitude": "21.22444000"
   },
   {
      "name": "Dudeştii Vechi",
      "countryCode": "RO",
      "stateCode": "TM",
      "latitude": "46.05000000",
      "longitude": "20.48333000"
   },
   {
      "name": "Dudeștii Noi",
      "countryCode": "RO",
      "stateCode": "TM",
      "latitude": "45.83989000",
      "longitude": "21.10215000"
   },
   {
      "name": "Dumbrava",
      "countryCode": "RO",
      "stateCode": "TM",
      "latitude": "45.81667000",
      "longitude": "22.11667000"
   },
   {
      "name": "Dumbrăviţa",
      "countryCode": "RO",
      "stateCode": "TM",
      "latitude": "45.79694000",
      "longitude": "21.24250000"
   },
   {
      "name": "Fibiș",
      "countryCode": "RO",
      "stateCode": "TM",
      "latitude": "45.97280000",
      "longitude": "21.42355000"
   },
   {
      "name": "Foeni",
      "countryCode": "RO",
      "stateCode": "TM",
      "latitude": "45.49861000",
      "longitude": "20.87583000"
   },
   {
      "name": "Fârdea",
      "countryCode": "RO",
      "stateCode": "TM",
      "latitude": "45.73333000",
      "longitude": "22.16667000"
   },
   {
      "name": "Făget",
      "countryCode": "RO",
      "stateCode": "TM",
      "latitude": "45.85000000",
      "longitude": "22.18333000"
   },
   {
      "name": "Gavojdia",
      "countryCode": "RO",
      "stateCode": "TM",
      "latitude": "45.61667000",
      "longitude": "22.01667000"
   },
   {
      "name": "Gelu",
      "countryCode": "RO",
      "stateCode": "TM",
      "latitude": "46.00591000",
      "longitude": "21.06002000"
   },
   {
      "name": "Ghilad",
      "countryCode": "RO",
      "stateCode": "TM",
      "latitude": "45.46501000",
      "longitude": "21.13824000"
   },
   {
      "name": "Ghiroda",
      "countryCode": "RO",
      "stateCode": "TM",
      "latitude": "45.76389000",
      "longitude": "21.30028000"
   },
   {
      "name": "Ghizela",
      "countryCode": "RO",
      "stateCode": "TM",
      "latitude": "45.82417000",
      "longitude": "21.73722000"
   },
   {
      "name": "Giarmata",
      "countryCode": "RO",
      "stateCode": "TM",
      "latitude": "45.83833000",
      "longitude": "21.31083000"
   },
   {
      "name": "Giarmata-Vii",
      "countryCode": "RO",
      "stateCode": "TM",
      "latitude": "45.79960000",
      "longitude": "21.30026000"
   },
   {
      "name": "Giera",
      "countryCode": "RO",
      "stateCode": "TM",
      "latitude": "45.40722000",
      "longitude": "20.99222000"
   },
   {
      "name": "Giroc",
      "countryCode": "RO",
      "stateCode": "TM",
      "latitude": "45.69417000",
      "longitude": "21.23583000"
   },
   {
      "name": "Giulvăz",
      "countryCode": "RO",
      "stateCode": "TM",
      "latitude": "45.54889000",
      "longitude": "20.98444000"
   },
   {
      "name": "Gottlob",
      "countryCode": "RO",
      "stateCode": "TM",
      "latitude": "45.93600000",
      "longitude": "20.71168000"
   },
   {
      "name": "Grabăț",
      "countryCode": "RO",
      "stateCode": "TM",
      "latitude": "45.87861000",
      "longitude": "20.74238000"
   },
   {
      "name": "Gătaia",
      "countryCode": "RO",
      "stateCode": "TM",
      "latitude": "45.43111000",
      "longitude": "21.43000000"
   },
   {
      "name": "Hodoni",
      "countryCode": "RO",
      "stateCode": "TM",
      "latitude": "45.90646000",
      "longitude": "21.08851000"
   },
   {
      "name": "Iecea Mare",
      "countryCode": "RO",
      "stateCode": "TM",
      "latitude": "45.85074000",
      "longitude": "20.89310000"
   },
   {
      "name": "Iecea Mică",
      "countryCode": "RO",
      "stateCode": "TM",
      "latitude": "45.82147000",
      "longitude": "20.92322000"
   },
   {
      "name": "Igriș",
      "countryCode": "RO",
      "stateCode": "TM",
      "latitude": "46.11313000",
      "longitude": "20.78496000"
   },
   {
      "name": "Izvin",
      "countryCode": "RO",
      "stateCode": "TM",
      "latitude": "45.80034000",
      "longitude": "21.46066000"
   },
   {
      "name": "Jamu Mare",
      "countryCode": "RO",
      "stateCode": "TM",
      "latitude": "45.25417000",
      "longitude": "21.41694000"
   },
   {
      "name": "Jebel",
      "countryCode": "RO",
      "stateCode": "TM",
      "latitude": "45.55556000",
      "longitude": "21.21361000"
   },
   {
      "name": "Jimbolia",
      "countryCode": "RO",
      "stateCode": "TM",
      "latitude": "45.79139000",
      "longitude": "20.71722000"
   },
   {
      "name": "Lenauheim",
      "countryCode": "RO",
      "stateCode": "TM",
      "latitude": "45.87194000",
      "longitude": "20.79944000"
   },
   {
      "name": "Liebling",
      "countryCode": "RO",
      "stateCode": "TM",
      "latitude": "45.57750000",
      "longitude": "21.32167000"
   },
   {
      "name": "Livezile",
      "countryCode": "RO",
      "stateCode": "TM",
      "latitude": "45.39026000",
      "longitude": "21.05794000"
   },
   {
      "name": "Lovrin",
      "countryCode": "RO",
      "stateCode": "TM",
      "latitude": "45.96806000",
      "longitude": "20.77028000"
   },
   {
      "name": "Lugoj",
      "countryCode": "RO",
      "stateCode": "TM",
      "latitude": "45.68861000",
      "longitude": "21.90306000"
   },
   {
      "name": "Margina",
      "countryCode": "RO",
      "stateCode": "TM",
      "latitude": "45.85841000",
      "longitude": "22.26654000"
   },
   {
      "name": "Maşloc",
      "countryCode": "RO",
      "stateCode": "TM",
      "latitude": "45.99806000",
      "longitude": "21.44972000"
   },
   {
      "name": "Moraviţa",
      "countryCode": "RO",
      "stateCode": "TM",
      "latitude": "45.25583000",
      "longitude": "21.27028000"
   },
   {
      "name": "Moşniţa Nouă",
      "countryCode": "RO",
      "stateCode": "TM",
      "latitude": "45.71722000",
      "longitude": "21.32528000"
   },
   {
      "name": "Moșnița Veche",
      "countryCode": "RO",
      "stateCode": "TM",
      "latitude": "45.73549000",
      "longitude": "21.33396000"
   },
   {
      "name": "Municipiul Lugoj",
      "countryCode": "RO",
      "stateCode": "TM",
      "latitude": "45.67678000",
      "longitude": "21.95988000"
   },
   {
      "name": "Municipiul Timişoara",
      "countryCode": "RO",
      "stateCode": "TM",
      "latitude": "45.75641000",
      "longitude": "21.22974000"
   },
   {
      "name": "Mănăştiur",
      "countryCode": "RO",
      "stateCode": "TM",
      "latitude": "45.81667000",
      "longitude": "22.06667000"
   },
   {
      "name": "Nerău",
      "countryCode": "RO",
      "stateCode": "TM",
      "latitude": "45.96929000",
      "longitude": "20.56070000"
   },
   {
      "name": "Niţchidorf",
      "countryCode": "RO",
      "stateCode": "TM",
      "latitude": "45.58333000",
      "longitude": "21.53333000"
   },
   {
      "name": "Nădrag",
      "countryCode": "RO",
      "stateCode": "TM",
      "latitude": "45.65000000",
      "longitude": "22.18333000"
   },
   {
      "name": "Ohaba Lungă",
      "countryCode": "RO",
      "stateCode": "TM",
      "latitude": "45.90740000",
      "longitude": "21.98535000"
   },
   {
      "name": "Oraş Buziaş",
      "countryCode": "RO",
      "stateCode": "TM",
      "latitude": "45.64035000",
      "longitude": "21.58934000"
   },
   {
      "name": "Oraş Ciacova",
      "countryCode": "RO",
      "stateCode": "TM",
      "latitude": "45.53242000",
      "longitude": "21.10558000"
   },
   {
      "name": "Oraş Deta",
      "countryCode": "RO",
      "stateCode": "TM",
      "latitude": "45.40518000",
      "longitude": "21.24829000"
   },
   {
      "name": "Oraş Fãget",
      "countryCode": "RO",
      "stateCode": "TM",
      "latitude": "45.85770000",
      "longitude": "22.17610000"
   },
   {
      "name": "Oraş Gãtaia",
      "countryCode": "RO",
      "stateCode": "TM",
      "latitude": "45.37402000",
      "longitude": "21.40796000"
   },
   {
      "name": "Oraş Jimbolia",
      "countryCode": "RO",
      "stateCode": "TM",
      "latitude": "45.79226000",
      "longitude": "20.71997000"
   },
   {
      "name": "Oraş Recaş",
      "countryCode": "RO",
      "stateCode": "TM",
      "latitude": "45.82646000",
      "longitude": "21.52629000"
   },
   {
      "name": "Oraş Sânnicolau Mare",
      "countryCode": "RO",
      "stateCode": "TM",
      "latitude": "46.07292000",
      "longitude": "20.62281000"
   },
   {
      "name": "Orţişoara",
      "countryCode": "RO",
      "stateCode": "TM",
      "latitude": "45.96361000",
      "longitude": "21.19833000"
   },
   {
      "name": "Otelec",
      "countryCode": "RO",
      "stateCode": "TM",
      "latitude": "45.61478000",
      "longitude": "20.84952000"
   },
   {
      "name": "Parța",
      "countryCode": "RO",
      "stateCode": "TM",
      "latitude": "45.62888000",
      "longitude": "21.13877000"
   },
   {
      "name": "Peciu Nou",
      "countryCode": "RO",
      "stateCode": "TM",
      "latitude": "45.60639000",
      "longitude": "21.05778000"
   },
   {
      "name": "Periam",
      "countryCode": "RO",
      "stateCode": "TM",
      "latitude": "46.05000000",
      "longitude": "20.86667000"
   },
   {
      "name": "Pesac",
      "countryCode": "RO",
      "stateCode": "TM",
      "latitude": "45.99590000",
      "longitude": "20.83522000"
   },
   {
      "name": "Pietroasa",
      "countryCode": "RO",
      "stateCode": "TM",
      "latitude": "45.83333000",
      "longitude": "22.40000000"
   },
   {
      "name": "Pişchia",
      "countryCode": "RO",
      "stateCode": "TM",
      "latitude": "45.90306000",
      "longitude": "21.33722000"
   },
   {
      "name": "Pădureni",
      "countryCode": "RO",
      "stateCode": "TM",
      "latitude": "45.60039000",
      "longitude": "21.21773000"
   },
   {
      "name": "Racoviţa",
      "countryCode": "RO",
      "stateCode": "TM",
      "latitude": "45.69833000",
      "longitude": "21.63583000"
   },
   {
      "name": "Recaş",
      "countryCode": "RO",
      "stateCode": "TM",
      "latitude": "45.79889000",
      "longitude": "21.50083000"
   },
   {
      "name": "Remetea Mare",
      "countryCode": "RO",
      "stateCode": "TM",
      "latitude": "45.77944000",
      "longitude": "21.37611000"
   },
   {
      "name": "Răchita",
      "countryCode": "RO",
      "stateCode": "TM",
      "latitude": "45.83827000",
      "longitude": "22.10615000"
   },
   {
      "name": "Sacoşu Turcesc",
      "countryCode": "RO",
      "stateCode": "TM",
      "latitude": "45.65194000",
      "longitude": "21.42889000"
   },
   {
      "name": "Sacoșu Mare",
      "countryCode": "RO",
      "stateCode": "TM",
      "latitude": "45.58503000",
      "longitude": "21.72958000"
   },
   {
      "name": "Saravale",
      "countryCode": "RO",
      "stateCode": "TM",
      "latitude": "46.06929000",
      "longitude": "20.74085000"
   },
   {
      "name": "Satchinez",
      "countryCode": "RO",
      "stateCode": "TM",
      "latitude": "45.93750000",
      "longitude": "21.04056000"
   },
   {
      "name": "Sculia",
      "countryCode": "RO",
      "stateCode": "TM",
      "latitude": "45.44429000",
      "longitude": "21.43225000"
   },
   {
      "name": "Secaş",
      "countryCode": "RO",
      "stateCode": "TM",
      "latitude": "45.88500000",
      "longitude": "21.81917000"
   },
   {
      "name": "Sânandrei",
      "countryCode": "RO",
      "stateCode": "TM",
      "latitude": "45.85306000",
      "longitude": "21.16806000"
   },
   {
      "name": "Sânmihaiu Român",
      "countryCode": "RO",
      "stateCode": "TM",
      "latitude": "45.70444000",
      "longitude": "21.08889000"
   },
   {
      "name": "Sânnicolau Mare",
      "countryCode": "RO",
      "stateCode": "TM",
      "latitude": "46.08333000",
      "longitude": "20.63333000"
   },
   {
      "name": "Sânpetru Mare",
      "countryCode": "RO",
      "stateCode": "TM",
      "latitude": "46.04515000",
      "longitude": "20.81834000"
   },
   {
      "name": "Săcălaz",
      "countryCode": "RO",
      "stateCode": "TM",
      "latitude": "45.75833000",
      "longitude": "21.11222000"
   },
   {
      "name": "Teremia Mare",
      "countryCode": "RO",
      "stateCode": "TM",
      "latitude": "45.93528000",
      "longitude": "20.52500000"
   },
   {
      "name": "Timişoara",
      "countryCode": "RO",
      "stateCode": "TM",
      "latitude": "45.75372000",
      "longitude": "21.22571000"
   },
   {
      "name": "Tomeşti",
      "countryCode": "RO",
      "stateCode": "TM",
      "latitude": "45.78333000",
      "longitude": "22.30000000"
   },
   {
      "name": "Tomnatic",
      "countryCode": "RO",
      "stateCode": "TM",
      "latitude": "45.98857000",
      "longitude": "20.66186000"
   },
   {
      "name": "Topolovăţu Mare",
      "countryCode": "RO",
      "stateCode": "TM",
      "latitude": "45.77389000",
      "longitude": "21.61889000"
   },
   {
      "name": "Tormac",
      "countryCode": "RO",
      "stateCode": "TM",
      "latitude": "45.52083000",
      "longitude": "21.49361000"
   },
   {
      "name": "Traian Vuia",
      "countryCode": "RO",
      "stateCode": "TM",
      "latitude": "45.80000000",
      "longitude": "22.06667000"
   },
   {
      "name": "Uivar",
      "countryCode": "RO",
      "stateCode": "TM",
      "latitude": "45.65806000",
      "longitude": "20.90583000"
   },
   {
      "name": "Urseni",
      "countryCode": "RO",
      "stateCode": "TM",
      "latitude": "45.69269000",
      "longitude": "21.30993000"
   },
   {
      "name": "Utvin",
      "countryCode": "RO",
      "stateCode": "TM",
      "latitude": "45.71298000",
      "longitude": "21.13011000"
   },
   {
      "name": "Variaş",
      "countryCode": "RO",
      "stateCode": "TM",
      "latitude": "46.01667000",
      "longitude": "20.95000000"
   },
   {
      "name": "Victor Vlad Delamarina",
      "countryCode": "RO",
      "stateCode": "TM",
      "latitude": "45.64056000",
      "longitude": "21.89278000"
   },
   {
      "name": "Voiteg",
      "countryCode": "RO",
      "stateCode": "TM",
      "latitude": "45.46889000",
      "longitude": "21.23917000"
   },
   {
      "name": "Vălcani",
      "countryCode": "RO",
      "stateCode": "TM",
      "latitude": "46.00357000",
      "longitude": "20.39865000"
   },
   {
      "name": "Şag",
      "countryCode": "RO",
      "stateCode": "TM",
      "latitude": "45.64861000",
      "longitude": "21.17556000"
   },
   {
      "name": "Şandra",
      "countryCode": "RO",
      "stateCode": "TM",
      "latitude": "45.92500000",
      "longitude": "20.89028000"
   },
   {
      "name": "Ştiuca",
      "countryCode": "RO",
      "stateCode": "TM",
      "latitude": "45.57139000",
      "longitude": "21.97667000"
   }
]