[
   {
      "name": "Kyaukse",
      "countryCode": "MM",
      "stateCode": "04",
      "latitude": "21.60560000",
      "longitude": "96.13508000"
   },
   {
      "name": "Mandalay",
      "countryCode": "MM",
      "stateCode": "04",
      "latitude": "21.97473000",
      "longitude": "96.08359000"
   },
   {
      "name": "Meiktila",
      "countryCode": "MM",
      "stateCode": "04",
      "latitude": "20.87776000",
      "longitude": "95.85844000"
   },
   {
      "name": "Mogok",
      "countryCode": "MM",
      "stateCode": "04",
      "latitude": "22.91766000",
      "longitude": "96.50982000"
   },
   {
      "name": "Myingyan",
      "countryCode": "MM",
      "stateCode": "04",
      "latitude": "21.46002000",
      "longitude": "95.38840000"
   },
   {
      "name": "Nyaungshwe",
      "countryCode": "MM",
      "stateCode": "04",
      "latitude": "20.66084000",
      "longitude": "96.93405000"
   },
   {
      "name": "Pyin Oo Lwin",
      "countryCode": "MM",
      "stateCode": "04",
      "latitude": "22.03501000",
      "longitude": "96.45683000"
   },
   {
      "name": "Yamethin",
      "countryCode": "MM",
      "stateCode": "04",
      "latitude": "20.43189000",
      "longitude": "96.13875000"
   }
]