[
   {
      "name": "Ain Ebel",
      "countryCode": "LB",
      "stateCode": "NA",
      "latitude": "33.11023000",
      "longitude": "35.40251000"
   },
   {
      "name": "Caza de Bent Jbaïl",
      "countryCode": "LB",
      "stateCode": "NA",
      "latitude": "33.15964000",
      "longitude": "35.41137000"
   },
   {
      "name": "Caza de Nabatîyé",
      "countryCode": "LB",
      "stateCode": "NA",
      "latitude": "33.39435000",
      "longitude": "35.44483000"
   },
   {
      "name": "Habboûch",
      "countryCode": "LB",
      "stateCode": "NA",
      "latitude": "33.40729000",
      "longitude": "35.48169000"
   },
   {
      "name": "Marjayoûn",
      "countryCode": "LB",
      "stateCode": "NA",
      "latitude": "33.36028000",
      "longitude": "35.59111000"
   },
   {
      "name": "Nabatîyé et Tahta",
      "countryCode": "LB",
      "stateCode": "NA",
      "latitude": "33.37889000",
      "longitude": "35.48389000"
   }
]