[
   {
      "name": "Gazi",
      "countryCode": "KE",
      "stateCode": "19",
      "latitude": "-4.42402000",
      "longitude": "39.50588000"
   },
   {
      "name": "Kinango",
      "countryCode": "KE",
      "stateCode": "19",
      "latitude": "-4.13723000",
      "longitude": "39.31528000"
   },
   {
      "name": "Kwale",
      "countryCode": "KE",
      "stateCode": "19",
      "latitude": "-4.17375000",
      "longitude": "39.45206000"
   },
   {
      "name": "Sawa Sawa",
      "countryCode": "KE",
      "stateCode": "19",
      "latitude": "-4.47166000",
      "longitude": "39.48463000"
   },
   {
      "name": "Shimoni",
      "countryCode": "KE",
      "stateCode": "19",
      "latitude": "-4.64756000",
      "longitude": "39.38175000"
   }
]