[
   {
      "name": "Al Ghaydah",
      "countryCode": "YE",
      "stateCode": "MR",
      "latitude": "16.26180000",
      "longitude": "52.08160000"
   },
   {
      "name": "Al GhayzÌ§ah",
      "countryCode": "YE",
      "stateCode": "MR",
      "latitude": "16.20787000",
      "longitude": "52.17605000"
   },
   {
      "name": "Al Masilah",
      "countryCode": "YE",
      "stateCode": "MR",
      "latitude": "15.63990000",
      "longitude": "50.64450000"
   },
   {
      "name": "Hat",
      "countryCode": "YE",
      "stateCode": "MR",
      "latitude": "17.80310000",
      "longitude": "51.67500000"
   },
   {
      "name": "Hawf",
      "countryCode": "YE",
      "stateCode": "MR",
      "latitude": "16.69530000",
      "longitude": "52.81820000"
   },
   {
      "name": "Huswain",
      "countryCode": "YE",
      "stateCode": "MR",
      "latitude": "15.72300000",
      "longitude": "51.91240000"
   },
   {
      "name": "Man'ar",
      "countryCode": "YE",
      "stateCode": "MR",
      "latitude": "16.55050000",
      "longitude": "50.98790000"
   },
   {
      "name": "Qishn",
      "countryCode": "YE",
      "stateCode": "MR",
      "latitude": "15.69990000",
      "longitude": "51.32400000"
   },
   {
      "name": "Sayhut",
      "countryCode": "YE",
      "stateCode": "MR",
      "latitude": "15.53450000",
      "longitude": "51.28690000"
   },
   {
      "name": "Shahan",
      "countryCode": "YE",
      "stateCode": "MR",
      "latitude": "17.59230000",
      "longitude": "52.59400000"
   }
]