[
   {
      "name": "Cana Chapetón",
      "countryCode": "DO",
      "stateCode": "15",
      "latitude": "19.60703000",
      "longitude": "-71.25734000"
   },
   {
      "name": "Castañuelas",
      "countryCode": "DO",
      "stateCode": "15",
      "latitude": "19.71387000",
      "longitude": "-71.49876000"
   },
   {
      "name": "Guayubín",
      "countryCode": "DO",
      "stateCode": "15",
      "latitude": "19.61667000",
      "longitude": "-71.33333000"
   },
   {
      "name": "Hatillo Palma",
      "countryCode": "DO",
      "stateCode": "15",
      "latitude": "19.66256000",
      "longitude": "-71.19406000"
   },
   {
      "name": "Las Matas de Santa Cruz",
      "countryCode": "DO",
      "stateCode": "15",
      "latitude": "19.67119000",
      "longitude": "-71.50471000"
   },
   {
      "name": "Monte Cristi",
      "countryCode": "DO",
      "stateCode": "15",
      "latitude": "19.83333000",
      "longitude": "-71.61667000"
   },
   {
      "name": "Pepillo Salcedo",
      "countryCode": "DO",
      "stateCode": "15",
      "latitude": "19.66667000",
      "longitude": "-71.66667000"
   },
   {
      "name": "San Fernando de Monte Cristi",
      "countryCode": "DO",
      "stateCode": "15",
      "latitude": "19.84826000",
      "longitude": "-71.64597000"
   },
   {
      "name": "Villa Elisa",
      "countryCode": "DO",
      "stateCode": "15",
      "latitude": "19.68560000",
      "longitude": "-71.27007000"
   },
   {
      "name": "Villa Vásquez",
      "countryCode": "DO",
      "stateCode": "15",
      "latitude": "19.80791000",
      "longitude": "-71.44000000"
   }
]