[
   {
      "name": "Cabaiguán",
      "countryCode": "CU",
      "stateCode": "07",
      "latitude": "22.07874000",
      "longitude": "-79.49726000"
   },
   {
      "name": "Condado",
      "countryCode": "CU",
      "stateCode": "07",
      "latitude": "21.87670000",
      "longitude": "-79.84014000"
   },
   {
      "name": "Fomento",
      "countryCode": "CU",
      "stateCode": "07",
      "latitude": "22.10475000",
      "longitude": "-79.72141000"
   },
   {
      "name": "Guayos",
      "countryCode": "CU",
      "stateCode": "07",
      "latitude": "22.04956000",
      "longitude": "-79.46106000"
   },
   {
      "name": "Jatibonico",
      "countryCode": "CU",
      "stateCode": "07",
      "latitude": "21.94333000",
      "longitude": "-79.16906000"
   },
   {
      "name": "La Sierpe",
      "countryCode": "CU",
      "stateCode": "07",
      "latitude": "21.77241000",
      "longitude": "-79.26832000"
   },
   {
      "name": "Municipio de Cabaiguán",
      "countryCode": "CU",
      "stateCode": "07",
      "latitude": "22.08333000",
      "longitude": "-79.50000000"
   },
   {
      "name": "Municipio de Jatibonico",
      "countryCode": "CU",
      "stateCode": "07",
      "latitude": "21.93333000",
      "longitude": "-79.16667000"
   },
   {
      "name": "Municipio de Sancti Spíritus",
      "countryCode": "CU",
      "stateCode": "07",
      "latitude": "21.82176000",
      "longitude": "-79.51036000"
   },
   {
      "name": "Municipio de Trinidad",
      "countryCode": "CU",
      "stateCode": "07",
      "latitude": "21.83195000",
      "longitude": "-79.88362000"
   },
   {
      "name": "Sancti Spíritus",
      "countryCode": "CU",
      "stateCode": "07",
      "latitude": "21.92972000",
      "longitude": "-79.44250000"
   },
   {
      "name": "Topes de Collantes",
      "countryCode": "CU",
      "stateCode": "07",
      "latitude": "21.91524000",
      "longitude": "-80.01929000"
   },
   {
      "name": "Trinidad",
      "countryCode": "CU",
      "stateCode": "07",
      "latitude": "21.80224000",
      "longitude": "-79.98467000"
   },
   {
      "name": "Yaguajay",
      "countryCode": "CU",
      "stateCode": "07",
      "latitude": "22.32691000",
      "longitude": "-79.23567000"
   },
   {
      "name": "Zaza del Medio",
      "countryCode": "CU",
      "stateCode": "07",
      "latitude": "21.99712000",
      "longitude": "-79.36678000"
   }
]