[
   {
      "name": "Bogyiszló",
      "countryCode": "HU",
      "stateCode": "TO",
      "latitude": "46.38638000",
      "longitude": "18.82962000"
   },
   {
      "name": "Bonyhád",
      "countryCode": "HU",
      "stateCode": "TO",
      "latitude": "46.29921000",
      "longitude": "18.53024000"
   },
   {
      "name": "Bonyhádi Járás",
      "countryCode": "HU",
      "stateCode": "TO",
      "latitude": "46.33998000",
      "longitude": "18.49739000"
   },
   {
      "name": "Báta",
      "countryCode": "HU",
      "stateCode": "TO",
      "latitude": "46.12864000",
      "longitude": "18.77027000"
   },
   {
      "name": "Bátaszék",
      "countryCode": "HU",
      "stateCode": "TO",
      "latitude": "46.19373000",
      "longitude": "18.72307000"
   },
   {
      "name": "Bölcske",
      "countryCode": "HU",
      "stateCode": "TO",
      "latitude": "46.74102000",
      "longitude": "18.96736000"
   },
   {
      "name": "Decs",
      "countryCode": "HU",
      "stateCode": "TO",
      "latitude": "46.28428000",
      "longitude": "18.76000000"
   },
   {
      "name": "Dombóvár",
      "countryCode": "HU",
      "stateCode": "TO",
      "latitude": "46.37657000",
      "longitude": "18.13696000"
   },
   {
      "name": "Dombóvári Járás",
      "countryCode": "HU",
      "stateCode": "TO",
      "latitude": "46.45592000",
      "longitude": "18.19076000"
   },
   {
      "name": "Dunaföldvár",
      "countryCode": "HU",
      "stateCode": "TO",
      "latitude": "46.80713000",
      "longitude": "18.92763000"
   },
   {
      "name": "Dunaszentgyörgy",
      "countryCode": "HU",
      "stateCode": "TO",
      "latitude": "46.52852000",
      "longitude": "18.81771000"
   },
   {
      "name": "Döbrököz",
      "countryCode": "HU",
      "stateCode": "TO",
      "latitude": "46.42178000",
      "longitude": "18.23953000"
   },
   {
      "name": "Fadd",
      "countryCode": "HU",
      "stateCode": "TO",
      "latitude": "46.46476000",
      "longitude": "18.81925000"
   },
   {
      "name": "Gyönk",
      "countryCode": "HU",
      "stateCode": "TO",
      "latitude": "46.55603000",
      "longitude": "18.47694000"
   },
   {
      "name": "Hőgyész",
      "countryCode": "HU",
      "stateCode": "TO",
      "latitude": "46.49697000",
      "longitude": "18.41841000"
   },
   {
      "name": "Iregszemcse",
      "countryCode": "HU",
      "stateCode": "TO",
      "latitude": "46.69286000",
      "longitude": "18.18581000"
   },
   {
      "name": "Madocsa",
      "countryCode": "HU",
      "stateCode": "TO",
      "latitude": "46.68790000",
      "longitude": "18.95791000"
   },
   {
      "name": "Nagydorog",
      "countryCode": "HU",
      "stateCode": "TO",
      "latitude": "46.62749000",
      "longitude": "18.65565000"
   },
   {
      "name": "Nagymányok",
      "countryCode": "HU",
      "stateCode": "TO",
      "latitude": "46.27911000",
      "longitude": "18.45489000"
   },
   {
      "name": "Németkér",
      "countryCode": "HU",
      "stateCode": "TO",
      "latitude": "46.71637000",
      "longitude": "18.76311000"
   },
   {
      "name": "Ozora",
      "countryCode": "HU",
      "stateCode": "TO",
      "latitude": "46.75133000",
      "longitude": "18.40010000"
   },
   {
      "name": "Paks",
      "countryCode": "HU",
      "stateCode": "TO",
      "latitude": "46.62210000",
      "longitude": "18.85569000"
   },
   {
      "name": "Paksi Járás",
      "countryCode": "HU",
      "stateCode": "TO",
      "latitude": "46.66035000",
      "longitude": "18.78572000"
   },
   {
      "name": "Pincehely",
      "countryCode": "HU",
      "stateCode": "TO",
      "latitude": "46.68095000",
      "longitude": "18.43935000"
   },
   {
      "name": "Simontornya",
      "countryCode": "HU",
      "stateCode": "TO",
      "latitude": "46.75462000",
      "longitude": "18.55490000"
   },
   {
      "name": "Szedres",
      "countryCode": "HU",
      "stateCode": "TO",
      "latitude": "46.47551000",
      "longitude": "18.68305000"
   },
   {
      "name": "Szekszárd",
      "countryCode": "HU",
      "stateCode": "TO",
      "latitude": "46.35014000",
      "longitude": "18.70905000"
   },
   {
      "name": "Szekszárdi Járás",
      "countryCode": "HU",
      "stateCode": "TO",
      "latitude": "46.33998000",
      "longitude": "18.67893000"
   },
   {
      "name": "Szentgálpuszta",
      "countryCode": "HU",
      "stateCode": "TO",
      "latitude": "46.37479000",
      "longitude": "18.62601000"
   },
   {
      "name": "Tamási",
      "countryCode": "HU",
      "stateCode": "TO",
      "latitude": "46.63333000",
      "longitude": "18.28333000"
   },
   {
      "name": "Tamási Járás",
      "countryCode": "HU",
      "stateCode": "TO",
      "latitude": "46.65424000",
      "longitude": "18.35857000"
   },
   {
      "name": "Tengelic",
      "countryCode": "HU",
      "stateCode": "TO",
      "latitude": "46.52878000",
      "longitude": "18.71117000"
   },
   {
      "name": "Tolna",
      "countryCode": "HU",
      "stateCode": "TO",
      "latitude": "46.42677000",
      "longitude": "18.78248000"
   },
   {
      "name": "Tolnai Járás",
      "countryCode": "HU",
      "stateCode": "TO",
      "latitude": "46.42541000",
      "longitude": "18.82691000"
   },
   {
      "name": "Zomba",
      "countryCode": "HU",
      "stateCode": "TO",
      "latitude": "46.41084000",
      "longitude": "18.56577000"
   },
   {
      "name": "Őcsény",
      "countryCode": "HU",
      "stateCode": "TO",
      "latitude": "46.31370000",
      "longitude": "18.75749000"
   }
]