[
   {
      "name": "Amphoe Ban Mi",
      "countryCode": "TH",
      "stateCode": "16",
      "latitude": "15.06154000",
      "longitude": "100.55200000"
   },
   {
      "name": "Amphoe Chai Badan",
      "countryCode": "TH",
      "stateCode": "16",
      "latitude": "15.18944000",
      "longitude": "101.12682000"
   },
   {
      "name": "Amphoe Khok Charoen",
      "countryCode": "TH",
      "stateCode": "16",
      "latitude": "15.40384000",
      "longitude": "100.84968000"
   },
   {
      "name": "Amphoe Khok Samrong",
      "countryCode": "TH",
      "stateCode": "16",
      "latitude": "15.04303000",
      "longitude": "100.77151000"
   },
   {
      "name": "Amphoe Lam Sonthi",
      "countryCode": "TH",
      "stateCode": "16",
      "latitude": "15.32833000",
      "longitude": "101.34783000"
   },
   {
      "name": "Amphoe Nong Muang",
      "countryCode": "TH",
      "stateCode": "16",
      "latitude": "15.27740000",
      "longitude": "100.70413000"
   },
   {
      "name": "Amphoe Phatthana Nikhom",
      "countryCode": "TH",
      "stateCode": "16",
      "latitude": "14.90917000",
      "longitude": "101.02673000"
   },
   {
      "name": "Amphoe Sa Bot",
      "countryCode": "TH",
      "stateCode": "16",
      "latitude": "15.23832000",
      "longitude": "100.88318000"
   },
   {
      "name": "Amphoe Tha Luang",
      "countryCode": "TH",
      "stateCode": "16",
      "latitude": "15.04786000",
      "longitude": "101.19986000"
   },
   {
      "name": "Amphoe Tha Wung",
      "countryCode": "TH",
      "stateCode": "16",
      "latitude": "14.82506000",
      "longitude": "100.50921000"
   },
   {
      "name": "Chai Badan",
      "countryCode": "TH",
      "stateCode": "16",
      "latitude": "15.20000000",
      "longitude": "101.13333000"
   },
   {
      "name": "Lop Buri",
      "countryCode": "TH",
      "stateCode": "16",
      "latitude": "14.79808000",
      "longitude": "100.65397000"
   },
   {
      "name": "Muang Lop Buri District",
      "countryCode": "TH",
      "stateCode": "16",
      "latitude": "14.82334000",
      "longitude": "100.67557000"
   }
]