[
   {
      "name": "Acarlar",
      "countryCode": "TR",
      "stateCode": "09",
      "latitude": "37.82444000",
      "longitude": "27.74667000"
   },
   {
      "name": "Atça",
      "countryCode": "TR",
      "stateCode": "09",
      "latitude": "37.88859000",
      "longitude": "28.21528000"
   },
   {
      "name": "Aydın",
      "countryCode": "TR",
      "stateCode": "09",
      "latitude": "37.84501000",
      "longitude": "27.83963000"
   },
   {
      "name": "Bozdoğan",
      "countryCode": "TR",
      "stateCode": "09",
      "latitude": "37.67134000",
      "longitude": "28.31395000"
   },
   {
      "name": "Buharkent",
      "countryCode": "TR",
      "stateCode": "09",
      "latitude": "37.96397000",
      "longitude": "28.74270000"
   },
   {
      "name": "Dalama",
      "countryCode": "TR",
      "stateCode": "09",
      "latitude": "37.79028000",
      "longitude": "28.06639000"
   },
   {
      "name": "Davutlar",
      "countryCode": "TR",
      "stateCode": "09",
      "latitude": "37.73392000",
      "longitude": "27.29283000"
   },
   {
      "name": "Didim",
      "countryCode": "TR",
      "stateCode": "09",
      "latitude": "37.39305000",
      "longitude": "27.29357000"
   },
   {
      "name": "Efeler",
      "countryCode": "TR",
      "stateCode": "09",
      "latitude": "37.83835000",
      "longitude": "27.84557000"
   },
   {
      "name": "Germencik",
      "countryCode": "TR",
      "stateCode": "09",
      "latitude": "37.87056000",
      "longitude": "27.60283000"
   },
   {
      "name": "Karacasu",
      "countryCode": "TR",
      "stateCode": "09",
      "latitude": "37.74731000",
      "longitude": "28.59402000"
   },
   {
      "name": "Karpuzlu",
      "countryCode": "TR",
      "stateCode": "09",
      "latitude": "37.55861000",
      "longitude": "27.83528000"
   },
   {
      "name": "Koçarlı",
      "countryCode": "TR",
      "stateCode": "09",
      "latitude": "37.76113000",
      "longitude": "27.70583000"
   },
   {
      "name": "Kuyucak",
      "countryCode": "TR",
      "stateCode": "09",
      "latitude": "37.91330000",
      "longitude": "28.45917000"
   },
   {
      "name": "Kuşadası",
      "countryCode": "TR",
      "stateCode": "09",
      "latitude": "37.86014000",
      "longitude": "27.25713000"
   },
   {
      "name": "Köşk",
      "countryCode": "TR",
      "stateCode": "09",
      "latitude": "37.85333000",
      "longitude": "28.05167000"
   },
   {
      "name": "Nazilli",
      "countryCode": "TR",
      "stateCode": "09",
      "latitude": "37.93570000",
      "longitude": "28.30609000"
   },
   {
      "name": "Sarıkemer",
      "countryCode": "TR",
      "stateCode": "09",
      "latitude": "37.56609000",
      "longitude": "27.36430000"
   },
   {
      "name": "Sultanhisar",
      "countryCode": "TR",
      "stateCode": "09",
      "latitude": "37.88989000",
      "longitude": "28.15436000"
   },
   {
      "name": "Söke",
      "countryCode": "TR",
      "stateCode": "09",
      "latitude": "37.74820000",
      "longitude": "27.40614000"
   },
   {
      "name": "Tepecik",
      "countryCode": "TR",
      "stateCode": "09",
      "latitude": "37.82358000",
      "longitude": "27.87496000"
   },
   {
      "name": "Yenipazar",
      "countryCode": "TR",
      "stateCode": "09",
      "latitude": "37.82332000",
      "longitude": "28.19573000"
   },
   {
      "name": "Çine",
      "countryCode": "TR",
      "stateCode": "09",
      "latitude": "37.61266000",
      "longitude": "28.05912000"
   },
   {
      "name": "İncirliova",
      "countryCode": "TR",
      "stateCode": "09",
      "latitude": "37.85222000",
      "longitude": "27.72361000"
   },
   {
      "name": "İsabeyli",
      "countryCode": "TR",
      "stateCode": "09",
      "latitude": "37.90147000",
      "longitude": "28.26475000"
   }
]