[
   {
      "name": "Belozërskoye",
      "countryCode": "RU",
      "stateCode": "KGN",
      "latitude": "55.82139000",
      "longitude": "65.58417000"
   },
   {
      "name": "Dalmatovo",
      "countryCode": "RU",
      "stateCode": "KGN",
      "latitude": "56.26000000",
      "longitude": "62.93620000"
   },
   {
      "name": "Glyadyanskoye",
      "countryCode": "RU",
      "stateCode": "KGN",
      "latitude": "54.90750000",
      "longitude": "65.08833000"
   },
   {
      "name": "Ikovka",
      "countryCode": "RU",
      "stateCode": "KGN",
      "latitude": "55.60889000",
      "longitude": "64.93750000"
   },
   {
      "name": "Kataysk",
      "countryCode": "RU",
      "stateCode": "KGN",
      "latitude": "56.28900000",
      "longitude": "62.58410000"
   },
   {
      "name": "Ketovo",
      "countryCode": "RU",
      "stateCode": "KGN",
      "latitude": "55.35500000",
      "longitude": "65.32583000"
   },
   {
      "name": "Krasnyy Oktyabr’",
      "countryCode": "RU",
      "stateCode": "KGN",
      "latitude": "55.65667000",
      "longitude": "64.81333000"
   },
   {
      "name": "Kurgan",
      "countryCode": "RU",
      "stateCode": "KGN",
      "latitude": "55.45000000",
      "longitude": "65.33333000"
   },
   {
      "name": "Kurtamysh",
      "countryCode": "RU",
      "stateCode": "KGN",
      "latitude": "54.91028000",
      "longitude": "64.43194000"
   },
   {
      "name": "Lebyazh’ye",
      "countryCode": "RU",
      "stateCode": "KGN",
      "latitude": "55.26889000",
      "longitude": "66.49472000"
   },
   {
      "name": "Lebyazh’yevskiy Rayon",
      "countryCode": "RU",
      "stateCode": "KGN",
      "latitude": "55.33333000",
      "longitude": "66.50000000"
   },
   {
      "name": "Lesnikovo",
      "countryCode": "RU",
      "stateCode": "KGN",
      "latitude": "55.28222000",
      "longitude": "65.31750000"
   },
   {
      "name": "Makushino",
      "countryCode": "RU",
      "stateCode": "KGN",
      "latitude": "55.21028000",
      "longitude": "67.24417000"
   },
   {
      "name": "Mishkino",
      "countryCode": "RU",
      "stateCode": "KGN",
      "latitude": "55.33889000",
      "longitude": "63.91750000"
   },
   {
      "name": "Mokrousovo",
      "countryCode": "RU",
      "stateCode": "KGN",
      "latitude": "55.81028000",
      "longitude": "66.76528000"
   },
   {
      "name": "Mokrousovskiy Rayon",
      "countryCode": "RU",
      "stateCode": "KGN",
      "latitude": "55.75000000",
      "longitude": "67.00000000"
   },
   {
      "name": "Petukhovo",
      "countryCode": "RU",
      "stateCode": "KGN",
      "latitude": "55.06917000",
      "longitude": "67.90194000"
   },
   {
      "name": "Polovinnoye",
      "countryCode": "RU",
      "stateCode": "KGN",
      "latitude": "54.79139000",
      "longitude": "65.98639000"
   },
   {
      "name": "Prosvet",
      "countryCode": "RU",
      "stateCode": "KGN",
      "latitude": "55.57028000",
      "longitude": "65.08250000"
   },
   {
      "name": "Safakulevo",
      "countryCode": "RU",
      "stateCode": "KGN",
      "latitude": "54.99010000",
      "longitude": "62.54420000"
   },
   {
      "name": "Safakulevskiy Rayon",
      "countryCode": "RU",
      "stateCode": "KGN",
      "latitude": "54.91667000",
      "longitude": "62.50000000"
   },
   {
      "name": "Shadrinsk",
      "countryCode": "RU",
      "stateCode": "KGN",
      "latitude": "56.08520000",
      "longitude": "63.63350000"
   },
   {
      "name": "Shatrovo",
      "countryCode": "RU",
      "stateCode": "KGN",
      "latitude": "56.51970000",
      "longitude": "64.63200000"
   },
   {
      "name": "Shumikha",
      "countryCode": "RU",
      "stateCode": "KGN",
      "latitude": "55.22611000",
      "longitude": "63.29611000"
   },
   {
      "name": "Shumikhinskiy Rayon",
      "countryCode": "RU",
      "stateCode": "KGN",
      "latitude": "55.25000000",
      "longitude": "63.25000000"
   },
   {
      "name": "Tselinnoye",
      "countryCode": "RU",
      "stateCode": "KGN",
      "latitude": "54.50111000",
      "longitude": "63.67361000"
   },
   {
      "name": "Vargashi",
      "countryCode": "RU",
      "stateCode": "KGN",
      "latitude": "55.35556000",
      "longitude": "65.84667000"
   },
   {
      "name": "Vargashinskiy Rayon",
      "countryCode": "RU",
      "stateCode": "KGN",
      "latitude": "55.33333000",
      "longitude": "65.91667000"
   },
   {
      "name": "Vvedenskoye",
      "countryCode": "RU",
      "stateCode": "KGN",
      "latitude": "55.47426000",
      "longitude": "65.08449000"
   },
   {
      "name": "Yurgamysh",
      "countryCode": "RU",
      "stateCode": "KGN",
      "latitude": "55.37454000",
      "longitude": "64.46222000"
   },
   {
      "name": "Zverinogolovskoye",
      "countryCode": "RU",
      "stateCode": "KGN",
      "latitude": "54.45397000",
      "longitude": "64.85242000"
   }
]