[
   {
      "name": "Ampasimanolotra",
      "countryCode": "MG",
      "stateCode": "D",
      "latitude": "-18.81667000",
      "longitude": "49.06667000"
   },
   {
      "name": "Andovoranto",
      "countryCode": "MG",
      "stateCode": "D",
      "latitude": "-18.95443000",
      "longitude": "49.10940000"
   },
   {
      "name": "Mahanoro",
      "countryCode": "MG",
      "stateCode": "D",
      "latitude": "-19.90000000",
      "longitude": "48.80000000"
   },
   {
      "name": "Mahavelona",
      "countryCode": "MG",
      "stateCode": "D",
      "latitude": "-17.68475000",
      "longitude": "49.50869000"
   },
   {
      "name": "Marolambo",
      "countryCode": "MG",
      "stateCode": "D",
      "latitude": "-20.05000000",
      "longitude": "48.11667000"
   },
   {
      "name": "Toamasina",
      "countryCode": "MG",
      "stateCode": "D",
      "latitude": "-18.14920000",
      "longitude": "49.40234000"
   },
   {
      "name": "Toamasina I",
      "countryCode": "MG",
      "stateCode": "D",
      "latitude": "-18.13863000",
      "longitude": "49.39203000"
   },
   {
      "name": "Toamasina II",
      "countryCode": "MG",
      "stateCode": "D",
      "latitude": "-17.94053000",
      "longitude": "49.14608000"
   },
   {
      "name": "Vohibinany",
      "countryCode": "MG",
      "stateCode": "D",
      "latitude": "-17.35000000",
      "longitude": "49.03333000"
   }
]