[
   {
      "name": "Boké Region",
      "isoCode": "B",
      "countryCode": "GN",
      "latitude": "11.18646720",
      "longitude": "-14.10013260"
   },
   {
      "name": "Beyla Prefecture",
      "isoCode": "BE",
      "countryCode": "GN",
      "latitude": "8.91981780",
      "longitude": "-8.30884410"
   },
   {
      "name": "Boffa Prefecture",
      "isoCode": "BF",
      "countryCode": "GN",
      "latitude": "10.18082540",
      "longitude": "-14.03916150"
   },
   {
      "name": "Boké Prefecture",
      "isoCode": "BK",
      "countryCode": "GN",
      "latitude": "11.08473790",
      "longitude": "-14.37919120"
   },
   {
      "name": "Conakry",
      "isoCode": "C",
      "countryCode": "GN",
      "latitude": "9.64118550",
      "longitude": "-13.57840120"
   },
   {
      "name": "Coyah Prefecture",
      "isoCode": "CO",
      "countryCode": "GN",
      "latitude": "9.77155350",
      "longitude": "-13.31252990"
   },
   {
      "name": "Kindia Region",
      "isoCode": "D",
      "countryCode": "GN",
      "latitude": "10.17816940",
      "longitude": "-12.98961500"
   },
   {
      "name": "Dabola Prefecture",
      "isoCode": "DB",
      "countryCode": "GN",
      "latitude": "10.72978060",
      "longitude": "-11.11078540"
   },
   {
      "name": "Dinguiraye Prefecture",
      "isoCode": "DI",
      "countryCode": "GN",
      "latitude": "11.68442220",
      "longitude": "-10.80000510"
   },
   {
      "name": "Dalaba Prefecture",
      "isoCode": "DL",
      "countryCode": "GN",
      "latitude": "10.68681760",
      "longitude": "-12.24906970"
   },
   {
      "name": "Dubréka Prefecture",
      "isoCode": "DU",
      "countryCode": "GN",
      "latitude": "9.79073480",
      "longitude": "-13.51477350"
   },
   {
      "name": "Faranah Prefecture",
      "isoCode": "FA",
      "countryCode": "GN",
      "latitude": "9.90573990",
      "longitude": "-10.80000510"
   },
   {
      "name": "Forécariah Prefecture",
      "isoCode": "FO",
      "countryCode": "GN",
      "latitude": "9.38861870",
      "longitude": "-13.08179030"
   },
   {
      "name": "Fria Prefecture",
      "isoCode": "FR",
      "countryCode": "GN",
      "latitude": "10.36745430",
      "longitude": "-13.58418710"
   },
   {
      "name": "Gaoual Prefecture",
      "isoCode": "GA",
      "countryCode": "GN",
      "latitude": "11.57628040",
      "longitude": "-13.35872880"
   },
   {
      "name": "Guéckédou Prefecture",
      "isoCode": "GU",
      "countryCode": "GN",
      "latitude": "8.56496880",
      "longitude": "-10.13111630"
   },
   {
      "name": "Kankan Region",
      "isoCode": "K",
      "countryCode": "GN",
      "latitude": "10.12092300",
      "longitude": "-9.54509740"
   },
   {
      "name": "Kankan Prefecture",
      "isoCode": "KA",
      "countryCode": "GN",
      "latitude": "10.30344650",
      "longitude": "-9.36730840"
   },
   {
      "name": "Koubia Prefecture",
      "isoCode": "KB",
      "countryCode": "GN",
      "latitude": "11.58235400",
      "longitude": "-11.89202370"
   },
   {
      "name": "Kindia Prefecture",
      "isoCode": "KD",
      "countryCode": "GN",
      "latitude": "10.10132920",
      "longitude": "-12.71351210"
   },
   {
      "name": "Kérouané Prefecture",
      "isoCode": "KE",
      "countryCode": "GN",
      "latitude": "9.25366430",
      "longitude": "-9.01289260"
   },
   {
      "name": "Koundara Prefecture",
      "isoCode": "KN",
      "countryCode": "GN",
      "latitude": "12.48940210",
      "longitude": "-13.30675620"
   },
   {
      "name": "Kouroussa Prefecture",
      "isoCode": "KO",
      "countryCode": "GN",
      "latitude": "10.64892290",
      "longitude": "-9.88505860"
   },
   {
      "name": "Kissidougou Prefecture",
      "isoCode": "KS",
      "countryCode": "GN",
      "latitude": "9.22520220",
      "longitude": "-10.08072980"
   },
   {
      "name": "Labé Region",
      "isoCode": "L",
      "countryCode": "GN",
      "latitude": "11.32320420",
      "longitude": "-12.28913140"
   },
   {
      "name": "Labé Prefecture",
      "isoCode": "LA",
      "countryCode": "GN",
      "latitude": "11.35419390",
      "longitude": "-12.34638750"
   },
   {
      "name": "Lélouma Prefecture",
      "isoCode": "LE",
      "countryCode": "GN",
      "latitude": "11.18333300",
      "longitude": "-12.93333300"
   },
   {
      "name": "Lola Prefecture",
      "isoCode": "LO",
      "countryCode": "GN",
      "latitude": "7.96138180",
      "longitude": "-8.39649380"
   },
   {
      "name": "Mamou Region",
      "isoCode": "M",
      "countryCode": "GN",
      "latitude": "10.57360240",
      "longitude": "-11.88917210"
   },
   {
      "name": "Macenta Prefecture",
      "isoCode": "MC",
      "countryCode": "GN",
      "latitude": "8.46157950",
      "longitude": "-9.27855830"
   },
   {
      "name": "Mandiana Prefecture",
      "isoCode": "MD",
      "countryCode": "GN",
      "latitude": "10.61728270",
      "longitude": "-8.69857160"
   },
   {
      "name": "Mali Prefecture",
      "isoCode": "ML",
      "countryCode": "GN",
      "latitude": "11.98370900",
      "longitude": "-12.25479190"
   },
   {
      "name": "Mamou Prefecture",
      "isoCode": "MM",
      "countryCode": "GN",
      "latitude": "10.57360240",
      "longitude": "-11.88917210"
   },
   {
      "name": "Nzérékoré Region",
      "isoCode": "N",
      "countryCode": "GN",
      "latitude": "8.03858700",
      "longitude": "-8.83627550"
   },
   {
      "name": "Nzérékoré Prefecture",
      "isoCode": "NZ",
      "countryCode": "GN",
      "latitude": "7.74783590",
      "longitude": "-8.82525020"
   },
   {
      "name": "Pita Prefecture",
      "isoCode": "PI",
      "countryCode": "GN",
      "latitude": "10.80620860",
      "longitude": "-12.71351210"
   },
   {
      "name": "Siguiri Prefecture",
      "isoCode": "SI",
      "countryCode": "GN",
      "latitude": "11.41481130",
      "longitude": "-9.17883040"
   },
   {
      "name": "Télimélé Prefecture",
      "isoCode": "TE",
      "countryCode": "GN",
      "latitude": "10.90893640",
      "longitude": "-13.02993310"
   },
   {
      "name": "Tougué Prefecture",
      "isoCode": "TO",
      "countryCode": "GN",
      "latitude": "11.38415830",
      "longitude": "-11.61577730"
   },
   {
      "name": "Yomou Prefecture",
      "isoCode": "YO",
      "countryCode": "GN",
      "latitude": "7.56962790",
      "longitude": "-9.25915710"
   }
]