[
   {
      "name": "Cao Lãnh",
      "countryCode": "VN",
      "stateCode": "45",
      "latitude": "10.46017000",
      "longitude": "105.63294000"
   },
   {
      "name": "Huyện Châu Thành",
      "countryCode": "VN",
      "stateCode": "45",
      "latitude": "10.22543000",
      "longitude": "105.82380000"
   },
   {
      "name": "Huyện Lai Vung",
      "countryCode": "VN",
      "stateCode": "45",
      "latitude": "10.24051000",
      "longitude": "105.66327000"
   },
   {
      "name": "Huyện Lấp Vò",
      "countryCode": "VN",
      "stateCode": "45",
      "latitude": "10.35918000",
      "longitude": "105.60611000"
   },
   {
      "name": "Huyện Tam Nông",
      "countryCode": "VN",
      "stateCode": "45",
      "latitude": "10.72761000",
      "longitude": "105.52522000"
   },
   {
      "name": "Huyện Thanh Bình",
      "countryCode": "VN",
      "stateCode": "45",
      "latitude": "10.60137000",
      "longitude": "105.47811000"
   },
   {
      "name": "Huyện Tháp Mười",
      "countryCode": "VN",
      "stateCode": "45",
      "latitude": "10.54398000",
      "longitude": "105.81875000"
   },
   {
      "name": "Huyện Tân Hồng",
      "countryCode": "VN",
      "stateCode": "45",
      "latitude": "10.87089000",
      "longitude": "105.49104000"
   },
   {
      "name": "Sa Dec",
      "countryCode": "VN",
      "stateCode": "45",
      "latitude": "10.29085000",
      "longitude": "105.75635000"
   },
   {
      "name": "Sa Dec city",
      "countryCode": "VN",
      "stateCode": "45",
      "latitude": "10.30550000",
      "longitude": "105.74757000"
   },
   {
      "name": "Thị Trấn Tân Thành",
      "countryCode": "VN",
      "stateCode": "45",
      "latitude": "10.25616000",
      "longitude": "105.59280000"
   }
]