[
   {
      "name": "Al Batinah Region",
      "isoCode": "BA",
      "countryCode": "OM",
      "latitude": "24.34198460",
      "longitude": "56.72989040"
   },
   {
      "name": "Al Batinah South Governorate",
      "isoCode": "BJ",
      "countryCode": "OM",
      "latitude": "23.43149030",
      "longitude": "57.42397960"
   },
   {
      "name": "Al Batinah North Governorate",
      "isoCode": "BS",
      "countryCode": "OM",
      "latitude": "24.34198460",
      "longitude": "56.72989040"
   },
   {
      "name": "Al Buraimi Governorate",
      "isoCode": "BU",
      "countryCode": "OM",
      "latitude": "24.16714130",
      "longitude": "56.11422530"
   },
   {
      "name": "Ad Dakhiliyah Governorate",
      "isoCode": "DA",
      "countryCode": "OM",
      "latitude": "22.85887580",
      "longitude": "57.53943560"
   },
   {
      "name": "Muscat Governorate",
      "isoCode": "MA",
      "countryCode": "OM",
      "latitude": "23.58803070",
      "longitude": "58.38287170"
   },
   {
      "name": "Musandam Governorate",
      "isoCode": "MU",
      "countryCode": "OM",
      "latitude": "26.19861440",
      "longitude": "56.24609490"
   },
   {
      "name": "Ash Sharqiyah Region",
      "isoCode": "SH",
      "countryCode": "OM",
      "latitude": "22.71411960",
      "longitude": "58.53080640"
   },
   {
      "name": "Ash Sharqiyah South Governorate",
      "isoCode": "SJ",
      "countryCode": "OM",
      "latitude": "22.01582490",
      "longitude": "59.32519220"
   },
   {
      "name": "Ash Sharqiyah North Governorate",
      "isoCode": "SS",
      "countryCode": "OM",
      "latitude": "22.71411960",
      "longitude": "58.53080640"
   },
   {
      "name": "Al Wusta Governorate",
      "isoCode": "WU",
      "countryCode": "OM",
      "latitude": "19.95710780",
      "longitude": "56.27568460"
   },
   {
      "name": "Ad Dhahirah Governorate",
      "isoCode": "ZA",
      "countryCode": "OM",
      "latitude": "23.21616740",
      "longitude": "56.49074440"
   },
   {
      "name": "Dhofar Governorate",
      "isoCode": "ZU",
      "countryCode": "OM",
      "latitude": "17.03221210",
      "longitude": "54.14252140"
   }
]