[
   {
      "name": "Cedrales",
      "countryCode": "PY",
      "stateCode": "10",
      "latitude": "-25.65668000",
      "longitude": "-54.72272000"
   },
   {
      "name": "Ciudad del Este",
      "countryCode": "PY",
      "stateCode": "10",
      "latitude": "-25.50972000",
      "longitude": "-54.61111000"
   },
   {
      "name": "Colonia Minga Porá",
      "countryCode": "PY",
      "stateCode": "10",
      "latitude": "-24.86667000",
      "longitude": "-54.90000000"
   },
   {
      "name": "Doctor Juan León Mallorquín",
      "countryCode": "PY",
      "stateCode": "10",
      "latitude": "-25.43053000",
      "longitude": "-55.25412000"
   },
   {
      "name": "Itakyry",
      "countryCode": "PY",
      "stateCode": "10",
      "latitude": "-24.98611000",
      "longitude": "-55.14963000"
   },
   {
      "name": "Naranjal",
      "countryCode": "PY",
      "stateCode": "10",
      "latitude": "-25.96667000",
      "longitude": "-55.18333000"
   },
   {
      "name": "Presidente Franco",
      "countryCode": "PY",
      "stateCode": "10",
      "latitude": "-25.56384000",
      "longitude": "-54.61097000"
   },
   {
      "name": "San Alberto",
      "countryCode": "PY",
      "stateCode": "10",
      "latitude": "-24.96667000",
      "longitude": "-54.90000000"
   },
   {
      "name": "Santa Rita",
      "countryCode": "PY",
      "stateCode": "10",
      "latitude": "-25.78333000",
      "longitude": "-55.06667000"
   },
   {
      "name": "Yguazú",
      "countryCode": "PY",
      "stateCode": "10",
      "latitude": "-25.46187000",
      "longitude": "-55.00007000"
   }
]