[
   {
      "name": "Ampara",
      "countryCode": "LK",
      "stateCode": "5",
      "latitude": "7.29754000",
      "longitude": "81.68202000"
   },
   {
      "name": "Ampara District",
      "countryCode": "LK",
      "stateCode": "5",
      "latitude": "7.08330000",
      "longitude": "81.75000000"
   },
   {
      "name": "Batticaloa",
      "countryCode": "LK",
      "stateCode": "5",
      "latitude": "7.71020000",
      "longitude": "81.69240000"
   },
   {
      "name": "Batticaloa District",
      "countryCode": "LK",
      "stateCode": "5",
      "latitude": "7.75000000",
      "longitude": "81.49970000"
   },
   {
      "name": "Eravur Town",
      "countryCode": "LK",
      "stateCode": "5",
      "latitude": "7.77820000",
      "longitude": "81.60380000"
   },
   {
      "name": "Kalmunai",
      "countryCode": "LK",
      "stateCode": "5",
      "latitude": "7.40902000",
      "longitude": "81.83472000"
   },
   {
      "name": "Trincomalee",
      "countryCode": "LK",
      "stateCode": "5",
      "latitude": "8.57780000",
      "longitude": "81.22890000"
   },
   {
      "name": "Trincomalee District",
      "countryCode": "LK",
      "stateCode": "5",
      "latitude": "8.58333000",
      "longitude": "81.08333000"
   },
   {
      "name": "Vakarai",
      "countryCode": "LK",
      "stateCode": "5",
      "latitude": "8.13333000",
      "longitude": "81.43333000"
   }
]