[
   {
      "name": "Beckingen",
      "countryCode": "DE",
      "stateCode": "SL",
      "latitude": "49.40000000",
      "longitude": "6.70000000"
   },
   {
      "name": "Bexbach",
      "countryCode": "DE",
      "stateCode": "SL",
      "latitude": "49.34615000",
      "longitude": "7.25527000"
   },
   {
      "name": "Blieskastel",
      "countryCode": "DE",
      "stateCode": "SL",
      "latitude": "49.23724000",
      "longitude": "7.25617000"
   },
   {
      "name": "Bous",
      "countryCode": "DE",
      "stateCode": "SL",
      "latitude": "49.27732000",
      "longitude": "6.80131000"
   },
   {
      "name": "Britten",
      "countryCode": "DE",
      "stateCode": "SL",
      "latitude": "49.52061000",
      "longitude": "6.67651000"
   },
   {
      "name": "Dillingen",
      "countryCode": "DE",
      "stateCode": "SL",
      "latitude": "49.35557000",
      "longitude": "6.72781000"
   },
   {
      "name": "Ensdorf",
      "countryCode": "DE",
      "stateCode": "SL",
      "latitude": "49.30000000",
      "longitude": "6.78333000"
   },
   {
      "name": "Eppelborn",
      "countryCode": "DE",
      "stateCode": "SL",
      "latitude": "49.40000000",
      "longitude": "6.96667000"
   },
   {
      "name": "Freisen",
      "countryCode": "DE",
      "stateCode": "SL",
      "latitude": "49.55000000",
      "longitude": "7.25000000"
   },
   {
      "name": "Friedrichsthal",
      "countryCode": "DE",
      "stateCode": "SL",
      "latitude": "49.32786000",
      "longitude": "7.09622000"
   },
   {
      "name": "Fürstenhausen",
      "countryCode": "DE",
      "stateCode": "SL",
      "latitude": "49.24075000",
      "longitude": "6.86817000"
   },
   {
      "name": "Gersheim",
      "countryCode": "DE",
      "stateCode": "SL",
      "latitude": "49.15000000",
      "longitude": "7.20000000"
   },
   {
      "name": "Großrosseln",
      "countryCode": "DE",
      "stateCode": "SL",
      "latitude": "49.20296000",
      "longitude": "6.84148000"
   },
   {
      "name": "Hangard",
      "countryCode": "DE",
      "stateCode": "SL",
      "latitude": "49.38260000",
      "longitude": "7.21046000"
   },
   {
      "name": "Heidstock",
      "countryCode": "DE",
      "stateCode": "SL",
      "latitude": "49.25571000",
      "longitude": "6.88156000"
   },
   {
      "name": "Heusweiler",
      "countryCode": "DE",
      "stateCode": "SL",
      "latitude": "49.33632000",
      "longitude": "6.93036000"
   },
   {
      "name": "Homburg",
      "countryCode": "DE",
      "stateCode": "SL",
      "latitude": "49.32637000",
      "longitude": "7.33867000"
   },
   {
      "name": "Illingen",
      "countryCode": "DE",
      "stateCode": "SL",
      "latitude": "49.37362000",
      "longitude": "7.04758000"
   },
   {
      "name": "Kirkel",
      "countryCode": "DE",
      "stateCode": "SL",
      "latitude": "49.28333000",
      "longitude": "7.23333000"
   },
   {
      "name": "Kleinblittersdorf",
      "countryCode": "DE",
      "stateCode": "SL",
      "latitude": "49.15780000",
      "longitude": "7.03734000"
   },
   {
      "name": "Lebach",
      "countryCode": "DE",
      "stateCode": "SL",
      "latitude": "49.41122000",
      "longitude": "6.90988000"
   },
   {
      "name": "Losheim",
      "countryCode": "DE",
      "stateCode": "SL",
      "latitude": "49.50990000",
      "longitude": "6.74549000"
   },
   {
      "name": "Ludweiler-Warndt",
      "countryCode": "DE",
      "stateCode": "SL",
      "latitude": "49.22074000",
      "longitude": "6.81195000"
   },
   {
      "name": "Luisenthal",
      "countryCode": "DE",
      "stateCode": "SL",
      "latitude": "49.24932000",
      "longitude": "6.90057000"
   },
   {
      "name": "Mainzweiler",
      "countryCode": "DE",
      "stateCode": "SL",
      "latitude": "49.41714000",
      "longitude": "7.11804000"
   },
   {
      "name": "Marpingen",
      "countryCode": "DE",
      "stateCode": "SL",
      "latitude": "49.45228000",
      "longitude": "7.05820000"
   },
   {
      "name": "Merchweiler",
      "countryCode": "DE",
      "stateCode": "SL",
      "latitude": "49.35000000",
      "longitude": "7.05000000"
   },
   {
      "name": "Merzig",
      "countryCode": "DE",
      "stateCode": "SL",
      "latitude": "49.44331000",
      "longitude": "6.63874000"
   },
   {
      "name": "Mettlach",
      "countryCode": "DE",
      "stateCode": "SL",
      "latitude": "49.49489000",
      "longitude": "6.58562000"
   },
   {
      "name": "Nalbach",
      "countryCode": "DE",
      "stateCode": "SL",
      "latitude": "49.38333000",
      "longitude": "6.78333000"
   },
   {
      "name": "Namborn",
      "countryCode": "DE",
      "stateCode": "SL",
      "latitude": "49.52166000",
      "longitude": "7.14070000"
   },
   {
      "name": "Neunkirchen",
      "countryCode": "DE",
      "stateCode": "SL",
      "latitude": "49.34449000",
      "longitude": "7.18045000"
   },
   {
      "name": "Nohfelden",
      "countryCode": "DE",
      "stateCode": "SL",
      "latitude": "49.58693000",
      "longitude": "7.14283000"
   },
   {
      "name": "Nonnweiler",
      "countryCode": "DE",
      "stateCode": "SL",
      "latitude": "49.60762000",
      "longitude": "6.96986000"
   },
   {
      "name": "Oberthal",
      "countryCode": "DE",
      "stateCode": "SL",
      "latitude": "49.51257000",
      "longitude": "7.08382000"
   },
   {
      "name": "Orscholz",
      "countryCode": "DE",
      "stateCode": "SL",
      "latitude": "49.50593000",
      "longitude": "6.52502000"
   },
   {
      "name": "Ottweiler",
      "countryCode": "DE",
      "stateCode": "SL",
      "latitude": "49.40133000",
      "longitude": "7.16424000"
   },
   {
      "name": "Püttlingen",
      "countryCode": "DE",
      "stateCode": "SL",
      "latitude": "49.28550000",
      "longitude": "6.88723000"
   },
   {
      "name": "Quierschied",
      "countryCode": "DE",
      "stateCode": "SL",
      "latitude": "49.31667000",
      "longitude": "7.05000000"
   },
   {
      "name": "Riegelsberg",
      "countryCode": "DE",
      "stateCode": "SL",
      "latitude": "49.30000000",
      "longitude": "6.93333000"
   },
   {
      "name": "Röchling-Höhe",
      "countryCode": "DE",
      "stateCode": "SL",
      "latitude": "49.27102000",
      "longitude": "6.83457000"
   },
   {
      "name": "Saarbrücken",
      "countryCode": "DE",
      "stateCode": "SL",
      "latitude": "49.23262000",
      "longitude": "7.00982000"
   },
   {
      "name": "Saarhölzbach",
      "countryCode": "DE",
      "stateCode": "SL",
      "latitude": "49.51585000",
      "longitude": "6.60742000"
   },
   {
      "name": "Saarlouis",
      "countryCode": "DE",
      "stateCode": "SL",
      "latitude": "49.31366000",
      "longitude": "6.75154000"
   },
   {
      "name": "Saarwellingen",
      "countryCode": "DE",
      "stateCode": "SL",
      "latitude": "49.35430000",
      "longitude": "6.80487000"
   },
   {
      "name": "Sankt Ingbert",
      "countryCode": "DE",
      "stateCode": "SL",
      "latitude": "49.27697000",
      "longitude": "7.11672000"
   },
   {
      "name": "Sankt Wendel",
      "countryCode": "DE",
      "stateCode": "SL",
      "latitude": "49.46633000",
      "longitude": "7.16814000"
   },
   {
      "name": "Schiffweiler",
      "countryCode": "DE",
      "stateCode": "SL",
      "latitude": "49.36667000",
      "longitude": "7.13333000"
   },
   {
      "name": "Schmelz",
      "countryCode": "DE",
      "stateCode": "SL",
      "latitude": "49.43333000",
      "longitude": "6.85000000"
   },
   {
      "name": "Schwalbach",
      "countryCode": "DE",
      "stateCode": "SL",
      "latitude": "49.30000000",
      "longitude": "6.81667000"
   },
   {
      "name": "Spiesen-Elversberg",
      "countryCode": "DE",
      "stateCode": "SL",
      "latitude": "49.31667000",
      "longitude": "7.13333000"
   },
   {
      "name": "Sulzbach",
      "countryCode": "DE",
      "stateCode": "SL",
      "latitude": "49.29882000",
      "longitude": "7.05696000"
   },
   {
      "name": "Tholey",
      "countryCode": "DE",
      "stateCode": "SL",
      "latitude": "49.48374000",
      "longitude": "7.03691000"
   },
   {
      "name": "Völklingen",
      "countryCode": "DE",
      "stateCode": "SL",
      "latitude": "49.25162000",
      "longitude": "6.85873000"
   },
   {
      "name": "Wadern",
      "countryCode": "DE",
      "stateCode": "SL",
      "latitude": "49.54122000",
      "longitude": "6.88774000"
   },
   {
      "name": "Wadgassen",
      "countryCode": "DE",
      "stateCode": "SL",
      "latitude": "49.26667000",
      "longitude": "6.78333000"
   },
   {
      "name": "Wallerfangen",
      "countryCode": "DE",
      "stateCode": "SL",
      "latitude": "49.32749000",
      "longitude": "6.71102000"
   },
   {
      "name": "Weiskirchen",
      "countryCode": "DE",
      "stateCode": "SL",
      "latitude": "49.55000000",
      "longitude": "6.81667000"
   },
   {
      "name": "Weiten",
      "countryCode": "DE",
      "stateCode": "SL",
      "latitude": "49.53011000",
      "longitude": "6.54064000"
   },
   {
      "name": "Überherrn",
      "countryCode": "DE",
      "stateCode": "SL",
      "latitude": "49.24187000",
      "longitude": "6.69840000"
   }
]