[
   {
      "name": "Anka",
      "countryCode": "NG",
      "stateCode": "ZA",
      "latitude": "12.11347000",
      "longitude": "5.92681000"
   },
   {
      "name": "Dan Sadau",
      "countryCode": "NG",
      "stateCode": "ZA",
      "latitude": "11.29621000",
      "longitude": "6.49520000"
   },
   {
      "name": "Gummi",
      "countryCode": "NG",
      "stateCode": "ZA",
      "latitude": "12.14484000",
      "longitude": "5.11776000"
   },
   {
      "name": "Gusau",
      "countryCode": "NG",
      "stateCode": "ZA",
      "latitude": "12.17024000",
      "longitude": "6.66412000"
   },
   {
      "name": "Kaura Namoda",
      "countryCode": "NG",
      "stateCode": "ZA",
      "latitude": "12.59371000",
      "longitude": "6.58648000"
   },
   {
      "name": "Kwatarkwashi",
      "countryCode": "NG",
      "stateCode": "ZA",
      "latitude": "12.14082000",
      "longitude": "6.82196000"
   },
   {
      "name": "Maru",
      "countryCode": "NG",
      "stateCode": "ZA",
      "latitude": "12.33360000",
      "longitude": "6.40372000"
   },
   {
      "name": "Moriki",
      "countryCode": "NG",
      "stateCode": "ZA",
      "latitude": "12.87405000",
      "longitude": "6.48754000"
   },
   {
      "name": "Sauri",
      "countryCode": "NG",
      "stateCode": "ZA",
      "latitude": "11.72655000",
      "longitude": "6.78374000"
   },
   {
      "name": "Tsafe",
      "countryCode": "NG",
      "stateCode": "ZA",
      "latitude": "11.95775000",
      "longitude": "6.92083000"
   }
]