[
   {
      "name": "Balkanabat",
      "countryCode": "TM",
      "stateCode": "B",
      "latitude": "39.51075000",
      "longitude": "54.36713000"
   },
   {
      "name": "Bereket",
      "countryCode": "TM",
      "stateCode": "B",
      "latitude": "39.24463000",
      "longitude": "55.51536000"
   },
   {
      "name": "Gumdag",
      "countryCode": "TM",
      "stateCode": "B",
      "latitude": "39.20611000",
      "longitude": "54.59056000"
   },
   {
      "name": "Magtymguly",
      "countryCode": "TM",
      "stateCode": "B",
      "latitude": "38.43749000",
      "longitude": "56.28081000"
   },
   {
      "name": "Serdar",
      "countryCode": "TM",
      "stateCode": "B",
      "latitude": "38.97644000",
      "longitude": "56.27575000"
   },
   {
      "name": "Türkmenbaşy",
      "countryCode": "TM",
      "stateCode": "B",
      "latitude": "40.02216000",
      "longitude": "52.95517000"
   }
]