[
   {
      "name": "Bestovje",
      "countryCode": "HR",
      "stateCode": "01",
      "latitude": "45.80833000",
      "longitude": "15.81667000"
   },
   {
      "name": "Bistra",
      "countryCode": "HR",
      "stateCode": "01",
      "latitude": "45.90657000",
      "longitude": "15.85087000"
   },
   {
      "name": "Brckovljani",
      "countryCode": "HR",
      "stateCode": "01",
      "latitude": "45.83333000",
      "longitude": "16.30000000"
   },
   {
      "name": "Brdovec",
      "countryCode": "HR",
      "stateCode": "01",
      "latitude": "45.86666000",
      "longitude": "15.77102000"
   },
   {
      "name": "Bregana",
      "countryCode": "HR",
      "stateCode": "01",
      "latitude": "45.84013000",
      "longitude": "15.68792000"
   },
   {
      "name": "Donja Bistra",
      "countryCode": "HR",
      "stateCode": "01",
      "latitude": "45.90778000",
      "longitude": "15.85444000"
   },
   {
      "name": "Donja Lomnica",
      "countryCode": "HR",
      "stateCode": "01",
      "latitude": "45.71194000",
      "longitude": "16.02694000"
   },
   {
      "name": "Donja Zdenčina",
      "countryCode": "HR",
      "stateCode": "01",
      "latitude": "45.66667000",
      "longitude": "15.76667000"
   },
   {
      "name": "Donji Stupnik",
      "countryCode": "HR",
      "stateCode": "01",
      "latitude": "45.73971000",
      "longitude": "15.85975000"
   },
   {
      "name": "Farkaševac",
      "countryCode": "HR",
      "stateCode": "01",
      "latitude": "45.87899000",
      "longitude": "16.63467000"
   },
   {
      "name": "Gornja Bistra",
      "countryCode": "HR",
      "stateCode": "01",
      "latitude": "45.91667000",
      "longitude": "15.90000000"
   },
   {
      "name": "Grad Dugo Selo",
      "countryCode": "HR",
      "stateCode": "01",
      "latitude": "45.80900000",
      "longitude": "16.24123000"
   },
   {
      "name": "Grad Jastrebarsko",
      "countryCode": "HR",
      "stateCode": "01",
      "latitude": "45.66667000",
      "longitude": "15.66667000"
   },
   {
      "name": "Grad Samobor",
      "countryCode": "HR",
      "stateCode": "01",
      "latitude": "45.80000000",
      "longitude": "15.70000000"
   },
   {
      "name": "Grad Sveti Ivan Zelina",
      "countryCode": "HR",
      "stateCode": "01",
      "latitude": "45.96667000",
      "longitude": "16.25000000"
   },
   {
      "name": "Grad Velika Gorica",
      "countryCode": "HR",
      "stateCode": "01",
      "latitude": "45.70000000",
      "longitude": "16.08333000"
   },
   {
      "name": "Grad Vrbovec",
      "countryCode": "HR",
      "stateCode": "01",
      "latitude": "45.86667000",
      "longitude": "16.43333000"
   },
   {
      "name": "Grad Zaprešić",
      "countryCode": "HR",
      "stateCode": "01",
      "latitude": "45.86667000",
      "longitude": "15.80000000"
   },
   {
      "name": "Gradec",
      "countryCode": "HR",
      "stateCode": "01",
      "latitude": "45.91111000",
      "longitude": "16.48278000"
   },
   {
      "name": "Gradići",
      "countryCode": "HR",
      "stateCode": "01",
      "latitude": "45.70000000",
      "longitude": "16.05000000"
   },
   {
      "name": "Gračec",
      "countryCode": "HR",
      "stateCode": "01",
      "latitude": "45.83333000",
      "longitude": "16.31667000"
   },
   {
      "name": "Jablanovec",
      "countryCode": "HR",
      "stateCode": "01",
      "latitude": "45.87583000",
      "longitude": "15.85361000"
   },
   {
      "name": "Jakovlje",
      "countryCode": "HR",
      "stateCode": "01",
      "latitude": "45.93611000",
      "longitude": "15.85559000"
   },
   {
      "name": "Jastrebarsko",
      "countryCode": "HR",
      "stateCode": "01",
      "latitude": "45.66833000",
      "longitude": "15.64861000"
   },
   {
      "name": "Kerestinec",
      "countryCode": "HR",
      "stateCode": "01",
      "latitude": "45.77010000",
      "longitude": "15.80864000"
   },
   {
      "name": "Križ",
      "countryCode": "HR",
      "stateCode": "01",
      "latitude": "45.66500000",
      "longitude": "16.52333000"
   },
   {
      "name": "Kuče",
      "countryCode": "HR",
      "stateCode": "01",
      "latitude": "45.67694000",
      "longitude": "16.14500000"
   },
   {
      "name": "Lonjica",
      "countryCode": "HR",
      "stateCode": "01",
      "latitude": "45.85500000",
      "longitude": "16.33000000"
   },
   {
      "name": "Luka",
      "countryCode": "HR",
      "stateCode": "01",
      "latitude": "45.95795000",
      "longitude": "15.81954000"
   },
   {
      "name": "Lukavec",
      "countryCode": "HR",
      "stateCode": "01",
      "latitude": "45.70444000",
      "longitude": "15.99000000"
   },
   {
      "name": "Lupoglav",
      "countryCode": "HR",
      "stateCode": "01",
      "latitude": "45.79639000",
      "longitude": "16.34639000"
   },
   {
      "name": "Mičevec",
      "countryCode": "HR",
      "stateCode": "01",
      "latitude": "45.75000000",
      "longitude": "16.06667000"
   },
   {
      "name": "Mraclin",
      "countryCode": "HR",
      "stateCode": "01",
      "latitude": "45.66667000",
      "longitude": "16.09556000"
   },
   {
      "name": "Novo Čiče",
      "countryCode": "HR",
      "stateCode": "01",
      "latitude": "45.70000000",
      "longitude": "16.11667000"
   },
   {
      "name": "Novoselec",
      "countryCode": "HR",
      "stateCode": "01",
      "latitude": "45.65250000",
      "longitude": "16.53639000"
   },
   {
      "name": "Općina Dubrava",
      "countryCode": "HR",
      "stateCode": "01",
      "latitude": "45.83759000",
      "longitude": "16.53683000"
   },
   {
      "name": "Orešje",
      "countryCode": "HR",
      "stateCode": "01",
      "latitude": "45.81618000",
      "longitude": "15.80246000"
   },
   {
      "name": "Pojatno",
      "countryCode": "HR",
      "stateCode": "01",
      "latitude": "45.90500000",
      "longitude": "15.80056000"
   },
   {
      "name": "Preseka",
      "countryCode": "HR",
      "stateCode": "01",
      "latitude": "45.97456000",
      "longitude": "16.38697000"
   },
   {
      "name": "Prigorje Brdovečko",
      "countryCode": "HR",
      "stateCode": "01",
      "latitude": "45.87944000",
      "longitude": "15.73806000"
   },
   {
      "name": "Pušća",
      "countryCode": "HR",
      "stateCode": "01",
      "latitude": "45.91567000",
      "longitude": "15.78049000"
   },
   {
      "name": "Rakitje",
      "countryCode": "HR",
      "stateCode": "01",
      "latitude": "45.79389000",
      "longitude": "15.82222000"
   },
   {
      "name": "Rakov Potok",
      "countryCode": "HR",
      "stateCode": "01",
      "latitude": "45.73806000",
      "longitude": "15.79722000"
   },
   {
      "name": "Rude",
      "countryCode": "HR",
      "stateCode": "01",
      "latitude": "45.76667000",
      "longitude": "15.66667000"
   },
   {
      "name": "Samobor",
      "countryCode": "HR",
      "stateCode": "01",
      "latitude": "45.80306000",
      "longitude": "15.71806000"
   },
   {
      "name": "Stupnik",
      "countryCode": "HR",
      "stateCode": "01",
      "latitude": "45.75314000",
      "longitude": "15.84078000"
   },
   {
      "name": "Sveta Nedelja",
      "countryCode": "HR",
      "stateCode": "01",
      "latitude": "45.79617000",
      "longitude": "15.77971000"
   },
   {
      "name": "Sveta Nedjelja",
      "countryCode": "HR",
      "stateCode": "01",
      "latitude": "45.79833000",
      "longitude": "15.78056000"
   },
   {
      "name": "Velika Gorica",
      "countryCode": "HR",
      "stateCode": "01",
      "latitude": "45.71250000",
      "longitude": "16.07556000"
   },
   {
      "name": "Velika Mlaka",
      "countryCode": "HR",
      "stateCode": "01",
      "latitude": "45.73639000",
      "longitude": "16.03111000"
   },
   {
      "name": "Velika Ostrna",
      "countryCode": "HR",
      "stateCode": "01",
      "latitude": "45.78752000",
      "longitude": "16.28139000"
   },
   {
      "name": "Vrbovec",
      "countryCode": "HR",
      "stateCode": "01",
      "latitude": "45.88333000",
      "longitude": "16.42167000"
   },
   {
      "name": "Zaprešić",
      "countryCode": "HR",
      "stateCode": "01",
      "latitude": "45.85639000",
      "longitude": "15.80778000"
   },
   {
      "name": "Zdenci Brdovečki",
      "countryCode": "HR",
      "stateCode": "01",
      "latitude": "45.86667000",
      "longitude": "15.75000000"
   }
]