[
   {
      "name": "Aberaeron",
      "countryCode": "GB",
      "stateCode": "WLS",
      "latitude": "52.24247000",
      "longitude": "-4.25871000"
   },
   {
      "name": "Abercanaid",
      "countryCode": "GB",
      "stateCode": "WLS",
      "latitude": "51.72361000",
      "longitude": "-3.36611000"
   },
   {
      "name": "Abercarn",
      "countryCode": "GB",
      "stateCode": "WLS",
      "latitude": "51.64733000",
      "longitude": "-3.13476000"
   },
   {
      "name": "Abercynon",
      "countryCode": "GB",
      "stateCode": "WLS",
      "latitude": "51.64548000",
      "longitude": "-3.32727000"
   },
   {
      "name": "Aberdare",
      "countryCode": "GB",
      "stateCode": "WLS",
      "latitude": "51.71438000",
      "longitude": "-3.44918000"
   },
   {
      "name": "Aberfan",
      "countryCode": "GB",
      "stateCode": "WLS",
      "latitude": "51.68892000",
      "longitude": "-3.34178000"
   },
   {
      "name": "Abergavenny",
      "countryCode": "GB",
      "stateCode": "WLS",
      "latitude": "51.82098000",
      "longitude": "-3.01743000"
   },
   {
      "name": "Abergele",
      "countryCode": "GB",
      "stateCode": "WLS",
      "latitude": "53.28436000",
      "longitude": "-3.58220000"
   },
   {
      "name": "Aberkenfig",
      "countryCode": "GB",
      "stateCode": "WLS",
      "latitude": "51.54000000",
      "longitude": "-3.59556000"
   },
   {
      "name": "Aberporth",
      "countryCode": "GB",
      "stateCode": "WLS",
      "latitude": "52.13248000",
      "longitude": "-4.54173000"
   },
   {
      "name": "Abertillery",
      "countryCode": "GB",
      "stateCode": "WLS",
      "latitude": "51.72981000",
      "longitude": "-3.13432000"
   },
   {
      "name": "Abertridwr",
      "countryCode": "GB",
      "stateCode": "WLS",
      "latitude": "51.59583000",
      "longitude": "-3.26833000"
   },
   {
      "name": "Aberystwyth",
      "countryCode": "GB",
      "stateCode": "WLS",
      "latitude": "52.41548000",
      "longitude": "-4.08292000"
   },
   {
      "name": "Amlwch",
      "countryCode": "GB",
      "stateCode": "WLS",
      "latitude": "53.40986000",
      "longitude": "-4.34712000"
   },
   {
      "name": "Ammanford",
      "countryCode": "GB",
      "stateCode": "WLS",
      "latitude": "51.79279000",
      "longitude": "-3.98833000"
   },
   {
      "name": "Anglesey",
      "countryCode": "GB",
      "stateCode": "WLS",
      "latitude": "53.25000000",
      "longitude": "-4.33333000"
   },
   {
      "name": "Bagillt",
      "countryCode": "GB",
      "stateCode": "WLS",
      "latitude": "53.26540000",
      "longitude": "-3.16551000"
   },
   {
      "name": "Bala",
      "countryCode": "GB",
      "stateCode": "WLS",
      "latitude": "52.91111000",
      "longitude": "-3.59722000"
   },
   {
      "name": "Bangor",
      "countryCode": "GB",
      "stateCode": "WLS",
      "latitude": "53.22752000",
      "longitude": "-4.12936000"
   },
   {
      "name": "Bargoed",
      "countryCode": "GB",
      "stateCode": "WLS",
      "latitude": "51.68333000",
      "longitude": "-3.23333000"
   },
   {
      "name": "Barmouth",
      "countryCode": "GB",
      "stateCode": "WLS",
      "latitude": "52.72377000",
      "longitude": "-4.05748000"
   },
   {
      "name": "Barry",
      "countryCode": "GB",
      "stateCode": "WLS",
      "latitude": "51.39979000",
      "longitude": "-3.28380000"
   },
   {
      "name": "Beaumaris",
      "countryCode": "GB",
      "stateCode": "WLS",
      "latitude": "53.26315000",
      "longitude": "-4.09233000"
   },
   {
      "name": "Beddau",
      "countryCode": "GB",
      "stateCode": "WLS",
      "latitude": "51.55398000",
      "longitude": "-3.35814000"
   },
   {
      "name": "Bedlinog",
      "countryCode": "GB",
      "stateCode": "WLS",
      "latitude": "51.70432000",
      "longitude": "-3.31306000"
   },
   {
      "name": "Bedwas",
      "countryCode": "GB",
      "stateCode": "WLS",
      "latitude": "51.59183000",
      "longitude": "-3.19886000"
   },
   {
      "name": "Benllech",
      "countryCode": "GB",
      "stateCode": "WLS",
      "latitude": "53.32044000",
      "longitude": "-4.22607000"
   },
   {
      "name": "Bethesda",
      "countryCode": "GB",
      "stateCode": "WLS",
      "latitude": "53.18150000",
      "longitude": "-4.05828000"
   },
   {
      "name": "Betws",
      "countryCode": "GB",
      "stateCode": "WLS",
      "latitude": "51.56917000",
      "longitude": "-3.58833000"
   },
   {
      "name": "Betws-y-Coed",
      "countryCode": "GB",
      "stateCode": "WLS",
      "latitude": "53.09382000",
      "longitude": "-3.80668000"
   },
   {
      "name": "Bishopston",
      "countryCode": "GB",
      "stateCode": "WLS",
      "latitude": "51.57750000",
      "longitude": "-4.04806000"
   },
   {
      "name": "Blackwood",
      "countryCode": "GB",
      "stateCode": "WLS",
      "latitude": "51.66778000",
      "longitude": "-3.20750000"
   },
   {
      "name": "Blaenau Gwent",
      "countryCode": "GB",
      "stateCode": "WLS",
      "latitude": "51.75000000",
      "longitude": "-3.16667000"
   },
   {
      "name": "Blaenau-Ffestiniog",
      "countryCode": "GB",
      "stateCode": "WLS",
      "latitude": "52.99464000",
      "longitude": "-3.93697000"
   },
   {
      "name": "Blaenavon",
      "countryCode": "GB",
      "stateCode": "WLS",
      "latitude": "51.77402000",
      "longitude": "-3.08537000"
   },
   {
      "name": "Blaengwynfi",
      "countryCode": "GB",
      "stateCode": "WLS",
      "latitude": "51.65623000",
      "longitude": "-3.60371000"
   },
   {
      "name": "Bodedern",
      "countryCode": "GB",
      "stateCode": "WLS",
      "latitude": "53.29232000",
      "longitude": "-4.50303000"
   },
   {
      "name": "Bodelwyddan",
      "countryCode": "GB",
      "stateCode": "WLS",
      "latitude": "53.26827000",
      "longitude": "-3.50078000"
   },
   {
      "name": "Borth",
      "countryCode": "GB",
      "stateCode": "WLS",
      "latitude": "52.48887000",
      "longitude": "-4.05039000"
   },
   {
      "name": "Bow Street",
      "countryCode": "GB",
      "stateCode": "WLS",
      "latitude": "52.44213000",
      "longitude": "-4.02783000"
   },
   {
      "name": "Brecon",
      "countryCode": "GB",
      "stateCode": "WLS",
      "latitude": "51.94612000",
      "longitude": "-3.38887000"
   },
   {
      "name": "Bridgend",
      "countryCode": "GB",
      "stateCode": "WLS",
      "latitude": "51.50583000",
      "longitude": "-3.57722000"
   },
   {
      "name": "Bridgend county borough",
      "countryCode": "GB",
      "stateCode": "WLS",
      "latitude": "51.55000000",
      "longitude": "-3.58333000"
   },
   {
      "name": "Briton Ferry",
      "countryCode": "GB",
      "stateCode": "WLS",
      "latitude": "51.63106000",
      "longitude": "-3.81898000"
   },
   {
      "name": "Broughton",
      "countryCode": "GB",
      "stateCode": "WLS",
      "latitude": "53.16303000",
      "longitude": "-2.99309000"
   },
   {
      "name": "Brymbo",
      "countryCode": "GB",
      "stateCode": "WLS",
      "latitude": "53.06667000",
      "longitude": "-3.06667000"
   },
   {
      "name": "Bryn",
      "countryCode": "GB",
      "stateCode": "WLS",
      "latitude": "51.61639000",
      "longitude": "-3.71167000"
   },
   {
      "name": "Brynamman",
      "countryCode": "GB",
      "stateCode": "WLS",
      "latitude": "51.80000000",
      "longitude": "-3.86667000"
   },
   {
      "name": "Brynmawr",
      "countryCode": "GB",
      "stateCode": "WLS",
      "latitude": "51.80000000",
      "longitude": "-3.18333000"
   },
   {
      "name": "Brynna",
      "countryCode": "GB",
      "stateCode": "WLS",
      "latitude": "51.53845000",
      "longitude": "-3.46378000"
   },
   {
      "name": "Buckley",
      "countryCode": "GB",
      "stateCode": "WLS",
      "latitude": "53.16667000",
      "longitude": "-3.08333000"
   },
   {
      "name": "Builth Wells",
      "countryCode": "GB",
      "stateCode": "WLS",
      "latitude": "52.14940000",
      "longitude": "-3.40469000"
   },
   {
      "name": "Burry Port",
      "countryCode": "GB",
      "stateCode": "WLS",
      "latitude": "51.68435000",
      "longitude": "-4.24687000"
   },
   {
      "name": "Caergwrle",
      "countryCode": "GB",
      "stateCode": "WLS",
      "latitude": "53.10953000",
      "longitude": "-3.03808000"
   },
   {
      "name": "Caerleon",
      "countryCode": "GB",
      "stateCode": "WLS",
      "latitude": "51.60952000",
      "longitude": "-2.95378000"
   },
   {
      "name": "Caernarfon",
      "countryCode": "GB",
      "stateCode": "WLS",
      "latitude": "53.14126000",
      "longitude": "-4.27016000"
   },
   {
      "name": "Caerphilly",
      "countryCode": "GB",
      "stateCode": "WLS",
      "latitude": "51.57452000",
      "longitude": "-3.21800000"
   },
   {
      "name": "Caerphilly County Borough",
      "countryCode": "GB",
      "stateCode": "WLS",
      "latitude": "51.66667000",
      "longitude": "-3.16667000"
   },
   {
      "name": "Caerwent",
      "countryCode": "GB",
      "stateCode": "WLS",
      "latitude": "51.61120000",
      "longitude": "-2.76865000"
   },
   {
      "name": "Caldicot",
      "countryCode": "GB",
      "stateCode": "WLS",
      "latitude": "51.58661000",
      "longitude": "-2.75736000"
   },
   {
      "name": "Cardiff",
      "countryCode": "GB",
      "stateCode": "WLS",
      "latitude": "51.48000000",
      "longitude": "-3.18000000"
   },
   {
      "name": "Cardigan",
      "countryCode": "GB",
      "stateCode": "WLS",
      "latitude": "52.08373000",
      "longitude": "-4.66228000"
   },
   {
      "name": "Carmarthen",
      "countryCode": "GB",
      "stateCode": "WLS",
      "latitude": "51.85552000",
      "longitude": "-4.30535000"
   },
   {
      "name": "Carmarthenshire",
      "countryCode": "GB",
      "stateCode": "WLS",
      "latitude": "51.83333000",
      "longitude": "-4.16667000"
   },
   {
      "name": "Cefn Cribwr",
      "countryCode": "GB",
      "stateCode": "WLS",
      "latitude": "51.53167000",
      "longitude": "-3.65278000"
   },
   {
      "name": "Cemaes Bay",
      "countryCode": "GB",
      "stateCode": "WLS",
      "latitude": "53.41211000",
      "longitude": "-4.45190000"
   },
   {
      "name": "Chepstow",
      "countryCode": "GB",
      "stateCode": "WLS",
      "latitude": "51.64087000",
      "longitude": "-2.67683000"
   },
   {
      "name": "Chirk",
      "countryCode": "GB",
      "stateCode": "WLS",
      "latitude": "52.93586000",
      "longitude": "-3.05738000"
   },
   {
      "name": "City and County of Swansea",
      "countryCode": "GB",
      "stateCode": "WLS",
      "latitude": "51.58333000",
      "longitude": "-4.00000000"
   },
   {
      "name": "Clydach",
      "countryCode": "GB",
      "stateCode": "WLS",
      "latitude": "51.68333000",
      "longitude": "-3.90000000"
   },
   {
      "name": "Coedpoeth",
      "countryCode": "GB",
      "stateCode": "WLS",
      "latitude": "53.05391000",
      "longitude": "-3.06234000"
   },
   {
      "name": "Coity",
      "countryCode": "GB",
      "stateCode": "WLS",
      "latitude": "51.52200000",
      "longitude": "-3.55531000"
   },
   {
      "name": "Colwyn Bay",
      "countryCode": "GB",
      "stateCode": "WLS",
      "latitude": "53.29483000",
      "longitude": "-3.72674000"
   },
   {
      "name": "Conwy",
      "countryCode": "GB",
      "stateCode": "WLS",
      "latitude": "53.08333000",
      "longitude": "-3.75000000"
   },
   {
      "name": "County of Ceredigion",
      "countryCode": "GB",
      "stateCode": "WLS",
      "latitude": "52.25000000",
      "longitude": "-4.00000000"
   },
   {
      "name": "County of Flintshire",
      "countryCode": "GB",
      "stateCode": "WLS",
      "latitude": "53.25000000",
      "longitude": "-3.16667000"
   },
   {
      "name": "Cowbridge",
      "countryCode": "GB",
      "stateCode": "WLS",
      "latitude": "51.46028000",
      "longitude": "-3.44167000"
   },
   {
      "name": "Criccieth",
      "countryCode": "GB",
      "stateCode": "WLS",
      "latitude": "52.92053000",
      "longitude": "-4.23460000"
   },
   {
      "name": "Crickhowell",
      "countryCode": "GB",
      "stateCode": "WLS",
      "latitude": "51.85992000",
      "longitude": "-3.13771000"
   },
   {
      "name": "Croeserw",
      "countryCode": "GB",
      "stateCode": "WLS",
      "latitude": "51.64472000",
      "longitude": "-3.64028000"
   },
   {
      "name": "Crofty",
      "countryCode": "GB",
      "stateCode": "WLS",
      "latitude": "51.63448000",
      "longitude": "-4.12937000"
   },
   {
      "name": "Cross Hands",
      "countryCode": "GB",
      "stateCode": "WLS",
      "latitude": "51.79306000",
      "longitude": "-4.08750000"
   },
   {
      "name": "Crumlin",
      "countryCode": "GB",
      "stateCode": "WLS",
      "latitude": "51.67778000",
      "longitude": "-3.13528000"
   },
   {
      "name": "Crymych",
      "countryCode": "GB",
      "stateCode": "WLS",
      "latitude": "51.97361000",
      "longitude": "-4.64722000"
   },
   {
      "name": "Crynant",
      "countryCode": "GB",
      "stateCode": "WLS",
      "latitude": "51.72889000",
      "longitude": "-3.74806000"
   },
   {
      "name": "Cwm",
      "countryCode": "GB",
      "stateCode": "WLS",
      "latitude": "51.74000000",
      "longitude": "-3.18028000"
   },
   {
      "name": "Cwmafan",
      "countryCode": "GB",
      "stateCode": "WLS",
      "latitude": "51.61671000",
      "longitude": "-3.76205000"
   },
   {
      "name": "Cwmbach",
      "countryCode": "GB",
      "stateCode": "WLS",
      "latitude": "51.70556000",
      "longitude": "-3.40944000"
   },
   {
      "name": "Cwmbran",
      "countryCode": "GB",
      "stateCode": "WLS",
      "latitude": "51.65446000",
      "longitude": "-3.02281000"
   },
   {
      "name": "Deeside",
      "countryCode": "GB",
      "stateCode": "WLS",
      "latitude": "53.20053000",
      "longitude": "-3.03841000"
   },
   {
      "name": "Deganwy",
      "countryCode": "GB",
      "stateCode": "WLS",
      "latitude": "53.30446000",
      "longitude": "-3.82735000"
   },
   {
      "name": "Deiniolen",
      "countryCode": "GB",
      "stateCode": "WLS",
      "latitude": "53.14819000",
      "longitude": "-4.13185000"
   },
   {
      "name": "Denbigh",
      "countryCode": "GB",
      "stateCode": "WLS",
      "latitude": "53.18333000",
      "longitude": "-3.41667000"
   },
   {
      "name": "Denbighshire",
      "countryCode": "GB",
      "stateCode": "WLS",
      "latitude": "53.08333000",
      "longitude": "-3.33333000"
   },
   {
      "name": "Deri",
      "countryCode": "GB",
      "stateCode": "WLS",
      "latitude": "51.70812000",
      "longitude": "-3.26312000"
   },
   {
      "name": "Dinas Powys",
      "countryCode": "GB",
      "stateCode": "WLS",
      "latitude": "51.43486000",
      "longitude": "-3.21398000"
   },
   {
      "name": "Dolgellau",
      "countryCode": "GB",
      "stateCode": "WLS",
      "latitude": "52.74222000",
      "longitude": "-3.88611000"
   },
   {
      "name": "Dyffryn Ardudwy",
      "countryCode": "GB",
      "stateCode": "WLS",
      "latitude": "52.77748000",
      "longitude": "-4.06468000"
   },
   {
      "name": "Dyserth",
      "countryCode": "GB",
      "stateCode": "WLS",
      "latitude": "53.30032000",
      "longitude": "-3.41262000"
   },
   {
      "name": "Ebbw Vale",
      "countryCode": "GB",
      "stateCode": "WLS",
      "latitude": "51.77714000",
      "longitude": "-3.20792000"
   },
   {
      "name": "Ferndale",
      "countryCode": "GB",
      "stateCode": "WLS",
      "latitude": "51.66056000",
      "longitude": "-3.44750000"
   },
   {
      "name": "Fishguard",
      "countryCode": "GB",
      "stateCode": "WLS",
      "latitude": "51.99376000",
      "longitude": "-4.97631000"
   },
   {
      "name": "Flint",
      "countryCode": "GB",
      "stateCode": "WLS",
      "latitude": "53.24488000",
      "longitude": "-3.13231000"
   },
   {
      "name": "Fochriw",
      "countryCode": "GB",
      "stateCode": "WLS",
      "latitude": "51.74003000",
      "longitude": "-3.29861000"
   },
   {
      "name": "Four Crosses",
      "countryCode": "GB",
      "stateCode": "WLS",
      "latitude": "52.75941000",
      "longitude": "-3.08106000"
   },
   {
      "name": "Gaerwen",
      "countryCode": "GB",
      "stateCode": "WLS",
      "latitude": "53.22112000",
      "longitude": "-4.27362000"
   },
   {
      "name": "Gelligaer",
      "countryCode": "GB",
      "stateCode": "WLS",
      "latitude": "51.66444000",
      "longitude": "-3.25611000"
   },
   {
      "name": "Gilfach Goch",
      "countryCode": "GB",
      "stateCode": "WLS",
      "latitude": "51.59213000",
      "longitude": "-3.47296000"
   },
   {
      "name": "Gilwern",
      "countryCode": "GB",
      "stateCode": "WLS",
      "latitude": "51.82475000",
      "longitude": "-3.09355000"
   },
   {
      "name": "Glanamman",
      "countryCode": "GB",
      "stateCode": "WLS",
      "latitude": "51.80000000",
      "longitude": "-3.93333000"
   },
   {
      "name": "Glandwr",
      "countryCode": "GB",
      "stateCode": "WLS",
      "latitude": "51.92833000",
      "longitude": "-4.63333000"
   },
   {
      "name": "Glyn-neath",
      "countryCode": "GB",
      "stateCode": "WLS",
      "latitude": "51.74750000",
      "longitude": "-3.61833000"
   },
   {
      "name": "Glyncorrwg",
      "countryCode": "GB",
      "stateCode": "WLS",
      "latitude": "51.67944000",
      "longitude": "-3.62806000"
   },
   {
      "name": "Goodwick",
      "countryCode": "GB",
      "stateCode": "WLS",
      "latitude": "52.00491000",
      "longitude": "-4.99511000"
   },
   {
      "name": "Gorseinon",
      "countryCode": "GB",
      "stateCode": "WLS",
      "latitude": "51.66931000",
      "longitude": "-4.04163000"
   },
   {
      "name": "Govilon",
      "countryCode": "GB",
      "stateCode": "WLS",
      "latitude": "51.81928000",
      "longitude": "-3.06295000"
   },
   {
      "name": "Greenfield",
      "countryCode": "GB",
      "stateCode": "WLS",
      "latitude": "53.28333000",
      "longitude": "-3.21667000"
   },
   {
      "name": "Gresford",
      "countryCode": "GB",
      "stateCode": "WLS",
      "latitude": "53.08539000",
      "longitude": "-2.97062000"
   },
   {
      "name": "Gronant",
      "countryCode": "GB",
      "stateCode": "WLS",
      "latitude": "53.33669000",
      "longitude": "-3.36031000"
   },
   {
      "name": "Grovesend",
      "countryCode": "GB",
      "stateCode": "WLS",
      "latitude": "51.68472000",
      "longitude": "-4.03833000"
   },
   {
      "name": "Guilsfield",
      "countryCode": "GB",
      "stateCode": "WLS",
      "latitude": "52.69634000",
      "longitude": "-3.15712000"
   },
   {
      "name": "Gwynedd",
      "countryCode": "GB",
      "stateCode": "WLS",
      "latitude": "52.83333000",
      "longitude": "-3.91667000"
   },
   {
      "name": "Harlech",
      "countryCode": "GB",
      "stateCode": "WLS",
      "latitude": "52.85941000",
      "longitude": "-4.10831000"
   },
   {
      "name": "Haverfordwest",
      "countryCode": "GB",
      "stateCode": "WLS",
      "latitude": "51.80169000",
      "longitude": "-4.96914000"
   },
   {
      "name": "Hawarden",
      "countryCode": "GB",
      "stateCode": "WLS",
      "latitude": "53.18478000",
      "longitude": "-3.02578000"
   },
   {
      "name": "Hay",
      "countryCode": "GB",
      "stateCode": "WLS",
      "latitude": "52.07049000",
      "longitude": "-3.12741000"
   },
   {
      "name": "Hengoed",
      "countryCode": "GB",
      "stateCode": "WLS",
      "latitude": "51.65083000",
      "longitude": "-3.23167000"
   },
   {
      "name": "Henllan",
      "countryCode": "GB",
      "stateCode": "WLS",
      "latitude": "53.20000000",
      "longitude": "-3.46667000"
   },
   {
      "name": "Hirwaun",
      "countryCode": "GB",
      "stateCode": "WLS",
      "latitude": "51.73917000",
      "longitude": "-3.51028000"
   },
   {
      "name": "Holyhead",
      "countryCode": "GB",
      "stateCode": "WLS",
      "latitude": "53.30621000",
      "longitude": "-4.63211000"
   },
   {
      "name": "Holywell",
      "countryCode": "GB",
      "stateCode": "WLS",
      "latitude": "53.27466000",
      "longitude": "-3.22895000"
   },
   {
      "name": "Hook",
      "countryCode": "GB",
      "stateCode": "WLS",
      "latitude": "51.76500000",
      "longitude": "-4.93167000"
   },
   {
      "name": "Hope",
      "countryCode": "GB",
      "stateCode": "WLS",
      "latitude": "53.11667000",
      "longitude": "-3.03333000"
   },
   {
      "name": "Hundleton",
      "countryCode": "GB",
      "stateCode": "WLS",
      "latitude": "51.66694000",
      "longitude": "-4.94917000"
   },
   {
      "name": "Johnston",
      "countryCode": "GB",
      "stateCode": "WLS",
      "latitude": "51.75556000",
      "longitude": "-4.99667000"
   },
   {
      "name": "Kidwelly",
      "countryCode": "GB",
      "stateCode": "WLS",
      "latitude": "51.73639000",
      "longitude": "-4.30333000"
   },
   {
      "name": "Kilgetty",
      "countryCode": "GB",
      "stateCode": "WLS",
      "latitude": "51.73203000",
      "longitude": "-4.71983000"
   },
   {
      "name": "Knighton",
      "countryCode": "GB",
      "stateCode": "WLS",
      "latitude": "52.34251000",
      "longitude": "-3.04708000"
   },
   {
      "name": "Lampeter",
      "countryCode": "GB",
      "stateCode": "WLS",
      "latitude": "52.11285000",
      "longitude": "-4.08039000"
   },
   {
      "name": "Leeswood",
      "countryCode": "GB",
      "stateCode": "WLS",
      "latitude": "53.13347000",
      "longitude": "-3.09466000"
   },
   {
      "name": "Letterston",
      "countryCode": "GB",
      "stateCode": "WLS",
      "latitude": "51.92757000",
      "longitude": "-4.99141000"
   },
   {
      "name": "Llanarth",
      "countryCode": "GB",
      "stateCode": "WLS",
      "latitude": "52.19424000",
      "longitude": "-4.30811000"
   },
   {
      "name": "Llanbedr",
      "countryCode": "GB",
      "stateCode": "WLS",
      "latitude": "52.81667000",
      "longitude": "-4.10000000"
   },
   {
      "name": "Llanberis",
      "countryCode": "GB",
      "stateCode": "WLS",
      "latitude": "53.11809000",
      "longitude": "-4.12923000"
   },
   {
      "name": "Llanbradach",
      "countryCode": "GB",
      "stateCode": "WLS",
      "latitude": "51.60639000",
      "longitude": "-3.23028000"
   },
   {
      "name": "Llandeilo",
      "countryCode": "GB",
      "stateCode": "WLS",
      "latitude": "51.88459000",
      "longitude": "-3.99154000"
   },
   {
      "name": "Llandovery",
      "countryCode": "GB",
      "stateCode": "WLS",
      "latitude": "51.99415000",
      "longitude": "-3.79637000"
   },
   {
      "name": "Llandrindod Wells",
      "countryCode": "GB",
      "stateCode": "WLS",
      "latitude": "52.24164000",
      "longitude": "-3.37868000"
   },
   {
      "name": "Llandudno",
      "countryCode": "GB",
      "stateCode": "WLS",
      "latitude": "53.32498000",
      "longitude": "-3.83148000"
   },
   {
      "name": "Llandybie",
      "countryCode": "GB",
      "stateCode": "WLS",
      "latitude": "51.82044000",
      "longitude": "-4.00710000"
   },
   {
      "name": "Llandysul",
      "countryCode": "GB",
      "stateCode": "WLS",
      "latitude": "52.04166000",
      "longitude": "-4.30909000"
   },
   {
      "name": "Llanelli",
      "countryCode": "GB",
      "stateCode": "WLS",
      "latitude": "51.68195000",
      "longitude": "-4.16191000"
   },
   {
      "name": "Llanerchymedd",
      "countryCode": "GB",
      "stateCode": "WLS",
      "latitude": "53.33055000",
      "longitude": "-4.37700000"
   },
   {
      "name": "Llanfair Caereinion",
      "countryCode": "GB",
      "stateCode": "WLS",
      "latitude": "52.64790000",
      "longitude": "-3.32668000"
   },
   {
      "name": "Llanfairfechan",
      "countryCode": "GB",
      "stateCode": "WLS",
      "latitude": "53.25779000",
      "longitude": "-3.97423000"
   },
   {
      "name": "Llanfairpwllgwyngyll",
      "countryCode": "GB",
      "stateCode": "WLS",
      "latitude": "53.22141000",
      "longitude": "-4.20329000"
   },
   {
      "name": "Llanfyllin",
      "countryCode": "GB",
      "stateCode": "WLS",
      "latitude": "52.76570000",
      "longitude": "-3.27187000"
   },
   {
      "name": "Llangefni",
      "countryCode": "GB",
      "stateCode": "WLS",
      "latitude": "53.25561000",
      "longitude": "-4.31063000"
   },
   {
      "name": "Llangoed",
      "countryCode": "GB",
      "stateCode": "WLS",
      "latitude": "53.29420000",
      "longitude": "-4.08772000"
   },
   {
      "name": "Llangollen",
      "countryCode": "GB",
      "stateCode": "WLS",
      "latitude": "52.96829000",
      "longitude": "-3.17127000"
   },
   {
      "name": "Llangwm",
      "countryCode": "GB",
      "stateCode": "WLS",
      "latitude": "51.74833000",
      "longitude": "-4.91361000"
   },
   {
      "name": "Llangybi",
      "countryCode": "GB",
      "stateCode": "WLS",
      "latitude": "51.66583000",
      "longitude": "-2.90806000"
   },
   {
      "name": "Llangynidr",
      "countryCode": "GB",
      "stateCode": "WLS",
      "latitude": "51.86730000",
      "longitude": "-3.22762000"
   },
   {
      "name": "Llanharan",
      "countryCode": "GB",
      "stateCode": "WLS",
      "latitude": "51.53805000",
      "longitude": "-3.43906000"
   },
   {
      "name": "Llanharry",
      "countryCode": "GB",
      "stateCode": "WLS",
      "latitude": "51.51422000",
      "longitude": "-3.43240000"
   },
   {
      "name": "Llanidloes",
      "countryCode": "GB",
      "stateCode": "WLS",
      "latitude": "52.44977000",
      "longitude": "-3.53997000"
   },
   {
      "name": "Llanilar",
      "countryCode": "GB",
      "stateCode": "WLS",
      "latitude": "52.35657000",
      "longitude": "-4.02574000"
   },
   {
      "name": "Llanrhaeadr-ym-Mochnant",
      "countryCode": "GB",
      "stateCode": "WLS",
      "latitude": "52.82507000",
      "longitude": "-3.30225000"
   },
   {
      "name": "Llanrug",
      "countryCode": "GB",
      "stateCode": "WLS",
      "latitude": "53.14788000",
      "longitude": "-4.19596000"
   },
   {
      "name": "Llanrwst",
      "countryCode": "GB",
      "stateCode": "WLS",
      "latitude": "53.14021000",
      "longitude": "-3.79527000"
   },
   {
      "name": "Llansantffraid Glan Conwy",
      "countryCode": "GB",
      "stateCode": "WLS",
      "latitude": "53.26667000",
      "longitude": "-3.80000000"
   },
   {
      "name": "Llansteffan",
      "countryCode": "GB",
      "stateCode": "WLS",
      "latitude": "51.77222000",
      "longitude": "-4.39139000"
   },
   {
      "name": "Llantrisant",
      "countryCode": "GB",
      "stateCode": "WLS",
      "latitude": "51.54028000",
      "longitude": "-3.37389000"
   },
   {
      "name": "Llantwit Fardre",
      "countryCode": "GB",
      "stateCode": "WLS",
      "latitude": "51.55460000",
      "longitude": "-3.33241000"
   },
   {
      "name": "Llantwit Major",
      "countryCode": "GB",
      "stateCode": "WLS",
      "latitude": "51.41070000",
      "longitude": "-3.48632000"
   },
   {
      "name": "Llwynypia",
      "countryCode": "GB",
      "stateCode": "WLS",
      "latitude": "51.63333000",
      "longitude": "-3.45000000"
   },
   {
      "name": "Machen",
      "countryCode": "GB",
      "stateCode": "WLS",
      "latitude": "51.59599000",
      "longitude": "-3.14190000"
   },
   {
      "name": "Machynlleth",
      "countryCode": "GB",
      "stateCode": "WLS",
      "latitude": "52.59097000",
      "longitude": "-3.85051000"
   },
   {
      "name": "Maesteg",
      "countryCode": "GB",
      "stateCode": "WLS",
      "latitude": "51.60926000",
      "longitude": "-3.65823000"
   },
   {
      "name": "Magor",
      "countryCode": "GB",
      "stateCode": "WLS",
      "latitude": "51.57944000",
      "longitude": "-2.83139000"
   },
   {
      "name": "Marchwiel",
      "countryCode": "GB",
      "stateCode": "WLS",
      "latitude": "53.02390000",
      "longitude": "-2.96106000"
   },
   {
      "name": "Marshfield",
      "countryCode": "GB",
      "stateCode": "WLS",
      "latitude": "51.53389000",
      "longitude": "-3.07306000"
   },
   {
      "name": "Menai Bridge",
      "countryCode": "GB",
      "stateCode": "WLS",
      "latitude": "53.22775000",
      "longitude": "-4.16926000"
   },
   {
      "name": "Merthyr Tydfil",
      "countryCode": "GB",
      "stateCode": "WLS",
      "latitude": "51.74794000",
      "longitude": "-3.37779000"
   },
   {
      "name": "Merthyr Tydfil County Borough",
      "countryCode": "GB",
      "stateCode": "WLS",
      "latitude": "51.75000000",
      "longitude": "-3.33333000"
   },
   {
      "name": "Milford Haven",
      "countryCode": "GB",
      "stateCode": "WLS",
      "latitude": "51.71278000",
      "longitude": "-5.03410000"
   },
   {
      "name": "Moelfre",
      "countryCode": "GB",
      "stateCode": "WLS",
      "latitude": "53.35228000",
      "longitude": "-4.23734000"
   },
   {
      "name": "Mold",
      "countryCode": "GB",
      "stateCode": "WLS",
      "latitude": "53.16674000",
      "longitude": "-3.14143000"
   },
   {
      "name": "Monmouth",
      "countryCode": "GB",
      "stateCode": "WLS",
      "latitude": "51.81265000",
      "longitude": "-2.71363000"
   },
   {
      "name": "Monmouthshire",
      "countryCode": "GB",
      "stateCode": "WLS",
      "latitude": "51.75000000",
      "longitude": "-2.83333000"
   },
   {
      "name": "Mostyn",
      "countryCode": "GB",
      "stateCode": "WLS",
      "latitude": "53.31271000",
      "longitude": "-3.26765000"
   },
   {
      "name": "Mountain Ash",
      "countryCode": "GB",
      "stateCode": "WLS",
      "latitude": "51.68361000",
      "longitude": "-3.38008000"
   },
   {
      "name": "Narberth",
      "countryCode": "GB",
      "stateCode": "WLS",
      "latitude": "51.79784000",
      "longitude": "-4.74275000"
   },
   {
      "name": "Neath",
      "countryCode": "GB",
      "stateCode": "WLS",
      "latitude": "51.66317000",
      "longitude": "-3.80443000"
   },
   {
      "name": "Neath Port Talbot",
      "countryCode": "GB",
      "stateCode": "WLS",
      "latitude": "51.66667000",
      "longitude": "-3.75000000"
   },
   {
      "name": "Nefyn",
      "countryCode": "GB",
      "stateCode": "WLS",
      "latitude": "52.93538000",
      "longitude": "-4.52250000"
   },
   {
      "name": "Nelson",
      "countryCode": "GB",
      "stateCode": "WLS",
      "latitude": "51.65333000",
      "longitude": "-3.28444000"
   },
   {
      "name": "New Quay",
      "countryCode": "GB",
      "stateCode": "WLS",
      "latitude": "52.21515000",
      "longitude": "-4.35887000"
   },
   {
      "name": "New Tredegar",
      "countryCode": "GB",
      "stateCode": "WLS",
      "latitude": "51.72051000",
      "longitude": "-3.24130000"
   },
   {
      "name": "Newbridge",
      "countryCode": "GB",
      "stateCode": "WLS",
      "latitude": "51.66667000",
      "longitude": "-3.13333000"
   },
   {
      "name": "Newcastle Emlyn",
      "countryCode": "GB",
      "stateCode": "WLS",
      "latitude": "52.04056000",
      "longitude": "-4.46670000"
   },
   {
      "name": "Newport",
      "countryCode": "GB",
      "stateCode": "WLS",
      "latitude": "51.58774000",
      "longitude": "-2.99835000"
   },
   {
      "name": "Newtown",
      "countryCode": "GB",
      "stateCode": "WLS",
      "latitude": "52.51667000",
      "longitude": "-3.30000000"
   },
   {
      "name": "Neyland",
      "countryCode": "GB",
      "stateCode": "WLS",
      "latitude": "51.71014000",
      "longitude": "-4.95155000"
   },
   {
      "name": "Northop",
      "countryCode": "GB",
      "stateCode": "WLS",
      "latitude": "53.20692000",
      "longitude": "-3.13277000"
   },
   {
      "name": "Ogmore Vale",
      "countryCode": "GB",
      "stateCode": "WLS",
      "latitude": "51.60230000",
      "longitude": "-3.54217000"
   },
   {
      "name": "Overton",
      "countryCode": "GB",
      "stateCode": "WLS",
      "latitude": "52.96667000",
      "longitude": "-2.93333000"
   },
   {
      "name": "Pembroke",
      "countryCode": "GB",
      "stateCode": "WLS",
      "latitude": "51.67464000",
      "longitude": "-4.91286000"
   },
   {
      "name": "Pembroke Dock",
      "countryCode": "GB",
      "stateCode": "WLS",
      "latitude": "51.69161000",
      "longitude": "-4.94036000"
   },
   {
      "name": "Pembrokeshire",
      "countryCode": "GB",
      "stateCode": "WLS",
      "latitude": "51.83333000",
      "longitude": "-4.91667000"
   },
   {
      "name": "Pen-clawdd",
      "countryCode": "GB",
      "stateCode": "WLS",
      "latitude": "51.64028000",
      "longitude": "-4.09917000"
   },
   {
      "name": "Penally",
      "countryCode": "GB",
      "stateCode": "WLS",
      "latitude": "51.65986000",
      "longitude": "-4.72399000"
   },
   {
      "name": "Penarth",
      "countryCode": "GB",
      "stateCode": "WLS",
      "latitude": "51.43860000",
      "longitude": "-3.17342000"
   },
   {
      "name": "Pencader",
      "countryCode": "GB",
      "stateCode": "WLS",
      "latitude": "52.00080000",
      "longitude": "-4.26575000"
   },
   {
      "name": "Pencoed",
      "countryCode": "GB",
      "stateCode": "WLS",
      "latitude": "51.52371000",
      "longitude": "-3.50016000"
   },
   {
      "name": "Penmaenmawr",
      "countryCode": "GB",
      "stateCode": "WLS",
      "latitude": "53.26667000",
      "longitude": "-3.93333000"
   },
   {
      "name": "Penparcau",
      "countryCode": "GB",
      "stateCode": "WLS",
      "latitude": "52.40333000",
      "longitude": "-4.07417000"
   },
   {
      "name": "Penrhyndeudraeth",
      "countryCode": "GB",
      "stateCode": "WLS",
      "latitude": "52.93333000",
      "longitude": "-4.06667000"
   },
   {
      "name": "Pentre",
      "countryCode": "GB",
      "stateCode": "WLS",
      "latitude": "51.65429000",
      "longitude": "-3.49133000"
   },
   {
      "name": "Pentyrch",
      "countryCode": "GB",
      "stateCode": "WLS",
      "latitude": "51.52889000",
      "longitude": "-3.29500000"
   },
   {
      "name": "Penyffordd",
      "countryCode": "GB",
      "stateCode": "WLS",
      "latitude": "53.14829000",
      "longitude": "-3.04584000"
   },
   {
      "name": "Penygroes",
      "countryCode": "GB",
      "stateCode": "WLS",
      "latitude": "53.05502000",
      "longitude": "-4.28535000"
   },
   {
      "name": "Pont Rhyd-y-cyff",
      "countryCode": "GB",
      "stateCode": "WLS",
      "latitude": "51.58694000",
      "longitude": "-3.63639000"
   },
   {
      "name": "Pontarddulais",
      "countryCode": "GB",
      "stateCode": "WLS",
      "latitude": "51.71423000",
      "longitude": "-4.03859000"
   },
   {
      "name": "Pontlliw",
      "countryCode": "GB",
      "stateCode": "WLS",
      "latitude": "51.69139000",
      "longitude": "-4.01056000"
   },
   {
      "name": "Pontyates",
      "countryCode": "GB",
      "stateCode": "WLS",
      "latitude": "51.75182000",
      "longitude": "-4.21718000"
   },
   {
      "name": "Pontyberem",
      "countryCode": "GB",
      "stateCode": "WLS",
      "latitude": "51.77826000",
      "longitude": "-4.16890000"
   },
   {
      "name": "Pontyclun",
      "countryCode": "GB",
      "stateCode": "WLS",
      "latitude": "51.52162000",
      "longitude": "-3.39145000"
   },
   {
      "name": "Pontycymer",
      "countryCode": "GB",
      "stateCode": "WLS",
      "latitude": "51.61118000",
      "longitude": "-3.58421000"
   },
   {
      "name": "Pontypool",
      "countryCode": "GB",
      "stateCode": "WLS",
      "latitude": "51.70111000",
      "longitude": "-3.04444000"
   },
   {
      "name": "Pontypridd",
      "countryCode": "GB",
      "stateCode": "WLS",
      "latitude": "51.60210000",
      "longitude": "-3.34211000"
   },
   {
      "name": "Port Talbot",
      "countryCode": "GB",
      "stateCode": "WLS",
      "latitude": "51.59241000",
      "longitude": "-3.78019000"
   },
   {
      "name": "Porthcawl",
      "countryCode": "GB",
      "stateCode": "WLS",
      "latitude": "51.47903000",
      "longitude": "-3.70362000"
   },
   {
      "name": "Porthmadog",
      "countryCode": "GB",
      "stateCode": "WLS",
      "latitude": "52.92924000",
      "longitude": "-4.13137000"
   },
   {
      "name": "Prestatyn",
      "countryCode": "GB",
      "stateCode": "WLS",
      "latitude": "53.33748000",
      "longitude": "-3.40776000"
   },
   {
      "name": "Presteigne",
      "countryCode": "GB",
      "stateCode": "WLS",
      "latitude": "52.27183000",
      "longitude": "-3.00579000"
   },
   {
      "name": "Price Town",
      "countryCode": "GB",
      "stateCode": "WLS",
      "latitude": "51.61832000",
      "longitude": "-3.53662000"
   },
   {
      "name": "Pwllheli",
      "countryCode": "GB",
      "stateCode": "WLS",
      "latitude": "52.88990000",
      "longitude": "-4.41451000"
   },
   {
      "name": "Pyle",
      "countryCode": "GB",
      "stateCode": "WLS",
      "latitude": "51.51667000",
      "longitude": "-3.70000000"
   },
   {
      "name": "Radyr",
      "countryCode": "GB",
      "stateCode": "WLS",
      "latitude": "51.51864000",
      "longitude": "-3.25829000"
   },
   {
      "name": "Raglan",
      "countryCode": "GB",
      "stateCode": "WLS",
      "latitude": "51.76500000",
      "longitude": "-2.85331000"
   },
   {
      "name": "Resolven",
      "countryCode": "GB",
      "stateCode": "WLS",
      "latitude": "51.71193000",
      "longitude": "-3.69745000"
   },
   {
      "name": "Rhayader",
      "countryCode": "GB",
      "stateCode": "WLS",
      "latitude": "52.30154000",
      "longitude": "-3.51146000"
   },
   {
      "name": "Rhondda",
      "countryCode": "GB",
      "stateCode": "WLS",
      "latitude": "51.65896000",
      "longitude": "-3.44885000"
   },
   {
      "name": "Rhondda Cynon Taf",
      "countryCode": "GB",
      "stateCode": "WLS",
      "latitude": "51.66667000",
      "longitude": "-3.50000000"
   },
   {
      "name": "Rhoose",
      "countryCode": "GB",
      "stateCode": "WLS",
      "latitude": "51.38818000",
      "longitude": "-3.35430000"
   },
   {
      "name": "Rhosllanerchrugog",
      "countryCode": "GB",
      "stateCode": "WLS",
      "latitude": "53.00974000",
      "longitude": "-3.05814000"
   },
   {
      "name": "Rhosneigr",
      "countryCode": "GB",
      "stateCode": "WLS",
      "latitude": "53.23186000",
      "longitude": "-4.51480000"
   },
   {
      "name": "Rhuddlan",
      "countryCode": "GB",
      "stateCode": "WLS",
      "latitude": "53.29203000",
      "longitude": "-3.46996000"
   },
   {
      "name": "Rhyl",
      "countryCode": "GB",
      "stateCode": "WLS",
      "latitude": "53.31929000",
      "longitude": "-3.49228000"
   },
   {
      "name": "Rhymney",
      "countryCode": "GB",
      "stateCode": "WLS",
      "latitude": "51.75998000",
      "longitude": "-3.28553000"
   },
   {
      "name": "Risca",
      "countryCode": "GB",
      "stateCode": "WLS",
      "latitude": "51.60799000",
      "longitude": "-3.10081000"
   },
   {
      "name": "Rogiet",
      "countryCode": "GB",
      "stateCode": "WLS",
      "latitude": "51.58854000",
      "longitude": "-2.77868000"
   },
   {
      "name": "Rossett",
      "countryCode": "GB",
      "stateCode": "WLS",
      "latitude": "53.10921000",
      "longitude": "-2.94478000"
   },
   {
      "name": "Ruabon",
      "countryCode": "GB",
      "stateCode": "WLS",
      "latitude": "52.98780000",
      "longitude": "-3.03883000"
   },
   {
      "name": "Ruthin",
      "countryCode": "GB",
      "stateCode": "WLS",
      "latitude": "53.11368000",
      "longitude": "-3.31782000"
   },
   {
      "name": "Saint Asaph",
      "countryCode": "GB",
      "stateCode": "WLS",
      "latitude": "53.25815000",
      "longitude": "-3.44524000"
   },
   {
      "name": "Saint Clears",
      "countryCode": "GB",
      "stateCode": "WLS",
      "latitude": "51.81989000",
      "longitude": "-4.49783000"
   },
   {
      "name": "Saint Davids",
      "countryCode": "GB",
      "stateCode": "WLS",
      "latitude": "51.88094000",
      "longitude": "-5.26554000"
   },
   {
      "name": "Saundersfoot",
      "countryCode": "GB",
      "stateCode": "WLS",
      "latitude": "51.70945000",
      "longitude": "-4.70215000"
   },
   {
      "name": "Seven Sisters",
      "countryCode": "GB",
      "stateCode": "WLS",
      "latitude": "51.76667000",
      "longitude": "-3.71667000"
   },
   {
      "name": "Sir Powys",
      "countryCode": "GB",
      "stateCode": "WLS",
      "latitude": "52.33333000",
      "longitude": "-3.41667000"
   },
   {
      "name": "Southgate",
      "countryCode": "GB",
      "stateCode": "WLS",
      "latitude": "51.56944000",
      "longitude": "-4.08972000"
   },
   {
      "name": "Spittal",
      "countryCode": "GB",
      "stateCode": "WLS",
      "latitude": "51.86889000",
      "longitude": "-4.94250000"
   },
   {
      "name": "Steynton",
      "countryCode": "GB",
      "stateCode": "WLS",
      "latitude": "51.72917000",
      "longitude": "-5.01722000"
   },
   {
      "name": "Swansea",
      "countryCode": "GB",
      "stateCode": "WLS",
      "latitude": "51.62079000",
      "longitude": "-3.94323000"
   },
   {
      "name": "Taibach",
      "countryCode": "GB",
      "stateCode": "WLS",
      "latitude": "51.58333000",
      "longitude": "-3.76667000"
   },
   {
      "name": "Tal-y-bont",
      "countryCode": "GB",
      "stateCode": "WLS",
      "latitude": "52.77471000",
      "longitude": "-4.09224000"
   },
   {
      "name": "Talgarth",
      "countryCode": "GB",
      "stateCode": "WLS",
      "latitude": "51.99588000",
      "longitude": "-3.23205000"
   },
   {
      "name": "Talysarn",
      "countryCode": "GB",
      "stateCode": "WLS",
      "latitude": "53.05365000",
      "longitude": "-4.25767000"
   },
   {
      "name": "Templeton",
      "countryCode": "GB",
      "stateCode": "WLS",
      "latitude": "51.77194000",
      "longitude": "-4.73778000"
   },
   {
      "name": "Tenby",
      "countryCode": "GB",
      "stateCode": "WLS",
      "latitude": "51.67279000",
      "longitude": "-4.70447000"
   },
   {
      "name": "Three Crosses",
      "countryCode": "GB",
      "stateCode": "WLS",
      "latitude": "51.62865000",
      "longitude": "-4.06263000"
   },
   {
      "name": "Tintern",
      "countryCode": "GB",
      "stateCode": "WLS",
      "latitude": "51.69677000",
      "longitude": "-2.68142000"
   },
   {
      "name": "Tonypandy",
      "countryCode": "GB",
      "stateCode": "WLS",
      "latitude": "51.62202000",
      "longitude": "-3.45544000"
   },
   {
      "name": "Tonyrefail",
      "countryCode": "GB",
      "stateCode": "WLS",
      "latitude": "51.58402000",
      "longitude": "-3.43041000"
   },
   {
      "name": "Torfaen County Borough",
      "countryCode": "GB",
      "stateCode": "WLS",
      "latitude": "51.70146000",
      "longitude": "-3.05136000"
   },
   {
      "name": "Trawsfynydd",
      "countryCode": "GB",
      "stateCode": "WLS",
      "latitude": "52.90212000",
      "longitude": "-3.92289000"
   },
   {
      "name": "Tredegar",
      "countryCode": "GB",
      "stateCode": "WLS",
      "latitude": "51.77251000",
      "longitude": "-3.24679000"
   },
   {
      "name": "Trefnant",
      "countryCode": "GB",
      "stateCode": "WLS",
      "latitude": "53.22526000",
      "longitude": "-3.42030000"
   },
   {
      "name": "Tregaron",
      "countryCode": "GB",
      "stateCode": "WLS",
      "latitude": "52.21950000",
      "longitude": "-3.93295000"
   },
   {
      "name": "Tregarth",
      "countryCode": "GB",
      "stateCode": "WLS",
      "latitude": "53.19012000",
      "longitude": "-4.08780000"
   },
   {
      "name": "Treharris",
      "countryCode": "GB",
      "stateCode": "WLS",
      "latitude": "51.66457000",
      "longitude": "-3.30725000"
   },
   {
      "name": "Treorchy",
      "countryCode": "GB",
      "stateCode": "WLS",
      "latitude": "51.65958000",
      "longitude": "-3.50587000"
   },
   {
      "name": "Treuddyn",
      "countryCode": "GB",
      "stateCode": "WLS",
      "latitude": "53.11480000",
      "longitude": "-3.12003000"
   },
   {
      "name": "Trimsaran",
      "countryCode": "GB",
      "stateCode": "WLS",
      "latitude": "51.71988000",
      "longitude": "-4.24168000"
   },
   {
      "name": "Tumble",
      "countryCode": "GB",
      "stateCode": "WLS",
      "latitude": "51.78361000",
      "longitude": "-4.10972000"
   },
   {
      "name": "Tycroes",
      "countryCode": "GB",
      "stateCode": "WLS",
      "latitude": "51.77806000",
      "longitude": "-4.02000000"
   },
   {
      "name": "Tywyn",
      "countryCode": "GB",
      "stateCode": "WLS",
      "latitude": "52.58578000",
      "longitude": "-4.09276000"
   },
   {
      "name": "Undy",
      "countryCode": "GB",
      "stateCode": "WLS",
      "latitude": "51.57526000",
      "longitude": "-2.81453000"
   },
   {
      "name": "Usk",
      "countryCode": "GB",
      "stateCode": "WLS",
      "latitude": "51.70347000",
      "longitude": "-2.90332000"
   },
   {
      "name": "Vale of Glamorgan",
      "countryCode": "GB",
      "stateCode": "WLS",
      "latitude": "51.41667000",
      "longitude": "-3.41667000"
   },
   {
      "name": "Valley",
      "countryCode": "GB",
      "stateCode": "WLS",
      "latitude": "53.28490000",
      "longitude": "-4.56644000"
   },
   {
      "name": "Victoria",
      "countryCode": "GB",
      "stateCode": "WLS",
      "latitude": "51.75000000",
      "longitude": "-3.20000000"
   },
   {
      "name": "Welshpool",
      "countryCode": "GB",
      "stateCode": "WLS",
      "latitude": "52.65973000",
      "longitude": "-3.14710000"
   },
   {
      "name": "Wenvoe",
      "countryCode": "GB",
      "stateCode": "WLS",
      "latitude": "51.44776000",
      "longitude": "-3.26369000"
   },
   {
      "name": "Whitland",
      "countryCode": "GB",
      "stateCode": "WLS",
      "latitude": "51.81889000",
      "longitude": "-4.61528000"
   },
   {
      "name": "Wick",
      "countryCode": "GB",
      "stateCode": "WLS",
      "latitude": "51.43944000",
      "longitude": "-3.54944000"
   },
   {
      "name": "Wrexham",
      "countryCode": "GB",
      "stateCode": "WLS",
      "latitude": "53.00000000",
      "longitude": "-3.00000000"
   },
   {
      "name": "Y Felinheli",
      "countryCode": "GB",
      "stateCode": "WLS",
      "latitude": "53.18737000",
      "longitude": "-4.20476000"
   },
   {
      "name": "Ynysybwl",
      "countryCode": "GB",
      "stateCode": "WLS",
      "latitude": "51.63922000",
      "longitude": "-3.36036000"
   },
   {
      "name": "Ystalyfera",
      "countryCode": "GB",
      "stateCode": "WLS",
      "latitude": "51.76716000",
      "longitude": "-3.78082000"
   }
]