[
   {
      "name": "Ahal Region",
      "isoCode": "A",
      "countryCode": "TM",
      "latitude": "38.63993980",
      "longitude": "59.47209040"
   },
   {
      "name": "Balkan Region",
      "isoCode": "B",
      "countryCode": "TM",
      "latitude": "41.81014720",
      "longitude": "21.09373110"
   },
   {
      "name": "Da≈üoguz Region",
      "isoCode": "D",
      "countryCode": "TM",
      "latitude": "41.83687370",
      "longitude": "59.96519040"
   },
   {
      "name": "Lebap Region",
      "isoCode": "L",
      "countryCode": "TM",
      "latitude": "38.12724620",
      "longitude": "64.71624150"
   },
   {
      "name": "Mary Region",
      "isoCode": "M",
      "countryCode": "TM",
      "latitude": "36.94816230",
      "longitude": "62.45041540"
   },
   {
      "name": "Ashgabat",
      "isoCode": "S",
      "countryCode": "TM",
      "latitude": "37.96007660",
      "longitude": "58.32606290"
   }
]