[
   {
      "name": "Champasak",
      "countryCode": "LA",
      "stateCode": "CH",
      "latitude": "14.89204000",
      "longitude": "105.87787000"
   },
   {
      "name": "Muang Bachiangchaleunsook",
      "countryCode": "LA",
      "stateCode": "CH",
      "latitude": "15.24426000",
      "longitude": "105.96716000"
   },
   {
      "name": "Muang Champasak",
      "countryCode": "LA",
      "stateCode": "CH",
      "latitude": "14.85704000",
      "longitude": "105.75334000"
   },
   {
      "name": "Muang Không",
      "countryCode": "LA",
      "stateCode": "CH",
      "latitude": "14.14696000",
      "longitude": "105.95938000"
   },
   {
      "name": "Muang Mounlapamôk",
      "countryCode": "LA",
      "stateCode": "CH",
      "latitude": "14.28922000",
      "longitude": "105.56832000"
   },
   {
      "name": "Muang Pakxong",
      "countryCode": "LA",
      "stateCode": "CH",
      "latitude": "15.09810000",
      "longitude": "106.43398000"
   },
   {
      "name": "Muang Pakxé",
      "countryCode": "LA",
      "stateCode": "CH",
      "latitude": "15.13139000",
      "longitude": "105.81612000"
   },
   {
      "name": "Muang Pathoumphon",
      "countryCode": "LA",
      "stateCode": "CH",
      "latitude": "14.68453000",
      "longitude": "106.06357000"
   },
   {
      "name": "Muang Phônthong",
      "countryCode": "LA",
      "stateCode": "CH",
      "latitude": "15.10669000",
      "longitude": "105.64890000"
   },
   {
      "name": "Muang Soukhouma",
      "countryCode": "LA",
      "stateCode": "CH",
      "latitude": "14.62560000",
      "longitude": "105.67520000"
   },
   {
      "name": "Muang Xanasômboun",
      "countryCode": "LA",
      "stateCode": "CH",
      "latitude": "15.34107000",
      "longitude": "105.73703000"
   },
   {
      "name": "Pakse",
      "countryCode": "LA",
      "stateCode": "CH",
      "latitude": "15.12022000",
      "longitude": "105.79898000"
   },
   {
      "name": "Pakxong",
      "countryCode": "LA",
      "stateCode": "CH",
      "latitude": "15.18154000",
      "longitude": "106.23038000"
   }
]