[
   {
      "name": "Amarpur",
      "countryCode": "IN",
      "stateCode": "BR",
      "latitude": "25.03967000",
      "longitude": "86.90247000"
   },
   {
      "name": "Araria",
      "countryCode": "IN",
      "stateCode": "BR",
      "latitude": "26.20000000",
      "longitude": "87.40000000"
   },
   {
      "name": "Arrah",
      "countryCode": "IN",
      "stateCode": "BR",
      "latitude": "25.55629000",
      "longitude": "84.66335000"
   },
   {
      "name": "Arwal",
      "countryCode": "IN",
      "stateCode": "BR",
      "latitude": "25.16158000",
      "longitude": "84.69040000"
   },
   {
      "name": "Asarganj",
      "countryCode": "IN",
      "stateCode": "BR",
      "latitude": "25.15046000",
      "longitude": "86.68639000"
   },
   {
      "name": "Aurangabad",
      "countryCode": "IN",
      "stateCode": "BR",
      "latitude": "24.75204000",
      "longitude": "84.37420000"
   },
   {
      "name": "Bagaha",
      "countryCode": "IN",
      "stateCode": "BR",
      "latitude": "27.09918000",
      "longitude": "84.09003000"
   },
   {
      "name": "Bahadurganj",
      "countryCode": "IN",
      "stateCode": "BR",
      "latitude": "26.26172000",
      "longitude": "87.82443000"
   },
   {
      "name": "Bairagnia",
      "countryCode": "IN",
      "stateCode": "BR",
      "latitude": "26.74063000",
      "longitude": "85.27323000"
   },
   {
      "name": "Baisi",
      "countryCode": "IN",
      "stateCode": "BR",
      "latitude": "25.86302000",
      "longitude": "87.74487000"
   },
   {
      "name": "Bakhtiyarpur",
      "countryCode": "IN",
      "stateCode": "BR",
      "latitude": "25.46179000",
      "longitude": "85.53179000"
   },
   {
      "name": "Bangaon",
      "countryCode": "IN",
      "stateCode": "BR",
      "latitude": "25.86728000",
      "longitude": "86.51152000"
   },
   {
      "name": "Banka",
      "countryCode": "IN",
      "stateCode": "BR",
      "latitude": "24.89214000",
      "longitude": "86.98425000"
   },
   {
      "name": "Banmankhi",
      "countryCode": "IN",
      "stateCode": "BR",
      "latitude": "25.88857000",
      "longitude": "87.19421000"
   },
   {
      "name": "Bar Bigha",
      "countryCode": "IN",
      "stateCode": "BR",
      "latitude": "25.21855000",
      "longitude": "85.73320000"
   },
   {
      "name": "Barauli",
      "countryCode": "IN",
      "stateCode": "BR",
      "latitude": "26.38109000",
      "longitude": "84.58648000"
   },
   {
      "name": "Barh",
      "countryCode": "IN",
      "stateCode": "BR",
      "latitude": "25.48339000",
      "longitude": "85.70928000"
   },
   {
      "name": "Barhiya",
      "countryCode": "IN",
      "stateCode": "BR",
      "latitude": "25.28814000",
      "longitude": "86.02055000"
   },
   {
      "name": "Bariarpur",
      "countryCode": "IN",
      "stateCode": "BR",
      "latitude": "25.28791000",
      "longitude": "86.57643000"
   },
   {
      "name": "Baruni",
      "countryCode": "IN",
      "stateCode": "BR",
      "latitude": "25.47509000",
      "longitude": "85.96813000"
   },
   {
      "name": "Begusarai",
      "countryCode": "IN",
      "stateCode": "BR",
      "latitude": "25.41853000",
      "longitude": "86.13389000"
   },
   {
      "name": "Belsand",
      "countryCode": "IN",
      "stateCode": "BR",
      "latitude": "26.44365000",
      "longitude": "85.40076000"
   },
   {
      "name": "Bettiah",
      "countryCode": "IN",
      "stateCode": "BR",
      "latitude": "26.80229000",
      "longitude": "84.50311000"
   },
   {
      "name": "Bhabhua",
      "countryCode": "IN",
      "stateCode": "BR",
      "latitude": "25.04049000",
      "longitude": "83.60749000"
   },
   {
      "name": "Bhagalpur",
      "countryCode": "IN",
      "stateCode": "BR",
      "latitude": "25.29023000",
      "longitude": "87.06665000"
   },
   {
      "name": "Bhagirathpur",
      "countryCode": "IN",
      "stateCode": "BR",
      "latitude": "26.26950000",
      "longitude": "86.06346000"
   },
   {
      "name": "Bhawanipur",
      "countryCode": "IN",
      "stateCode": "BR",
      "latitude": "26.45352000",
      "longitude": "87.02744000"
   },
   {
      "name": "Bhojpur",
      "countryCode": "IN",
      "stateCode": "BR",
      "latitude": "25.30886000",
      "longitude": "84.44504000"
   },
   {
      "name": "Bihar Sharif",
      "countryCode": "IN",
      "stateCode": "BR",
      "latitude": "25.20084000",
      "longitude": "85.52389000"
   },
   {
      "name": "Bihariganj",
      "countryCode": "IN",
      "stateCode": "BR",
      "latitude": "25.73415000",
      "longitude": "86.98837000"
   },
   {
      "name": "Bikramganj",
      "countryCode": "IN",
      "stateCode": "BR",
      "latitude": "25.21073000",
      "longitude": "84.25508000"
   },
   {
      "name": "Birpur",
      "countryCode": "IN",
      "stateCode": "BR",
      "latitude": "26.50823000",
      "longitude": "87.01194000"
   },
   {
      "name": "Buddh Gaya",
      "countryCode": "IN",
      "stateCode": "BR",
      "latitude": "24.69808000",
      "longitude": "84.98690000"
   },
   {
      "name": "Buxar",
      "countryCode": "IN",
      "stateCode": "BR",
      "latitude": "25.50000000",
      "longitude": "84.10000000"
   },
   {
      "name": "Chakia",
      "countryCode": "IN",
      "stateCode": "BR",
      "latitude": "26.41598000",
      "longitude": "85.04665000"
   },
   {
      "name": "Chapra",
      "countryCode": "IN",
      "stateCode": "BR",
      "latitude": "25.78031000",
      "longitude": "84.74709000"
   },
   {
      "name": "Chhatapur",
      "countryCode": "IN",
      "stateCode": "BR",
      "latitude": "26.21965000",
      "longitude": "87.00479000"
   },
   {
      "name": "Colgong",
      "countryCode": "IN",
      "stateCode": "BR",
      "latitude": "25.26328000",
      "longitude": "87.23264000"
   },
   {
      "name": "Dalsingh Sarai",
      "countryCode": "IN",
      "stateCode": "BR",
      "latitude": "25.66795000",
      "longitude": "85.83636000"
   },
   {
      "name": "Darbhanga",
      "countryCode": "IN",
      "stateCode": "BR",
      "latitude": "26.00000000",
      "longitude": "86.00000000"
   },
   {
      "name": "Daudnagar",
      "countryCode": "IN",
      "stateCode": "BR",
      "latitude": "25.03473000",
      "longitude": "84.40095000"
   },
   {
      "name": "Dehri",
      "countryCode": "IN",
      "stateCode": "BR",
      "latitude": "24.90247000",
      "longitude": "84.18217000"
   },
   {
      "name": "Dhaka",
      "countryCode": "IN",
      "stateCode": "BR",
      "latitude": "26.67479000",
      "longitude": "85.16698000"
   },
   {
      "name": "Dighwara",
      "countryCode": "IN",
      "stateCode": "BR",
      "latitude": "25.74434000",
      "longitude": "85.01003000"
   },
   {
      "name": "Dinapore",
      "countryCode": "IN",
      "stateCode": "BR",
      "latitude": "25.63705000",
      "longitude": "85.04794000"
   },
   {
      "name": "Dumra",
      "countryCode": "IN",
      "stateCode": "BR",
      "latitude": "26.56708000",
      "longitude": "85.52040000"
   },
   {
      "name": "Dumraon",
      "countryCode": "IN",
      "stateCode": "BR",
      "latitude": "25.55265000",
      "longitude": "84.15149000"
   },
   {
      "name": "Fatwa",
      "countryCode": "IN",
      "stateCode": "BR",
      "latitude": "25.50958000",
      "longitude": "85.30504000"
   },
   {
      "name": "Forbesganj",
      "countryCode": "IN",
      "stateCode": "BR",
      "latitude": "26.30253000",
      "longitude": "87.26556000"
   },
   {
      "name": "Gaya",
      "countryCode": "IN",
      "stateCode": "BR",
      "latitude": "24.79686000",
      "longitude": "85.00385000"
   },
   {
      "name": "Ghoga",
      "countryCode": "IN",
      "stateCode": "BR",
      "latitude": "25.21738000",
      "longitude": "87.15710000"
   },
   {
      "name": "Gopalganj",
      "countryCode": "IN",
      "stateCode": "BR",
      "latitude": "26.50000000",
      "longitude": "84.33333000"
   },
   {
      "name": "Hajipur",
      "countryCode": "IN",
      "stateCode": "BR",
      "latitude": "25.68544000",
      "longitude": "85.20981000"
   },
   {
      "name": "Hilsa",
      "countryCode": "IN",
      "stateCode": "BR",
      "latitude": "25.31642000",
      "longitude": "85.28234000"
   },
   {
      "name": "Hisua",
      "countryCode": "IN",
      "stateCode": "BR",
      "latitude": "24.83360000",
      "longitude": "85.41729000"
   },
   {
      "name": "Islampur",
      "countryCode": "IN",
      "stateCode": "BR",
      "latitude": "25.14075000",
      "longitude": "85.20587000"
   },
   {
      "name": "Jagdispur",
      "countryCode": "IN",
      "stateCode": "BR",
      "latitude": "25.46811000",
      "longitude": "84.41939000"
   },
   {
      "name": "Jahanabad",
      "countryCode": "IN",
      "stateCode": "BR",
      "latitude": "25.21368000",
      "longitude": "84.98710000"
   },
   {
      "name": "Jamalpur",
      "countryCode": "IN",
      "stateCode": "BR",
      "latitude": "25.31258000",
      "longitude": "86.48888000"
   },
   {
      "name": "Jamui",
      "countryCode": "IN",
      "stateCode": "BR",
      "latitude": "24.92082000",
      "longitude": "86.17538000"
   },
   {
      "name": "Jaynagar",
      "countryCode": "IN",
      "stateCode": "BR",
      "latitude": "26.59048000",
      "longitude": "86.13791000"
   },
   {
      "name": "Jehanabad",
      "countryCode": "IN",
      "stateCode": "BR",
      "latitude": "25.20701000",
      "longitude": "84.99573000"
   },
   {
      "name": "Jha-Jha",
      "countryCode": "IN",
      "stateCode": "BR",
      "latitude": "24.77107000",
      "longitude": "86.37888000"
   },
   {
      "name": "Jhanjharpur",
      "countryCode": "IN",
      "stateCode": "BR",
      "latitude": "26.26467000",
      "longitude": "86.27993000"
   },
   {
      "name": "Jogbani",
      "countryCode": "IN",
      "stateCode": "BR",
      "latitude": "26.39905000",
      "longitude": "87.26525000"
   },
   {
      "name": "Kaimur District",
      "countryCode": "IN",
      "stateCode": "BR",
      "latitude": "25.05077000",
      "longitude": "83.58261000"
   },
   {
      "name": "Kasba",
      "countryCode": "IN",
      "stateCode": "BR",
      "latitude": "25.85643000",
      "longitude": "87.53836000"
   },
   {
      "name": "Katihar",
      "countryCode": "IN",
      "stateCode": "BR",
      "latitude": "25.50000000",
      "longitude": "87.60000000"
   },
   {
      "name": "Khagaria",
      "countryCode": "IN",
      "stateCode": "BR",
      "latitude": "25.50220000",
      "longitude": "86.46708000"
   },
   {
      "name": "Khagaul",
      "countryCode": "IN",
      "stateCode": "BR",
      "latitude": "25.57898000",
      "longitude": "85.04564000"
   },
   {
      "name": "Kharagpur",
      "countryCode": "IN",
      "stateCode": "BR",
      "latitude": "25.12446000",
      "longitude": "86.55578000"
   },
   {
      "name": "Khusropur",
      "countryCode": "IN",
      "stateCode": "BR",
      "latitude": "25.48174000",
      "longitude": "85.38492000"
   },
   {
      "name": "Kishanganj",
      "countryCode": "IN",
      "stateCode": "BR",
      "latitude": "26.30000000",
      "longitude": "88.00000000"
   },
   {
      "name": "Koath",
      "countryCode": "IN",
      "stateCode": "BR",
      "latitude": "25.32643000",
      "longitude": "84.25983000"
   },
   {
      "name": "Koelwar",
      "countryCode": "IN",
      "stateCode": "BR",
      "latitude": "25.58055000",
      "longitude": "84.79751000"
   },
   {
      "name": "Lakhisarai",
      "countryCode": "IN",
      "stateCode": "BR",
      "latitude": "25.20000000",
      "longitude": "86.20000000"
   },
   {
      "name": "Lalganj",
      "countryCode": "IN",
      "stateCode": "BR",
      "latitude": "25.86894000",
      "longitude": "85.17394000"
   },
   {
      "name": "Luckeesarai",
      "countryCode": "IN",
      "stateCode": "BR",
      "latitude": "25.17650000",
      "longitude": "86.09470000"
   },
   {
      "name": "Madhepura",
      "countryCode": "IN",
      "stateCode": "BR",
      "latitude": "25.80000000",
      "longitude": "87.00000000"
   },
   {
      "name": "Madhipura",
      "countryCode": "IN",
      "stateCode": "BR",
      "latitude": "25.92127000",
      "longitude": "86.79271000"
   },
   {
      "name": "Madhubani",
      "countryCode": "IN",
      "stateCode": "BR",
      "latitude": "26.35367000",
      "longitude": "86.07169000"
   },
   {
      "name": "Maharajgani",
      "countryCode": "IN",
      "stateCode": "BR",
      "latitude": "26.11017000",
      "longitude": "84.50365000"
   },
   {
      "name": "Mairwa",
      "countryCode": "IN",
      "stateCode": "BR",
      "latitude": "26.23218000",
      "longitude": "84.16349000"
   },
   {
      "name": "Maner",
      "countryCode": "IN",
      "stateCode": "BR",
      "latitude": "25.64602000",
      "longitude": "84.87291000"
   },
   {
      "name": "Manihari",
      "countryCode": "IN",
      "stateCode": "BR",
      "latitude": "25.33891000",
      "longitude": "87.61998000"
   },
   {
      "name": "Marhaura",
      "countryCode": "IN",
      "stateCode": "BR",
      "latitude": "25.97349000",
      "longitude": "84.86796000"
   },
   {
      "name": "Masaurhi Buzurg",
      "countryCode": "IN",
      "stateCode": "BR",
      "latitude": "25.35417000",
      "longitude": "85.03195000"
   },
   {
      "name": "Mohiuddinnagar",
      "countryCode": "IN",
      "stateCode": "BR",
      "latitude": "25.57374000",
      "longitude": "85.66944000"
   },
   {
      "name": "Mokameh",
      "countryCode": "IN",
      "stateCode": "BR",
      "latitude": "25.39662000",
      "longitude": "85.92190000"
   },
   {
      "name": "Monghyr",
      "countryCode": "IN",
      "stateCode": "BR",
      "latitude": "25.37459000",
      "longitude": "86.47455000"
   },
   {
      "name": "Mothihari",
      "countryCode": "IN",
      "stateCode": "BR",
      "latitude": "26.64862000",
      "longitude": "84.91656000"
   },
   {
      "name": "Munger",
      "countryCode": "IN",
      "stateCode": "BR",
      "latitude": "25.36099000",
      "longitude": "86.46515000"
   },
   {
      "name": "Murliganj",
      "countryCode": "IN",
      "stateCode": "BR",
      "latitude": "25.89690000",
      "longitude": "86.99577000"
   },
   {
      "name": "Muzaffarpur",
      "countryCode": "IN",
      "stateCode": "BR",
      "latitude": "26.16667000",
      "longitude": "85.41667000"
   },
   {
      "name": "Nabinagar",
      "countryCode": "IN",
      "stateCode": "BR",
      "latitude": "24.60681000",
      "longitude": "84.12624000"
   },
   {
      "name": "Nalanda",
      "countryCode": "IN",
      "stateCode": "BR",
      "latitude": "25.25000000",
      "longitude": "85.58333000"
   },
   {
      "name": "Nasriganj",
      "countryCode": "IN",
      "stateCode": "BR",
      "latitude": "25.05140000",
      "longitude": "84.32839000"
   },
   {
      "name": "Naugachhia",
      "countryCode": "IN",
      "stateCode": "BR",
      "latitude": "25.38807000",
      "longitude": "87.09906000"
   },
   {
      "name": "Nawada",
      "countryCode": "IN",
      "stateCode": "BR",
      "latitude": "24.75000000",
      "longitude": "85.50000000"
   },
   {
      "name": "Nirmali",
      "countryCode": "IN",
      "stateCode": "BR",
      "latitude": "26.31397000",
      "longitude": "86.58537000"
   },
   {
      "name": "Pashchim Champaran",
      "countryCode": "IN",
      "stateCode": "BR",
      "latitude": "27.00000000",
      "longitude": "84.50000000"
   },
   {
      "name": "Patna",
      "countryCode": "IN",
      "stateCode": "BR",
      "latitude": "25.41667000",
      "longitude": "85.16667000"
   },
   {
      "name": "Piro",
      "countryCode": "IN",
      "stateCode": "BR",
      "latitude": "25.33218000",
      "longitude": "84.40454000"
   },
   {
      "name": "Pupri",
      "countryCode": "IN",
      "stateCode": "BR",
      "latitude": "26.47079000",
      "longitude": "85.70311000"
   },
   {
      "name": "Purba Champaran",
      "countryCode": "IN",
      "stateCode": "BR",
      "latitude": "26.58333000",
      "longitude": "84.83333000"
   },
   {
      "name": "Purnia",
      "countryCode": "IN",
      "stateCode": "BR",
      "latitude": "25.81614000",
      "longitude": "87.40708000"
   },
   {
      "name": "Rafiganj",
      "countryCode": "IN",
      "stateCode": "BR",
      "latitude": "24.81757000",
      "longitude": "84.63445000"
   },
   {
      "name": "Raghunathpur",
      "countryCode": "IN",
      "stateCode": "BR",
      "latitude": "25.64492000",
      "longitude": "87.91762000"
   },
   {
      "name": "Rajgir",
      "countryCode": "IN",
      "stateCode": "BR",
      "latitude": "25.02828000",
      "longitude": "85.42079000"
   },
   {
      "name": "Ramnagar",
      "countryCode": "IN",
      "stateCode": "BR",
      "latitude": "27.16371000",
      "longitude": "84.32342000"
   },
   {
      "name": "Raxaul",
      "countryCode": "IN",
      "stateCode": "BR",
      "latitude": "26.97982000",
      "longitude": "84.85065000"
   },
   {
      "name": "Revelganj",
      "countryCode": "IN",
      "stateCode": "BR",
      "latitude": "25.78976000",
      "longitude": "84.63596000"
   },
   {
      "name": "Rohtas",
      "countryCode": "IN",
      "stateCode": "BR",
      "latitude": "24.97941000",
      "longitude": "84.02774000"
   },
   {
      "name": "Rusera",
      "countryCode": "IN",
      "stateCode": "BR",
      "latitude": "25.75355000",
      "longitude": "86.02597000"
   },
   {
      "name": "Sagauli",
      "countryCode": "IN",
      "stateCode": "BR",
      "latitude": "26.76390000",
      "longitude": "84.74341000"
   },
   {
      "name": "Saharsa",
      "countryCode": "IN",
      "stateCode": "BR",
      "latitude": "25.87498000",
      "longitude": "86.59611000"
   },
   {
      "name": "Samastipur",
      "countryCode": "IN",
      "stateCode": "BR",
      "latitude": "25.75000000",
      "longitude": "85.91667000"
   },
   {
      "name": "Saran",
      "countryCode": "IN",
      "stateCode": "BR",
      "latitude": "25.91667000",
      "longitude": "84.75000000"
   },
   {
      "name": "Shahbazpur",
      "countryCode": "IN",
      "stateCode": "BR",
      "latitude": "26.30511000",
      "longitude": "87.28865000"
   },
   {
      "name": "Shahpur",
      "countryCode": "IN",
      "stateCode": "BR",
      "latitude": "25.60293000",
      "longitude": "84.40412000"
   },
   {
      "name": "Sheikhpura",
      "countryCode": "IN",
      "stateCode": "BR",
      "latitude": "25.13073000",
      "longitude": "85.78176000"
   },
   {
      "name": "Sheohar",
      "countryCode": "IN",
      "stateCode": "BR",
      "latitude": "26.50000000",
      "longitude": "85.30000000"
   },
   {
      "name": "Sherghati",
      "countryCode": "IN",
      "stateCode": "BR",
      "latitude": "24.55950000",
      "longitude": "84.79162000"
   },
   {
      "name": "Silao",
      "countryCode": "IN",
      "stateCode": "BR",
      "latitude": "25.08358000",
      "longitude": "85.42804000"
   },
   {
      "name": "Sitamarhi",
      "countryCode": "IN",
      "stateCode": "BR",
      "latitude": "26.66667000",
      "longitude": "85.50000000"
   },
   {
      "name": "Siwan",
      "countryCode": "IN",
      "stateCode": "BR",
      "latitude": "26.22096000",
      "longitude": "84.35609000"
   },
   {
      "name": "Supaul",
      "countryCode": "IN",
      "stateCode": "BR",
      "latitude": "26.25000000",
      "longitude": "86.80000000"
   },
   {
      "name": "Teghra",
      "countryCode": "IN",
      "stateCode": "BR",
      "latitude": "25.49043000",
      "longitude": "85.94001000"
   },
   {
      "name": "Tekari",
      "countryCode": "IN",
      "stateCode": "BR",
      "latitude": "24.94253000",
      "longitude": "84.84265000"
   },
   {
      "name": "Thakurganj",
      "countryCode": "IN",
      "stateCode": "BR",
      "latitude": "26.42742000",
      "longitude": "88.13112000"
   },
   {
      "name": "Vaishali",
      "countryCode": "IN",
      "stateCode": "BR",
      "latitude": "25.75000000",
      "longitude": "85.41667000"
   },
   {
      "name": "Waris Aliganj",
      "countryCode": "IN",
      "stateCode": "BR",
      "latitude": "25.01720000",
      "longitude": "85.64047000"
   }
]