[
   {
      "name": "Amphoe Ban Na",
      "countryCode": "TH",
      "stateCode": "26",
      "latitude": "14.26799000",
      "longitude": "101.06445000"
   },
   {
      "name": "Amphoe Mueang Nakhon Nayok",
      "countryCode": "TH",
      "stateCode": "26",
      "latitude": "14.27730000",
      "longitude": "101.23379000"
   },
   {
      "name": "Amphoe Ongkharak",
      "countryCode": "TH",
      "stateCode": "26",
      "latitude": "14.07554000",
      "longitude": "101.00891000"
   },
   {
      "name": "Amphoe Pak Phli",
      "countryCode": "TH",
      "stateCode": "26",
      "latitude": "14.22499000",
      "longitude": "101.34482000"
   },
   {
      "name": "Nakhon Nayok",
      "countryCode": "TH",
      "stateCode": "26",
      "latitude": "14.20463000",
      "longitude": "101.21295000"
   }
]