[
   {
      "name": "Anina",
      "countryCode": "RO",
      "stateCode": "CS",
      "latitude": "45.07944000",
      "longitude": "21.85694000"
   },
   {
      "name": "Armeniş",
      "countryCode": "RO",
      "stateCode": "CS",
      "latitude": "45.20000000",
      "longitude": "22.31667000"
   },
   {
      "name": "Berlişte",
      "countryCode": "RO",
      "stateCode": "CS",
      "latitude": "44.98667000",
      "longitude": "21.46306000"
   },
   {
      "name": "Berzasca",
      "countryCode": "RO",
      "stateCode": "CS",
      "latitude": "44.64712000",
      "longitude": "21.95428000"
   },
   {
      "name": "Berzovia",
      "countryCode": "RO",
      "stateCode": "CS",
      "latitude": "45.42611000",
      "longitude": "21.62806000"
   },
   {
      "name": "Bocşa",
      "countryCode": "RO",
      "stateCode": "CS",
      "latitude": "45.37333000",
      "longitude": "21.70917000"
   },
   {
      "name": "Bolvașnița",
      "countryCode": "RO",
      "stateCode": "CS",
      "latitude": "45.34558000",
      "longitude": "22.31012000"
   },
   {
      "name": "Borlova",
      "countryCode": "RO",
      "stateCode": "CS",
      "latitude": "45.36738000",
      "longitude": "22.35200000"
   },
   {
      "name": "Bozovici",
      "countryCode": "RO",
      "stateCode": "CS",
      "latitude": "44.93889000",
      "longitude": "22.00167000"
   },
   {
      "name": "Brebu",
      "countryCode": "RO",
      "stateCode": "CS",
      "latitude": "45.42028000",
      "longitude": "21.99250000"
   },
   {
      "name": "Brebu Nou",
      "countryCode": "RO",
      "stateCode": "CS",
      "latitude": "45.23333000",
      "longitude": "22.13333000"
   },
   {
      "name": "Buchin",
      "countryCode": "RO",
      "stateCode": "CS",
      "latitude": "45.36667000",
      "longitude": "22.25000000"
   },
   {
      "name": "Bucova",
      "countryCode": "RO",
      "stateCode": "CS",
      "latitude": "45.50906000",
      "longitude": "22.63731000"
   },
   {
      "name": "Bucoşniţa",
      "countryCode": "RO",
      "stateCode": "CS",
      "latitude": "45.30000000",
      "longitude": "22.26667000"
   },
   {
      "name": "Băile Herculane",
      "countryCode": "RO",
      "stateCode": "CS",
      "latitude": "44.87972000",
      "longitude": "22.41250000"
   },
   {
      "name": "Bănia",
      "countryCode": "RO",
      "stateCode": "CS",
      "latitude": "44.89583000",
      "longitude": "22.04472000"
   },
   {
      "name": "Băuţar",
      "countryCode": "RO",
      "stateCode": "CS",
      "latitude": "45.51667000",
      "longitude": "22.56667000"
   },
   {
      "name": "Caransebeş",
      "countryCode": "RO",
      "stateCode": "CS",
      "latitude": "45.41667000",
      "longitude": "22.21667000"
   },
   {
      "name": "Caraşova",
      "countryCode": "RO",
      "stateCode": "CS",
      "latitude": "45.19861000",
      "longitude": "21.87000000"
   },
   {
      "name": "Ciclova-Română",
      "countryCode": "RO",
      "stateCode": "CS",
      "latitude": "45.01361000",
      "longitude": "21.71917000"
   },
   {
      "name": "Ciuchici",
      "countryCode": "RO",
      "stateCode": "CS",
      "latitude": "44.94139000",
      "longitude": "21.61000000"
   },
   {
      "name": "Ciudanoviţa",
      "countryCode": "RO",
      "stateCode": "CS",
      "latitude": "45.14472000",
      "longitude": "21.79778000"
   },
   {
      "name": "Clocotici",
      "countryCode": "RO",
      "stateCode": "CS",
      "latitude": "45.24495000",
      "longitude": "21.83467000"
   },
   {
      "name": "Comuna Armeniş",
      "countryCode": "RO",
      "stateCode": "CS",
      "latitude": "45.21901000",
      "longitude": "22.35198000"
   },
   {
      "name": "Comuna Berlişte",
      "countryCode": "RO",
      "stateCode": "CS",
      "latitude": "44.99004000",
      "longitude": "21.46920000"
   },
   {
      "name": "Comuna Berzasca",
      "countryCode": "RO",
      "stateCode": "CS",
      "latitude": "44.64845000",
      "longitude": "21.98580000"
   },
   {
      "name": "Comuna Berzovia",
      "countryCode": "RO",
      "stateCode": "CS",
      "latitude": "45.40777000",
      "longitude": "21.60233000"
   },
   {
      "name": "Comuna Bolvaşniţa",
      "countryCode": "RO",
      "stateCode": "CS",
      "latitude": "45.33634000",
      "longitude": "22.33110000"
   },
   {
      "name": "Comuna Bozovici",
      "countryCode": "RO",
      "stateCode": "CS",
      "latitude": "44.97815000",
      "longitude": "21.97965000"
   },
   {
      "name": "Comuna Brebu",
      "countryCode": "RO",
      "stateCode": "CS",
      "latitude": "45.40358000",
      "longitude": "22.01842000"
   },
   {
      "name": "Comuna Brebu Nou",
      "countryCode": "RO",
      "stateCode": "CS",
      "latitude": "45.23062000",
      "longitude": "22.11809000"
   },
   {
      "name": "Comuna Buchin",
      "countryCode": "RO",
      "stateCode": "CS",
      "latitude": "45.34756000",
      "longitude": "22.20877000"
   },
   {
      "name": "Comuna Bucoşniţa",
      "countryCode": "RO",
      "stateCode": "CS",
      "latitude": "45.30652000",
      "longitude": "22.26856000"
   },
   {
      "name": "Comuna Bănia",
      "countryCode": "RO",
      "stateCode": "CS",
      "latitude": "44.87200000",
      "longitude": "22.02747000"
   },
   {
      "name": "Comuna Băuţar",
      "countryCode": "RO",
      "stateCode": "CS",
      "latitude": "45.53016000",
      "longitude": "22.57848000"
   },
   {
      "name": "Comuna Caraşova",
      "countryCode": "RO",
      "stateCode": "CS",
      "latitude": "45.21545000",
      "longitude": "21.88149000"
   },
   {
      "name": "Comuna Ciclova Română",
      "countryCode": "RO",
      "stateCode": "CS",
      "latitude": "44.97477000",
      "longitude": "21.71425000"
   },
   {
      "name": "Comuna Ciuchici",
      "countryCode": "RO",
      "stateCode": "CS",
      "latitude": "44.93914000",
      "longitude": "21.61419000"
   },
   {
      "name": "Comuna Ciudanoviţa",
      "countryCode": "RO",
      "stateCode": "CS",
      "latitude": "45.15308000",
      "longitude": "21.75402000"
   },
   {
      "name": "Comuna Constantin Daicoviciu",
      "countryCode": "RO",
      "stateCode": "CS",
      "latitude": "45.51458000",
      "longitude": "22.16374000"
   },
   {
      "name": "Comuna Copăcele",
      "countryCode": "RO",
      "stateCode": "CS",
      "latitude": "45.48036000",
      "longitude": "22.08720000"
   },
   {
      "name": "Comuna Cornea",
      "countryCode": "RO",
      "stateCode": "CS",
      "latitude": "45.01953000",
      "longitude": "22.31903000"
   },
   {
      "name": "Comuna Cornereva",
      "countryCode": "RO",
      "stateCode": "CS",
      "latitude": "45.06968000",
      "longitude": "22.44671000"
   },
   {
      "name": "Comuna Cărbunari",
      "countryCode": "RO",
      "stateCode": "CS",
      "latitude": "44.83985000",
      "longitude": "21.74178000"
   },
   {
      "name": "Comuna Dalboşeţ",
      "countryCode": "RO",
      "stateCode": "CS",
      "latitude": "44.84425000",
      "longitude": "21.93495000"
   },
   {
      "name": "Comuna Doclin",
      "countryCode": "RO",
      "stateCode": "CS",
      "latitude": "45.32370000",
      "longitude": "21.64622000"
   },
   {
      "name": "Comuna Dognecea",
      "countryCode": "RO",
      "stateCode": "CS",
      "latitude": "45.24797000",
      "longitude": "21.72574000"
   },
   {
      "name": "Comuna Domaşnea",
      "countryCode": "RO",
      "stateCode": "CS",
      "latitude": "45.07577000",
      "longitude": "22.33693000"
   },
   {
      "name": "Comuna Eftimie Murgu",
      "countryCode": "RO",
      "stateCode": "CS",
      "latitude": "44.87744000",
      "longitude": "22.09522000"
   },
   {
      "name": "Comuna Ezeriş",
      "countryCode": "RO",
      "stateCode": "CS",
      "latitude": "45.38982000",
      "longitude": "21.91754000"
   },
   {
      "name": "Comuna Forotic",
      "countryCode": "RO",
      "stateCode": "CS",
      "latitude": "45.23159000",
      "longitude": "21.57890000"
   },
   {
      "name": "Comuna Fârliug",
      "countryCode": "RO",
      "stateCode": "CS",
      "latitude": "45.50025000",
      "longitude": "21.85355000"
   },
   {
      "name": "Comuna Glimboca",
      "countryCode": "RO",
      "stateCode": "CS",
      "latitude": "45.49499000",
      "longitude": "22.32194000"
   },
   {
      "name": "Comuna Goruia",
      "countryCode": "RO",
      "stateCode": "CS",
      "latitude": "45.18298000",
      "longitude": "21.77054000"
   },
   {
      "name": "Comuna Grădinari",
      "countryCode": "RO",
      "stateCode": "CS",
      "latitude": "45.10488000",
      "longitude": "21.60576000"
   },
   {
      "name": "Comuna Gârnic",
      "countryCode": "RO",
      "stateCode": "CS",
      "latitude": "44.75521000",
      "longitude": "21.77168000"
   },
   {
      "name": "Comuna Iablaniţa",
      "countryCode": "RO",
      "stateCode": "CS",
      "latitude": "44.97480000",
      "longitude": "22.29180000"
   },
   {
      "name": "Comuna Luncaviţa",
      "countryCode": "RO",
      "stateCode": "CS",
      "latitude": "45.08520000",
      "longitude": "22.25352000"
   },
   {
      "name": "Comuna Lupac",
      "countryCode": "RO",
      "stateCode": "CS",
      "latitude": "45.25215000",
      "longitude": "21.80835000"
   },
   {
      "name": "Comuna Lăpuşnicel",
      "countryCode": "RO",
      "stateCode": "CS",
      "latitude": "44.98679000",
      "longitude": "22.20710000"
   },
   {
      "name": "Comuna Lăpuşnicu Mare",
      "countryCode": "RO",
      "stateCode": "CS",
      "latitude": "44.88519000",
      "longitude": "21.93321000"
   },
   {
      "name": "Comuna Marga",
      "countryCode": "RO",
      "stateCode": "CS",
      "latitude": "45.51489000",
      "longitude": "22.51537000"
   },
   {
      "name": "Comuna Mehadia",
      "countryCode": "RO",
      "stateCode": "CS",
      "latitude": "44.95509000",
      "longitude": "22.37181000"
   },
   {
      "name": "Comuna Mehadica",
      "countryCode": "RO",
      "stateCode": "CS",
      "latitude": "45.03894000",
      "longitude": "22.26476000"
   },
   {
      "name": "Comuna Măureni",
      "countryCode": "RO",
      "stateCode": "CS",
      "latitude": "45.43170000",
      "longitude": "21.51348000"
   },
   {
      "name": "Comuna Naidaş",
      "countryCode": "RO",
      "stateCode": "CS",
      "latitude": "44.87584000",
      "longitude": "21.56807000"
   },
   {
      "name": "Comuna Obreja",
      "countryCode": "RO",
      "stateCode": "CS",
      "latitude": "45.46873000",
      "longitude": "22.25570000"
   },
   {
      "name": "Comuna Ocna De Fier",
      "countryCode": "RO",
      "stateCode": "CS",
      "latitude": "45.34195000",
      "longitude": "21.77503000"
   },
   {
      "name": "Comuna Pescari",
      "countryCode": "RO",
      "stateCode": "CS",
      "latitude": "44.67286000",
      "longitude": "21.70092000"
   },
   {
      "name": "Comuna Pojejena",
      "countryCode": "RO",
      "stateCode": "CS",
      "latitude": "44.78437000",
      "longitude": "21.53365000"
   },
   {
      "name": "Comuna Prigor",
      "countryCode": "RO",
      "stateCode": "CS",
      "latitude": "44.94774000",
      "longitude": "22.12896000"
   },
   {
      "name": "Comuna Pãltiniş",
      "countryCode": "RO",
      "stateCode": "CS",
      "latitude": "45.40607000",
      "longitude": "22.11233000"
   },
   {
      "name": "Comuna Ramna",
      "countryCode": "RO",
      "stateCode": "CS",
      "latitude": "45.46530000",
      "longitude": "21.72257000"
   },
   {
      "name": "Comuna Rusca Montană",
      "countryCode": "RO",
      "stateCode": "CS",
      "latitude": "45.60042000",
      "longitude": "22.43638000"
   },
   {
      "name": "Comuna Răcăşdia",
      "countryCode": "RO",
      "stateCode": "CS",
      "latitude": "44.99767000",
      "longitude": "21.58786000"
   },
   {
      "name": "Comuna Sacu",
      "countryCode": "RO",
      "stateCode": "CS",
      "latitude": "45.57152000",
      "longitude": "22.11048000"
   },
   {
      "name": "Comuna Sasca Montană",
      "countryCode": "RO",
      "stateCode": "CS",
      "latitude": "44.90394000",
      "longitude": "21.70167000"
   },
   {
      "name": "Comuna Sicheviţa",
      "countryCode": "RO",
      "stateCode": "CS",
      "latitude": "44.70616000",
      "longitude": "21.82910000"
   },
   {
      "name": "Comuna Slatina-Timiş",
      "countryCode": "RO",
      "stateCode": "CS",
      "latitude": "45.26064000",
      "longitude": "22.31807000"
   },
   {
      "name": "Comuna Socol",
      "countryCode": "RO",
      "stateCode": "CS",
      "latitude": "44.85334000",
      "longitude": "21.41782000"
   },
   {
      "name": "Comuna Teregova",
      "countryCode": "RO",
      "stateCode": "CS",
      "latitude": "45.14536000",
      "longitude": "22.31192000"
   },
   {
      "name": "Comuna Ticvaniu Mare",
      "countryCode": "RO",
      "stateCode": "CS",
      "latitude": "45.15901000",
      "longitude": "21.65596000"
   },
   {
      "name": "Comuna Topleţ",
      "countryCode": "RO",
      "stateCode": "CS",
      "latitude": "44.80454000",
      "longitude": "22.39102000"
   },
   {
      "name": "Comuna Turnu Rueni",
      "countryCode": "RO",
      "stateCode": "CS",
      "latitude": "45.39767000",
      "longitude": "22.31756000"
   },
   {
      "name": "Comuna Târnova",
      "countryCode": "RO",
      "stateCode": "CS",
      "latitude": "45.33274000",
      "longitude": "21.96849000"
   },
   {
      "name": "Comuna Vermeş",
      "countryCode": "RO",
      "stateCode": "CS",
      "latitude": "45.52216000",
      "longitude": "21.62988000"
   },
   {
      "name": "Comuna Vrani",
      "countryCode": "RO",
      "stateCode": "CS",
      "latitude": "45.02799000",
      "longitude": "21.48549000"
   },
   {
      "name": "Comuna Văliug",
      "countryCode": "RO",
      "stateCode": "CS",
      "latitude": "45.22643000",
      "longitude": "22.03169000"
   },
   {
      "name": "Comuna Vărădia",
      "countryCode": "RO",
      "stateCode": "CS",
      "latitude": "45.07166000",
      "longitude": "21.54036000"
   },
   {
      "name": "Comuna Zorlenţu Mare",
      "countryCode": "RO",
      "stateCode": "CS",
      "latitude": "45.46419000",
      "longitude": "21.98155000"
   },
   {
      "name": "Comuna Zăvoi",
      "countryCode": "RO",
      "stateCode": "CS",
      "latitude": "45.49706000",
      "longitude": "22.44346000"
   },
   {
      "name": "Comuna Şopotu Nou",
      "countryCode": "RO",
      "stateCode": "CS",
      "latitude": "44.79650000",
      "longitude": "21.85135000"
   },
   {
      "name": "Constantin Daicoviciu",
      "countryCode": "RO",
      "stateCode": "CS",
      "latitude": "45.55000000",
      "longitude": "22.15000000"
   },
   {
      "name": "Copăcele",
      "countryCode": "RO",
      "stateCode": "CS",
      "latitude": "45.50000000",
      "longitude": "22.10000000"
   },
   {
      "name": "Cornea",
      "countryCode": "RO",
      "stateCode": "CS",
      "latitude": "45.03333000",
      "longitude": "22.31667000"
   },
   {
      "name": "Cornereva",
      "countryCode": "RO",
      "stateCode": "CS",
      "latitude": "45.06667000",
      "longitude": "22.41667000"
   },
   {
      "name": "Cornuțel",
      "countryCode": "RO",
      "stateCode": "CS",
      "latitude": "45.43489000",
      "longitude": "22.09556000"
   },
   {
      "name": "Coronini",
      "countryCode": "RO",
      "stateCode": "CS",
      "latitude": "44.68004000",
      "longitude": "21.68552000"
   },
   {
      "name": "Câlnic",
      "countryCode": "RO",
      "stateCode": "CS",
      "latitude": "45.33844000",
      "longitude": "21.85754000"
   },
   {
      "name": "Cărbunari",
      "countryCode": "RO",
      "stateCode": "CS",
      "latitude": "44.83444000",
      "longitude": "21.74417000"
   },
   {
      "name": "Dalboșeț",
      "countryCode": "RO",
      "stateCode": "CS",
      "latitude": "44.86399000",
      "longitude": "21.95854000"
   },
   {
      "name": "Doclin",
      "countryCode": "RO",
      "stateCode": "CS",
      "latitude": "45.29694000",
      "longitude": "21.65389000"
   },
   {
      "name": "Dognecea",
      "countryCode": "RO",
      "stateCode": "CS",
      "latitude": "45.27417000",
      "longitude": "21.75694000"
   },
   {
      "name": "Domaşnea",
      "countryCode": "RO",
      "stateCode": "CS",
      "latitude": "45.08333000",
      "longitude": "22.31667000"
   },
   {
      "name": "Eftimie Murgu",
      "countryCode": "RO",
      "stateCode": "CS",
      "latitude": "44.90028000",
      "longitude": "22.09278000"
   },
   {
      "name": "Ezeriş",
      "countryCode": "RO",
      "stateCode": "CS",
      "latitude": "45.41083000",
      "longitude": "21.88583000"
   },
   {
      "name": "Fizeș",
      "countryCode": "RO",
      "stateCode": "CS",
      "latitude": "45.36403000",
      "longitude": "21.59517000"
   },
   {
      "name": "Forotic",
      "countryCode": "RO",
      "stateCode": "CS",
      "latitude": "45.23028000",
      "longitude": "21.58750000"
   },
   {
      "name": "Fârliug",
      "countryCode": "RO",
      "stateCode": "CS",
      "latitude": "45.48833000",
      "longitude": "21.84944000"
   },
   {
      "name": "Gherteniș",
      "countryCode": "RO",
      "stateCode": "CS",
      "latitude": "45.43315000",
      "longitude": "21.58126000"
   },
   {
      "name": "Glimboca",
      "countryCode": "RO",
      "stateCode": "CS",
      "latitude": "45.48333000",
      "longitude": "22.31667000"
   },
   {
      "name": "Goruia",
      "countryCode": "RO",
      "stateCode": "CS",
      "latitude": "45.18722000",
      "longitude": "21.77917000"
   },
   {
      "name": "Greoni",
      "countryCode": "RO",
      "stateCode": "CS",
      "latitude": "45.08901000",
      "longitude": "21.61731000"
   },
   {
      "name": "Grădinari",
      "countryCode": "RO",
      "stateCode": "CS",
      "latitude": "45.11861000",
      "longitude": "21.59889000"
   },
   {
      "name": "Gârnic",
      "countryCode": "RO",
      "stateCode": "CS",
      "latitude": "44.78639000",
      "longitude": "21.79444000"
   },
   {
      "name": "Iablaniţa",
      "countryCode": "RO",
      "stateCode": "CS",
      "latitude": "44.95028000",
      "longitude": "22.31417000"
   },
   {
      "name": "Liubcova",
      "countryCode": "RO",
      "stateCode": "CS",
      "latitude": "44.65885000",
      "longitude": "21.89559000"
   },
   {
      "name": "Luncaviţa",
      "countryCode": "RO",
      "stateCode": "CS",
      "latitude": "45.08333000",
      "longitude": "22.26667000"
   },
   {
      "name": "Lupac",
      "countryCode": "RO",
      "stateCode": "CS",
      "latitude": "45.28000000",
      "longitude": "21.81278000"
   },
   {
      "name": "Lăpuşnicel",
      "countryCode": "RO",
      "stateCode": "CS",
      "latitude": "44.98306000",
      "longitude": "22.22694000"
   },
   {
      "name": "Lăpuşnicu Mare",
      "countryCode": "RO",
      "stateCode": "CS",
      "latitude": "44.91306000",
      "longitude": "21.94417000"
   },
   {
      "name": "Marga",
      "countryCode": "RO",
      "stateCode": "CS",
      "latitude": "45.50000000",
      "longitude": "22.51667000"
   },
   {
      "name": "Mehadia",
      "countryCode": "RO",
      "stateCode": "CS",
      "latitude": "44.90083000",
      "longitude": "22.36694000"
   },
   {
      "name": "Mehadica",
      "countryCode": "RO",
      "stateCode": "CS",
      "latitude": "45.03333000",
      "longitude": "22.26667000"
   },
   {
      "name": "Moldova Nouă",
      "countryCode": "RO",
      "stateCode": "CS",
      "latitude": "44.73750000",
      "longitude": "21.66694000"
   },
   {
      "name": "Municipiul Caransebeş",
      "countryCode": "RO",
      "stateCode": "CS",
      "latitude": "45.43476000",
      "longitude": "22.20358000"
   },
   {
      "name": "Municipiul Reşiţa",
      "countryCode": "RO",
      "stateCode": "CS",
      "latitude": "45.29838000",
      "longitude": "21.91192000"
   },
   {
      "name": "Muntele Mic",
      "countryCode": "RO",
      "stateCode": "CS",
      "latitude": "45.38333000",
      "longitude": "22.33333000"
   },
   {
      "name": "Măru",
      "countryCode": "RO",
      "stateCode": "CS",
      "latitude": "45.47586000",
      "longitude": "22.45039000"
   },
   {
      "name": "Măureni",
      "countryCode": "RO",
      "stateCode": "CS",
      "latitude": "45.40389000",
      "longitude": "21.50250000"
   },
   {
      "name": "Naidăș",
      "countryCode": "RO",
      "stateCode": "CS",
      "latitude": "44.88108000",
      "longitude": "21.59061000"
   },
   {
      "name": "Obreja",
      "countryCode": "RO",
      "stateCode": "CS",
      "latitude": "45.48333000",
      "longitude": "22.25000000"
   },
   {
      "name": "Oraviţa",
      "countryCode": "RO",
      "stateCode": "CS",
      "latitude": "45.03250000",
      "longitude": "21.68944000"
   },
   {
      "name": "Oraş Anina",
      "countryCode": "RO",
      "stateCode": "CS",
      "latitude": "45.07683000",
      "longitude": "21.85213000"
   },
   {
      "name": "Oraş Bocşa",
      "countryCode": "RO",
      "stateCode": "CS",
      "latitude": "45.37570000",
      "longitude": "21.71483000"
   },
   {
      "name": "Oraş Bãile Herculane",
      "countryCode": "RO",
      "stateCode": "CS",
      "latitude": "44.87326000",
      "longitude": "22.41613000"
   },
   {
      "name": "Oraş Oraviţa",
      "countryCode": "RO",
      "stateCode": "CS",
      "latitude": "45.05918000",
      "longitude": "21.70739000"
   },
   {
      "name": "Oraş Oţelu Roşu",
      "countryCode": "RO",
      "stateCode": "CS",
      "latitude": "45.51638000",
      "longitude": "22.38135000"
   },
   {
      "name": "Oţelu Roşu",
      "countryCode": "RO",
      "stateCode": "CS",
      "latitude": "45.53333000",
      "longitude": "22.36667000"
   },
   {
      "name": "Padina Matei",
      "countryCode": "RO",
      "stateCode": "CS",
      "latitude": "44.75843000",
      "longitude": "21.75067000"
   },
   {
      "name": "Petroșnița",
      "countryCode": "RO",
      "stateCode": "CS",
      "latitude": "45.32351000",
      "longitude": "22.25920000"
   },
   {
      "name": "Plugova",
      "countryCode": "RO",
      "stateCode": "CS",
      "latitude": "44.96250000",
      "longitude": "22.35864000"
   },
   {
      "name": "Pojejena",
      "countryCode": "RO",
      "stateCode": "CS",
      "latitude": "44.77417000",
      "longitude": "21.57917000"
   },
   {
      "name": "Prigor",
      "countryCode": "RO",
      "stateCode": "CS",
      "latitude": "44.93833000",
      "longitude": "22.11333000"
   },
   {
      "name": "Păltiniş",
      "countryCode": "RO",
      "stateCode": "CS",
      "latitude": "45.43333000",
      "longitude": "22.15000000"
   },
   {
      "name": "Ramna",
      "countryCode": "RO",
      "stateCode": "CS",
      "latitude": "45.43833000",
      "longitude": "21.68833000"
   },
   {
      "name": "Reşiţa",
      "countryCode": "RO",
      "stateCode": "CS",
      "latitude": "45.30083000",
      "longitude": "21.88917000"
   },
   {
      "name": "Rusca",
      "countryCode": "RO",
      "stateCode": "CS",
      "latitude": "45.14517000",
      "longitude": "22.33859000"
   },
   {
      "name": "Rusca Montană",
      "countryCode": "RO",
      "stateCode": "CS",
      "latitude": "45.56741000",
      "longitude": "22.45816000"
   },
   {
      "name": "Răcăşdia",
      "countryCode": "RO",
      "stateCode": "CS",
      "latitude": "44.99306000",
      "longitude": "21.61806000"
   },
   {
      "name": "Sacu",
      "countryCode": "RO",
      "stateCode": "CS",
      "latitude": "45.56667000",
      "longitude": "22.11667000"
   },
   {
      "name": "Sasca Montană",
      "countryCode": "RO",
      "stateCode": "CS",
      "latitude": "44.88546000",
      "longitude": "21.70915000"
   },
   {
      "name": "Sicheviţa",
      "countryCode": "RO",
      "stateCode": "CS",
      "latitude": "44.73500000",
      "longitude": "21.84861000"
   },
   {
      "name": "Slatina-Timiş",
      "countryCode": "RO",
      "stateCode": "CS",
      "latitude": "45.25000000",
      "longitude": "22.28333000"
   },
   {
      "name": "Socol",
      "countryCode": "RO",
      "stateCode": "CS",
      "latitude": "44.86083000",
      "longitude": "21.37028000"
   },
   {
      "name": "Steierdorf",
      "countryCode": "RO",
      "stateCode": "CS",
      "latitude": "45.06359000",
      "longitude": "21.85216000"
   },
   {
      "name": "Teregova",
      "countryCode": "RO",
      "stateCode": "CS",
      "latitude": "45.15000000",
      "longitude": "22.28333000"
   },
   {
      "name": "Ticvaniu Mare",
      "countryCode": "RO",
      "stateCode": "CS",
      "latitude": "45.13528000",
      "longitude": "21.63806000"
   },
   {
      "name": "Topleţ",
      "countryCode": "RO",
      "stateCode": "CS",
      "latitude": "44.79722000",
      "longitude": "22.39444000"
   },
   {
      "name": "Turnu Ruieni",
      "countryCode": "RO",
      "stateCode": "CS",
      "latitude": "45.39070000",
      "longitude": "22.33557000"
   },
   {
      "name": "Târnova",
      "countryCode": "RO",
      "stateCode": "CS",
      "latitude": "45.34250000",
      "longitude": "22.00611000"
   },
   {
      "name": "Valea Bolvașnița",
      "countryCode": "RO",
      "stateCode": "CS",
      "latitude": "44.94602000",
      "longitude": "22.39019000"
   },
   {
      "name": "Verendin",
      "countryCode": "RO",
      "stateCode": "CS",
      "latitude": "45.07755000",
      "longitude": "22.23917000"
   },
   {
      "name": "Vermeş",
      "countryCode": "RO",
      "stateCode": "CS",
      "latitude": "45.52056000",
      "longitude": "21.65972000"
   },
   {
      "name": "Vrani",
      "countryCode": "RO",
      "stateCode": "CS",
      "latitude": "45.03833000",
      "longitude": "21.49250000"
   },
   {
      "name": "Vârciorova",
      "countryCode": "RO",
      "stateCode": "CS",
      "latitude": "45.32710000",
      "longitude": "22.35208000"
   },
   {
      "name": "Văliug",
      "countryCode": "RO",
      "stateCode": "CS",
      "latitude": "45.23333000",
      "longitude": "22.03333000"
   },
   {
      "name": "Vărădia",
      "countryCode": "RO",
      "stateCode": "CS",
      "latitude": "45.07833000",
      "longitude": "21.54694000"
   },
   {
      "name": "Zorlenţu Mare",
      "countryCode": "RO",
      "stateCode": "CS",
      "latitude": "45.45056000",
      "longitude": "21.95611000"
   },
   {
      "name": "Zăvoi",
      "countryCode": "RO",
      "stateCode": "CS",
      "latitude": "45.51667000",
      "longitude": "22.41667000"
   },
   {
      "name": "Şopotu Nou",
      "countryCode": "RO",
      "stateCode": "CS",
      "latitude": "44.84194000",
      "longitude": "21.86278000"
   }
]