[
   {
      "name": "Ableiges",
      "countryCode": "FR",
      "stateCode": "IDF",
      "latitude": "49.08932000",
      "longitude": "1.98154000"
   },
   {
      "name": "Ablis",
      "countryCode": "FR",
      "stateCode": "IDF",
      "latitude": "48.51720000",
      "longitude": "1.83624000"
   },
   {
      "name": "Ablon-sur-Seine",
      "countryCode": "FR",
      "stateCode": "IDF",
      "latitude": "48.72732000",
      "longitude": "2.42686000"
   },
   {
      "name": "Achères",
      "countryCode": "FR",
      "stateCode": "IDF",
      "latitude": "48.96115000",
      "longitude": "2.06882000"
   },
   {
      "name": "Achères-la-Forêt",
      "countryCode": "FR",
      "stateCode": "IDF",
      "latitude": "48.35458000",
      "longitude": "2.57035000"
   },
   {
      "name": "Alfortville",
      "countryCode": "FR",
      "stateCode": "IDF",
      "latitude": "48.80575000",
      "longitude": "2.42040000"
   },
   {
      "name": "Andilly",
      "countryCode": "FR",
      "stateCode": "IDF",
      "latitude": "49.00935000",
      "longitude": "2.30240000"
   },
   {
      "name": "Andrésy",
      "countryCode": "FR",
      "stateCode": "IDF",
      "latitude": "48.98235000",
      "longitude": "2.05687000"
   },
   {
      "name": "Angerville",
      "countryCode": "FR",
      "stateCode": "IDF",
      "latitude": "48.31354000",
      "longitude": "1.99935000"
   },
   {
      "name": "Angervilliers",
      "countryCode": "FR",
      "stateCode": "IDF",
      "latitude": "48.59263000",
      "longitude": "2.06541000"
   },
   {
      "name": "Annet-sur-Marne",
      "countryCode": "FR",
      "stateCode": "IDF",
      "latitude": "48.92669000",
      "longitude": "2.71959000"
   },
   {
      "name": "Antony",
      "countryCode": "FR",
      "stateCode": "IDF",
      "latitude": "48.75329000",
      "longitude": "2.29668000"
   },
   {
      "name": "Arbonne-la-Forêt",
      "countryCode": "FR",
      "stateCode": "IDF",
      "latitude": "48.41405000",
      "longitude": "2.56677000"
   },
   {
      "name": "Arcueil",
      "countryCode": "FR",
      "stateCode": "IDF",
      "latitude": "48.79993000",
      "longitude": "2.33256000"
   },
   {
      "name": "Argenteuil",
      "countryCode": "FR",
      "stateCode": "IDF",
      "latitude": "48.94788000",
      "longitude": "2.24744000"
   },
   {
      "name": "Armentières-en-Brie",
      "countryCode": "FR",
      "stateCode": "IDF",
      "latitude": "48.97775000",
      "longitude": "3.02073000"
   },
   {
      "name": "Arnouville",
      "countryCode": "FR",
      "stateCode": "IDF",
      "latitude": "48.98333000",
      "longitude": "2.41667000"
   },
   {
      "name": "Arpajon",
      "countryCode": "FR",
      "stateCode": "IDF",
      "latitude": "48.58875000",
      "longitude": "2.24672000"
   },
   {
      "name": "Asnières-sur-Oise",
      "countryCode": "FR",
      "stateCode": "IDF",
      "latitude": "49.13369000",
      "longitude": "2.35551000"
   },
   {
      "name": "Asnières-sur-Seine",
      "countryCode": "FR",
      "stateCode": "IDF",
      "latitude": "48.91667000",
      "longitude": "2.28333000"
   },
   {
      "name": "Athis-Mons",
      "countryCode": "FR",
      "stateCode": "IDF",
      "latitude": "48.70522000",
      "longitude": "2.39147000"
   },
   {
      "name": "Attainville",
      "countryCode": "FR",
      "stateCode": "IDF",
      "latitude": "49.05779000",
      "longitude": "2.34497000"
   },
   {
      "name": "Aubergenville",
      "countryCode": "FR",
      "stateCode": "IDF",
      "latitude": "48.95996000",
      "longitude": "1.85467000"
   },
   {
      "name": "Aubervilliers",
      "countryCode": "FR",
      "stateCode": "IDF",
      "latitude": "48.91667000",
      "longitude": "2.38333000"
   },
   {
      "name": "Auffargis",
      "countryCode": "FR",
      "stateCode": "IDF",
      "latitude": "48.70049000",
      "longitude": "1.88696000"
   },
   {
      "name": "Aulnay-sous-Bois",
      "countryCode": "FR",
      "stateCode": "IDF",
      "latitude": "48.93814000",
      "longitude": "2.49402000"
   },
   {
      "name": "Aulnay-sur-Mauldre",
      "countryCode": "FR",
      "stateCode": "IDF",
      "latitude": "48.92950000",
      "longitude": "1.84113000"
   },
   {
      "name": "Auvers-Saint-Georges",
      "countryCode": "FR",
      "stateCode": "IDF",
      "latitude": "48.49276000",
      "longitude": "2.22045000"
   },
   {
      "name": "Auvers-sur-Oise",
      "countryCode": "FR",
      "stateCode": "IDF",
      "latitude": "49.07158000",
      "longitude": "2.16978000"
   },
   {
      "name": "Avon",
      "countryCode": "FR",
      "stateCode": "IDF",
      "latitude": "48.40219000",
      "longitude": "2.72022000"
   },
   {
      "name": "Bagneaux-sur-Loing",
      "countryCode": "FR",
      "stateCode": "IDF",
      "latitude": "48.23310000",
      "longitude": "2.70675000"
   },
   {
      "name": "Bagneux",
      "countryCode": "FR",
      "stateCode": "IDF",
      "latitude": "48.79565000",
      "longitude": "2.30796000"
   },
   {
      "name": "Bagnolet",
      "countryCode": "FR",
      "stateCode": "IDF",
      "latitude": "48.86667000",
      "longitude": "2.41667000"
   },
   {
      "name": "Baillet-en-France",
      "countryCode": "FR",
      "stateCode": "IDF",
      "latitude": "49.06187000",
      "longitude": "2.29880000"
   },
   {
      "name": "Bailly",
      "countryCode": "FR",
      "stateCode": "IDF",
      "latitude": "48.84168000",
      "longitude": "2.07673000"
   },
   {
      "name": "Bailly-Carrois",
      "countryCode": "FR",
      "stateCode": "IDF",
      "latitude": "48.58029000",
      "longitude": "2.99047000"
   },
   {
      "name": "Bailly-Romainvilliers",
      "countryCode": "FR",
      "stateCode": "IDF",
      "latitude": "48.84729000",
      "longitude": "2.82352000"
   },
   {
      "name": "Ballainvilliers",
      "countryCode": "FR",
      "stateCode": "IDF",
      "latitude": "48.67481000",
      "longitude": "2.30057000"
   },
   {
      "name": "Ballancourt-sur-Essonne",
      "countryCode": "FR",
      "stateCode": "IDF",
      "latitude": "48.52525000",
      "longitude": "2.38604000"
   },
   {
      "name": "Barbizon",
      "countryCode": "FR",
      "stateCode": "IDF",
      "latitude": "48.44346000",
      "longitude": "2.60313000"
   },
   {
      "name": "Baulne",
      "countryCode": "FR",
      "stateCode": "IDF",
      "latitude": "48.49303000",
      "longitude": "2.36230000"
   },
   {
      "name": "Bazainville",
      "countryCode": "FR",
      "stateCode": "IDF",
      "latitude": "48.80435000",
      "longitude": "1.66732000"
   },
   {
      "name": "Bazemont",
      "countryCode": "FR",
      "stateCode": "IDF",
      "latitude": "48.92726000",
      "longitude": "1.86651000"
   },
   {
      "name": "Beauchamp",
      "countryCode": "FR",
      "stateCode": "IDF",
      "latitude": "49.01667000",
      "longitude": "2.20000000"
   },
   {
      "name": "Beaumont-du-Gâtinais",
      "countryCode": "FR",
      "stateCode": "IDF",
      "latitude": "48.13860000",
      "longitude": "2.47913000"
   },
   {
      "name": "Beaumont-sur-Oise",
      "countryCode": "FR",
      "stateCode": "IDF",
      "latitude": "49.14232000",
      "longitude": "2.28705000"
   },
   {
      "name": "Belloy-en-France",
      "countryCode": "FR",
      "stateCode": "IDF",
      "latitude": "49.08837000",
      "longitude": "2.37159000"
   },
   {
      "name": "Bennecourt",
      "countryCode": "FR",
      "stateCode": "IDF",
      "latitude": "49.04148000",
      "longitude": "1.55469000"
   },
   {
      "name": "Bernes-sur-Oise",
      "countryCode": "FR",
      "stateCode": "IDF",
      "latitude": "49.16128000",
      "longitude": "2.30000000"
   },
   {
      "name": "Bessancourt",
      "countryCode": "FR",
      "stateCode": "IDF",
      "latitude": "49.03765000",
      "longitude": "2.20936000"
   },
   {
      "name": "Beynes",
      "countryCode": "FR",
      "stateCode": "IDF",
      "latitude": "48.85626000",
      "longitude": "1.87261000"
   },
   {
      "name": "Bezons",
      "countryCode": "FR",
      "stateCode": "IDF",
      "latitude": "48.92426000",
      "longitude": "2.21280000"
   },
   {
      "name": "Bièvres",
      "countryCode": "FR",
      "stateCode": "IDF",
      "latitude": "48.75772000",
      "longitude": "2.21881000"
   },
   {
      "name": "Bobigny",
      "countryCode": "FR",
      "stateCode": "IDF",
      "latitude": "48.90982000",
      "longitude": "2.45012000"
   },
   {
      "name": "Bois-Colombes",
      "countryCode": "FR",
      "stateCode": "IDF",
      "latitude": "48.91936000",
      "longitude": "2.27485000"
   },
   {
      "name": "Bois-d’Arcy",
      "countryCode": "FR",
      "stateCode": "IDF",
      "latitude": "48.79966000",
      "longitude": "2.02325000"
   },
   {
      "name": "Bois-le-Roi",
      "countryCode": "FR",
      "stateCode": "IDF",
      "latitude": "48.47348000",
      "longitude": "2.70464000"
   },
   {
      "name": "Boissise-le-Roi",
      "countryCode": "FR",
      "stateCode": "IDF",
      "latitude": "48.52479000",
      "longitude": "2.56971000"
   },
   {
      "name": "Boissy-Saint-Léger",
      "countryCode": "FR",
      "stateCode": "IDF",
      "latitude": "48.75149000",
      "longitude": "2.51163000"
   },
   {
      "name": "Boissy-le-Châtel",
      "countryCode": "FR",
      "stateCode": "IDF",
      "latitude": "48.82073000",
      "longitude": "3.13651000"
   },
   {
      "name": "Boissy-le-Cutté",
      "countryCode": "FR",
      "stateCode": "IDF",
      "latitude": "48.47020000",
      "longitude": "2.28326000"
   },
   {
      "name": "Boissy-sous-Saint-Yon",
      "countryCode": "FR",
      "stateCode": "IDF",
      "latitude": "48.55379000",
      "longitude": "2.21212000"
   },
   {
      "name": "Bondoufle",
      "countryCode": "FR",
      "stateCode": "IDF",
      "latitude": "48.61294000",
      "longitude": "2.37775000"
   },
   {
      "name": "Bondy",
      "countryCode": "FR",
      "stateCode": "IDF",
      "latitude": "48.90180000",
      "longitude": "2.48931000"
   },
   {
      "name": "Bonnelles",
      "countryCode": "FR",
      "stateCode": "IDF",
      "latitude": "48.61816000",
      "longitude": "2.02922000"
   },
   {
      "name": "Bonneuil-sur-Marne",
      "countryCode": "FR",
      "stateCode": "IDF",
      "latitude": "48.76950000",
      "longitude": "2.47930000"
   },
   {
      "name": "Bonnières-sur-Seine",
      "countryCode": "FR",
      "stateCode": "IDF",
      "latitude": "49.03525000",
      "longitude": "1.57830000"
   },
   {
      "name": "Bouafle",
      "countryCode": "FR",
      "stateCode": "IDF",
      "latitude": "48.96463000",
      "longitude": "1.90120000"
   },
   {
      "name": "Bouffémont",
      "countryCode": "FR",
      "stateCode": "IDF",
      "latitude": "49.04377000",
      "longitude": "2.29796000"
   },
   {
      "name": "Bougival",
      "countryCode": "FR",
      "stateCode": "IDF",
      "latitude": "48.86223000",
      "longitude": "2.14148000"
   },
   {
      "name": "Bouleurs",
      "countryCode": "FR",
      "stateCode": "IDF",
      "latitude": "48.88181000",
      "longitude": "2.90728000"
   },
   {
      "name": "Boulogne-Billancourt",
      "countryCode": "FR",
      "stateCode": "IDF",
      "latitude": "48.83545000",
      "longitude": "2.24128000"
   },
   {
      "name": "Bouray-sur-Juine",
      "countryCode": "FR",
      "stateCode": "IDF",
      "latitude": "48.51981000",
      "longitude": "2.30001000"
   },
   {
      "name": "Bourg-la-Reine",
      "countryCode": "FR",
      "stateCode": "IDF",
      "latitude": "48.77888000",
      "longitude": "2.31781000"
   },
   {
      "name": "Bourron-Marlotte",
      "countryCode": "FR",
      "stateCode": "IDF",
      "latitude": "48.34051000",
      "longitude": "2.70041000"
   },
   {
      "name": "Boussy-Saint-Antoine",
      "countryCode": "FR",
      "stateCode": "IDF",
      "latitude": "48.69101000",
      "longitude": "2.53060000"
   },
   {
      "name": "Boutigny-sur-Essonne",
      "countryCode": "FR",
      "stateCode": "IDF",
      "latitude": "48.43333000",
      "longitude": "2.38333000"
   },
   {
      "name": "Bray-sur-Seine",
      "countryCode": "FR",
      "stateCode": "IDF",
      "latitude": "48.41371000",
      "longitude": "3.23852000"
   },
   {
      "name": "Breuillet",
      "countryCode": "FR",
      "stateCode": "IDF",
      "latitude": "48.57064000",
      "longitude": "2.17424000"
   },
   {
      "name": "Brie-Comte-Robert",
      "countryCode": "FR",
      "stateCode": "IDF",
      "latitude": "48.69247000",
      "longitude": "2.61090000"
   },
   {
      "name": "Briis-sous-Forges",
      "countryCode": "FR",
      "stateCode": "IDF",
      "latitude": "48.62399000",
      "longitude": "2.12112000"
   },
   {
      "name": "Brou-sur-Chantereine",
      "countryCode": "FR",
      "stateCode": "IDF",
      "latitude": "48.88333000",
      "longitude": "2.63333000"
   },
   {
      "name": "Brunoy",
      "countryCode": "FR",
      "stateCode": "IDF",
      "latitude": "48.69420000",
      "longitude": "2.49223000"
   },
   {
      "name": "Bruyères-le-Châtel",
      "countryCode": "FR",
      "stateCode": "IDF",
      "latitude": "48.58868000",
      "longitude": "2.18991000"
   },
   {
      "name": "Bruyères-sur-Oise",
      "countryCode": "FR",
      "stateCode": "IDF",
      "latitude": "49.15756000",
      "longitude": "2.32577000"
   },
   {
      "name": "Bry-sur-Marne",
      "countryCode": "FR",
      "stateCode": "IDF",
      "latitude": "48.83811000",
      "longitude": "2.52488000"
   },
   {
      "name": "Brétigny-sur-Orge",
      "countryCode": "FR",
      "stateCode": "IDF",
      "latitude": "48.61135000",
      "longitude": "2.30593000"
   },
   {
      "name": "Bréval",
      "countryCode": "FR",
      "stateCode": "IDF",
      "latitude": "48.94545000",
      "longitude": "1.53309000"
   },
   {
      "name": "Buc",
      "countryCode": "FR",
      "stateCode": "IDF",
      "latitude": "48.77627000",
      "longitude": "2.12577000"
   },
   {
      "name": "Buchelay",
      "countryCode": "FR",
      "stateCode": "IDF",
      "latitude": "48.97926000",
      "longitude": "1.67026000"
   },
   {
      "name": "Bullion",
      "countryCode": "FR",
      "stateCode": "IDF",
      "latitude": "48.62285000",
      "longitude": "1.99024000"
   },
   {
      "name": "Bures-sur-Yvette",
      "countryCode": "FR",
      "stateCode": "IDF",
      "latitude": "48.69981000",
      "longitude": "2.17064000"
   },
   {
      "name": "Bussy-Saint-Georges",
      "countryCode": "FR",
      "stateCode": "IDF",
      "latitude": "48.84099000",
      "longitude": "2.70165000"
   },
   {
      "name": "Butry-sur-Oise",
      "countryCode": "FR",
      "stateCode": "IDF",
      "latitude": "49.08837000",
      "longitude": "2.19916000"
   },
   {
      "name": "Cachan",
      "countryCode": "FR",
      "stateCode": "IDF",
      "latitude": "48.79632000",
      "longitude": "2.33661000"
   },
   {
      "name": "Cannes-Écluse",
      "countryCode": "FR",
      "stateCode": "IDF",
      "latitude": "48.36303000",
      "longitude": "2.98748000"
   },
   {
      "name": "Carrières-sous-Poissy",
      "countryCode": "FR",
      "stateCode": "IDF",
      "latitude": "48.94952000",
      "longitude": "2.04068000"
   },
   {
      "name": "Carrières-sur-Seine",
      "countryCode": "FR",
      "stateCode": "IDF",
      "latitude": "48.90687000",
      "longitude": "2.17920000"
   },
   {
      "name": "Cergy",
      "countryCode": "FR",
      "stateCode": "IDF",
      "latitude": "49.03645000",
      "longitude": "2.07613000"
   },
   {
      "name": "Cergy-Pontoise",
      "countryCode": "FR",
      "stateCode": "IDF",
      "latitude": "49.03894000",
      "longitude": "2.07805000"
   },
   {
      "name": "Cernay-la-Ville",
      "countryCode": "FR",
      "stateCode": "IDF",
      "latitude": "48.67324000",
      "longitude": "1.97422000"
   },
   {
      "name": "Cerny",
      "countryCode": "FR",
      "stateCode": "IDF",
      "latitude": "48.47796000",
      "longitude": "2.32815000"
   },
   {
      "name": "Cesson",
      "countryCode": "FR",
      "stateCode": "IDF",
      "latitude": "48.56204000",
      "longitude": "2.60816000"
   },
   {
      "name": "Chailly-en-Bière",
      "countryCode": "FR",
      "stateCode": "IDF",
      "latitude": "48.46701000",
      "longitude": "2.60785000"
   },
   {
      "name": "Chailly-en-Brie",
      "countryCode": "FR",
      "stateCode": "IDF",
      "latitude": "48.79006000",
      "longitude": "3.12453000"
   },
   {
      "name": "Chalifert",
      "countryCode": "FR",
      "stateCode": "IDF",
      "latitude": "48.88993000",
      "longitude": "2.77339000"
   },
   {
      "name": "Chalo-Saint-Mars",
      "countryCode": "FR",
      "stateCode": "IDF",
      "latitude": "48.42328000",
      "longitude": "2.06491000"
   },
   {
      "name": "Chamarande",
      "countryCode": "FR",
      "stateCode": "IDF",
      "latitude": "48.51715000",
      "longitude": "2.21710000"
   },
   {
      "name": "Chambourcy",
      "countryCode": "FR",
      "stateCode": "IDF",
      "latitude": "48.90655000",
      "longitude": "2.04100000"
   },
   {
      "name": "Chamigny",
      "countryCode": "FR",
      "stateCode": "IDF",
      "latitude": "48.97242000",
      "longitude": "3.15165000"
   },
   {
      "name": "Champagne-sur-Oise",
      "countryCode": "FR",
      "stateCode": "IDF",
      "latitude": "49.14052000",
      "longitude": "2.24233000"
   },
   {
      "name": "Champagne-sur-Seine",
      "countryCode": "FR",
      "stateCode": "IDF",
      "latitude": "48.39794000",
      "longitude": "2.79785000"
   },
   {
      "name": "Champcueil",
      "countryCode": "FR",
      "stateCode": "IDF",
      "latitude": "48.51594000",
      "longitude": "2.44674000"
   },
   {
      "name": "Champigny-sur-Marne",
      "countryCode": "FR",
      "stateCode": "IDF",
      "latitude": "48.81642000",
      "longitude": "2.49366000"
   },
   {
      "name": "Champlan",
      "countryCode": "FR",
      "stateCode": "IDF",
      "latitude": "48.70823000",
      "longitude": "2.27975000"
   },
   {
      "name": "Champs-sur-Marne",
      "countryCode": "FR",
      "stateCode": "IDF",
      "latitude": "48.85000000",
      "longitude": "2.60000000"
   },
   {
      "name": "Changis-sur-Marne",
      "countryCode": "FR",
      "stateCode": "IDF",
      "latitude": "48.95816000",
      "longitude": "3.02191000"
   },
   {
      "name": "Chanteloup-en-Brie",
      "countryCode": "FR",
      "stateCode": "IDF",
      "latitude": "48.85478000",
      "longitude": "2.73929000"
   },
   {
      "name": "Chanteloup-les-Vignes",
      "countryCode": "FR",
      "stateCode": "IDF",
      "latitude": "48.97614000",
      "longitude": "2.03261000"
   },
   {
      "name": "Chapet",
      "countryCode": "FR",
      "stateCode": "IDF",
      "latitude": "48.96667000",
      "longitude": "1.93333000"
   },
   {
      "name": "Charenton-le-Pont",
      "countryCode": "FR",
      "stateCode": "IDF",
      "latitude": "48.82209000",
      "longitude": "2.41217000"
   },
   {
      "name": "Charny",
      "countryCode": "FR",
      "stateCode": "IDF",
      "latitude": "48.97098000",
      "longitude": "2.76121000"
   },
   {
      "name": "Chars",
      "countryCode": "FR",
      "stateCode": "IDF",
      "latitude": "49.16032000",
      "longitude": "1.93669000"
   },
   {
      "name": "Chartrettes",
      "countryCode": "FR",
      "stateCode": "IDF",
      "latitude": "48.48808000",
      "longitude": "2.70083000"
   },
   {
      "name": "Chatou",
      "countryCode": "FR",
      "stateCode": "IDF",
      "latitude": "48.88980000",
      "longitude": "2.15863000"
   },
   {
      "name": "Chauconin-Neufmontiers",
      "countryCode": "FR",
      "stateCode": "IDF",
      "latitude": "48.96667000",
      "longitude": "2.85000000"
   },
   {
      "name": "Chaumes-en-Brie",
      "countryCode": "FR",
      "stateCode": "IDF",
      "latitude": "48.66853000",
      "longitude": "2.84015000"
   },
   {
      "name": "Chaumontel",
      "countryCode": "FR",
      "stateCode": "IDF",
      "latitude": "49.12470000",
      "longitude": "2.43237000"
   },
   {
      "name": "Chavenay",
      "countryCode": "FR",
      "stateCode": "IDF",
      "latitude": "48.85437000",
      "longitude": "1.99163000"
   },
   {
      "name": "Chaville",
      "countryCode": "FR",
      "stateCode": "IDF",
      "latitude": "48.80565000",
      "longitude": "2.18864000"
   },
   {
      "name": "Chelles",
      "countryCode": "FR",
      "stateCode": "IDF",
      "latitude": "48.88109000",
      "longitude": "2.59295000"
   },
   {
      "name": "Chennevières-sur-Marne",
      "countryCode": "FR",
      "stateCode": "IDF",
      "latitude": "48.79702000",
      "longitude": "2.54046000"
   },
   {
      "name": "Chenoise",
      "countryCode": "FR",
      "stateCode": "IDF",
      "latitude": "48.61462000",
      "longitude": "3.19459000"
   },
   {
      "name": "Cheptainville",
      "countryCode": "FR",
      "stateCode": "IDF",
      "latitude": "48.55090000",
      "longitude": "2.27665000"
   },
   {
      "name": "Chessy",
      "countryCode": "FR",
      "stateCode": "IDF",
      "latitude": "48.88333000",
      "longitude": "2.76667000"
   },
   {
      "name": "Chevannes",
      "countryCode": "FR",
      "stateCode": "IDF",
      "latitude": "48.53259000",
      "longitude": "2.44388000"
   },
   {
      "name": "Chevilly-Larue",
      "countryCode": "FR",
      "stateCode": "IDF",
      "latitude": "48.76476000",
      "longitude": "2.35030000"
   },
   {
      "name": "Chevreuse",
      "countryCode": "FR",
      "stateCode": "IDF",
      "latitude": "48.70662000",
      "longitude": "2.03329000"
   },
   {
      "name": "Chevry-Cossigny",
      "countryCode": "FR",
      "stateCode": "IDF",
      "latitude": "48.72465000",
      "longitude": "2.66106000"
   },
   {
      "name": "Chilly-Mazarin",
      "countryCode": "FR",
      "stateCode": "IDF",
      "latitude": "48.71489000",
      "longitude": "2.31638000"
   },
   {
      "name": "Choisy-en-Brie",
      "countryCode": "FR",
      "stateCode": "IDF",
      "latitude": "48.75867000",
      "longitude": "3.21705000"
   },
   {
      "name": "Choisy-le-Roi",
      "countryCode": "FR",
      "stateCode": "IDF",
      "latitude": "48.76846000",
      "longitude": "2.41874000"
   },
   {
      "name": "Château-Landon",
      "countryCode": "FR",
      "stateCode": "IDF",
      "latitude": "48.14721000",
      "longitude": "2.69754000"
   },
   {
      "name": "Châteaufort",
      "countryCode": "FR",
      "stateCode": "IDF",
      "latitude": "48.73584000",
      "longitude": "2.09054000"
   },
   {
      "name": "Châtenay-Malabry",
      "countryCode": "FR",
      "stateCode": "IDF",
      "latitude": "48.76507000",
      "longitude": "2.26655000"
   },
   {
      "name": "Châtenay-sur-Seine",
      "countryCode": "FR",
      "stateCode": "IDF",
      "latitude": "48.41839000",
      "longitude": "3.09474000"
   },
   {
      "name": "Châtillon",
      "countryCode": "FR",
      "stateCode": "IDF",
      "latitude": "48.80240000",
      "longitude": "2.29346000"
   },
   {
      "name": "Clamart",
      "countryCode": "FR",
      "stateCode": "IDF",
      "latitude": "48.80299000",
      "longitude": "2.26692000"
   },
   {
      "name": "Claye-Souilly",
      "countryCode": "FR",
      "stateCode": "IDF",
      "latitude": "48.94492000",
      "longitude": "2.68566000"
   },
   {
      "name": "Clichy",
      "countryCode": "FR",
      "stateCode": "IDF",
      "latitude": "48.90018000",
      "longitude": "2.30952000"
   },
   {
      "name": "Clichy-sous-Bois",
      "countryCode": "FR",
      "stateCode": "IDF",
      "latitude": "48.91020000",
      "longitude": "2.55323000"
   },
   {
      "name": "Coignières",
      "countryCode": "FR",
      "stateCode": "IDF",
      "latitude": "48.75010000",
      "longitude": "1.92082000"
   },
   {
      "name": "Collégien",
      "countryCode": "FR",
      "stateCode": "IDF",
      "latitude": "48.83571000",
      "longitude": "2.67365000"
   },
   {
      "name": "Colombes",
      "countryCode": "FR",
      "stateCode": "IDF",
      "latitude": "48.91882000",
      "longitude": "2.25404000"
   },
   {
      "name": "Combs-la-Ville",
      "countryCode": "FR",
      "stateCode": "IDF",
      "latitude": "48.66497000",
      "longitude": "2.56957000"
   },
   {
      "name": "Conches-sur-Gondoire",
      "countryCode": "FR",
      "stateCode": "IDF",
      "latitude": "48.85624000",
      "longitude": "2.71783000"
   },
   {
      "name": "Condé-Sainte-Libiaire",
      "countryCode": "FR",
      "stateCode": "IDF",
      "latitude": "48.89695000",
      "longitude": "2.83904000"
   },
   {
      "name": "Condé-sur-Vesgre",
      "countryCode": "FR",
      "stateCode": "IDF",
      "latitude": "48.74199000",
      "longitude": "1.66069000"
   },
   {
      "name": "Conflans-Sainte-Honorine",
      "countryCode": "FR",
      "stateCode": "IDF",
      "latitude": "49.00158000",
      "longitude": "2.09694000"
   },
   {
      "name": "Congis-sur-Thérouanne",
      "countryCode": "FR",
      "stateCode": "IDF",
      "latitude": "49.00000000",
      "longitude": "2.98333000"
   },
   {
      "name": "Corbeil-Essonnes",
      "countryCode": "FR",
      "stateCode": "IDF",
      "latitude": "48.60603000",
      "longitude": "2.48757000"
   },
   {
      "name": "Corbreuse",
      "countryCode": "FR",
      "stateCode": "IDF",
      "latitude": "48.50065000",
      "longitude": "1.95913000"
   },
   {
      "name": "Cormeilles-en-Parisis",
      "countryCode": "FR",
      "stateCode": "IDF",
      "latitude": "48.97111000",
      "longitude": "2.20491000"
   },
   {
      "name": "Coubert",
      "countryCode": "FR",
      "stateCode": "IDF",
      "latitude": "48.67186000",
      "longitude": "2.69733000"
   },
   {
      "name": "Coubron",
      "countryCode": "FR",
      "stateCode": "IDF",
      "latitude": "48.91667000",
      "longitude": "2.58333000"
   },
   {
      "name": "Couilly-Pont-aux-Dames",
      "countryCode": "FR",
      "stateCode": "IDF",
      "latitude": "48.88473000",
      "longitude": "2.85677000"
   },
   {
      "name": "Coulommiers",
      "countryCode": "FR",
      "stateCode": "IDF",
      "latitude": "48.81451000",
      "longitude": "3.08498000"
   },
   {
      "name": "Coupvray",
      "countryCode": "FR",
      "stateCode": "IDF",
      "latitude": "48.89289000",
      "longitude": "2.79670000"
   },
   {
      "name": "Courbevoie",
      "countryCode": "FR",
      "stateCode": "IDF",
      "latitude": "48.89672000",
      "longitude": "2.25666000"
   },
   {
      "name": "Courcouronnes",
      "countryCode": "FR",
      "stateCode": "IDF",
      "latitude": "48.61429000",
      "longitude": "2.40762000"
   },
   {
      "name": "Courdimanche",
      "countryCode": "FR",
      "stateCode": "IDF",
      "latitude": "49.03513000",
      "longitude": "2.00096000"
   },
   {
      "name": "Courpalay",
      "countryCode": "FR",
      "stateCode": "IDF",
      "latitude": "48.64947000",
      "longitude": "2.96116000"
   },
   {
      "name": "Courtry",
      "countryCode": "FR",
      "stateCode": "IDF",
      "latitude": "48.91906000",
      "longitude": "2.60431000"
   },
   {
      "name": "Crespières",
      "countryCode": "FR",
      "stateCode": "IDF",
      "latitude": "48.88317000",
      "longitude": "1.92151000"
   },
   {
      "name": "Croissy-Beaubourg",
      "countryCode": "FR",
      "stateCode": "IDF",
      "latitude": "48.82830000",
      "longitude": "2.66964000"
   },
   {
      "name": "Croissy-sur-Seine",
      "countryCode": "FR",
      "stateCode": "IDF",
      "latitude": "48.87925000",
      "longitude": "2.13836000"
   },
   {
      "name": "Crosne",
      "countryCode": "FR",
      "stateCode": "IDF",
      "latitude": "48.71921000",
      "longitude": "2.45728000"
   },
   {
      "name": "Crouy-sur-Ourcq",
      "countryCode": "FR",
      "stateCode": "IDF",
      "latitude": "49.08980000",
      "longitude": "3.07530000"
   },
   {
      "name": "Crégy-lès-Meaux",
      "countryCode": "FR",
      "stateCode": "IDF",
      "latitude": "48.97648000",
      "longitude": "2.87483000"
   },
   {
      "name": "Créteil",
      "countryCode": "FR",
      "stateCode": "IDF",
      "latitude": "48.79266000",
      "longitude": "2.46569000"
   },
   {
      "name": "Cély",
      "countryCode": "FR",
      "stateCode": "IDF",
      "latitude": "48.45959000",
      "longitude": "2.53245000"
   },
   {
      "name": "Dammarie-les-Lys",
      "countryCode": "FR",
      "stateCode": "IDF",
      "latitude": "48.51667000",
      "longitude": "2.65000000"
   },
   {
      "name": "Dammartin-en-Goële",
      "countryCode": "FR",
      "stateCode": "IDF",
      "latitude": "49.05423000",
      "longitude": "2.67777000"
   },
   {
      "name": "Dampierre-en-Yvelines",
      "countryCode": "FR",
      "stateCode": "IDF",
      "latitude": "48.70000000",
      "longitude": "1.98333000"
   },
   {
      "name": "Dampmart",
      "countryCode": "FR",
      "stateCode": "IDF",
      "latitude": "48.88854000",
      "longitude": "2.74095000"
   },
   {
      "name": "Deuil-la-Barre",
      "countryCode": "FR",
      "stateCode": "IDF",
      "latitude": "48.97674000",
      "longitude": "2.32722000"
   },
   {
      "name": "Domont",
      "countryCode": "FR",
      "stateCode": "IDF",
      "latitude": "49.02782000",
      "longitude": "2.32638000"
   },
   {
      "name": "Donnemarie-Dontilly",
      "countryCode": "FR",
      "stateCode": "IDF",
      "latitude": "48.47719000",
      "longitude": "3.13162000"
   },
   {
      "name": "Doue",
      "countryCode": "FR",
      "stateCode": "IDF",
      "latitude": "48.86641000",
      "longitude": "3.16269000"
   },
   {
      "name": "Dourdan",
      "countryCode": "FR",
      "stateCode": "IDF",
      "latitude": "48.52772000",
      "longitude": "2.01113000"
   },
   {
      "name": "Drancy",
      "countryCode": "FR",
      "stateCode": "IDF",
      "latitude": "48.92578000",
      "longitude": "2.44533000"
   },
   {
      "name": "Draveil",
      "countryCode": "FR",
      "stateCode": "IDF",
      "latitude": "48.68466000",
      "longitude": "2.41418000"
   },
   {
      "name": "Dugny",
      "countryCode": "FR",
      "stateCode": "IDF",
      "latitude": "48.95371000",
      "longitude": "2.41734000"
   },
   {
      "name": "Département de l'Essonne",
      "countryCode": "FR",
      "stateCode": "IDF",
      "latitude": "48.50000000",
      "longitude": "2.25000000"
   },
   {
      "name": "Département du Val-d’Oise",
      "countryCode": "FR",
      "stateCode": "IDF",
      "latitude": "49.07891000",
      "longitude": "2.17673000"
   },
   {
      "name": "Eaubonne",
      "countryCode": "FR",
      "stateCode": "IDF",
      "latitude": "48.99712000",
      "longitude": "2.28249000"
   },
   {
      "name": "Ecquevilly",
      "countryCode": "FR",
      "stateCode": "IDF",
      "latitude": "48.95192000",
      "longitude": "1.92338000"
   },
   {
      "name": "Enghien-les-Bains",
      "countryCode": "FR",
      "stateCode": "IDF",
      "latitude": "48.96667000",
      "longitude": "2.31667000"
   },
   {
      "name": "Ennery",
      "countryCode": "FR",
      "stateCode": "IDF",
      "latitude": "49.07505000",
      "longitude": "2.10599000"
   },
   {
      "name": "Ermont",
      "countryCode": "FR",
      "stateCode": "IDF",
      "latitude": "48.99004000",
      "longitude": "2.25804000"
   },
   {
      "name": "Esbly",
      "countryCode": "FR",
      "stateCode": "IDF",
      "latitude": "48.90520000",
      "longitude": "2.81235000"
   },
   {
      "name": "Faremoutiers",
      "countryCode": "FR",
      "stateCode": "IDF",
      "latitude": "48.79962000",
      "longitude": "2.99607000"
   },
   {
      "name": "Favières",
      "countryCode": "FR",
      "stateCode": "IDF",
      "latitude": "48.76324000",
      "longitude": "2.77470000"
   },
   {
      "name": "Ferrières-en-Brie",
      "countryCode": "FR",
      "stateCode": "IDF",
      "latitude": "48.82352000",
      "longitude": "2.70664000"
   },
   {
      "name": "Feucherolles",
      "countryCode": "FR",
      "stateCode": "IDF",
      "latitude": "48.87002000",
      "longitude": "1.97402000"
   },
   {
      "name": "Fleury-Mérogis",
      "countryCode": "FR",
      "stateCode": "IDF",
      "latitude": "48.63730000",
      "longitude": "2.36378000"
   },
   {
      "name": "Flins-sur-Seine",
      "countryCode": "FR",
      "stateCode": "IDF",
      "latitude": "48.96523000",
      "longitude": "1.87314000"
   },
   {
      "name": "Follainville-Dennemont",
      "countryCode": "FR",
      "stateCode": "IDF",
      "latitude": "49.02194000",
      "longitude": "1.71331000"
   },
   {
      "name": "Fontainebleau",
      "countryCode": "FR",
      "stateCode": "IDF",
      "latitude": "48.40908000",
      "longitude": "2.70177000"
   },
   {
      "name": "Fontenay-Trésigny",
      "countryCode": "FR",
      "stateCode": "IDF",
      "latitude": "48.70647000",
      "longitude": "2.87047000"
   },
   {
      "name": "Fontenay-aux-Roses",
      "countryCode": "FR",
      "stateCode": "IDF",
      "latitude": "48.79325000",
      "longitude": "2.29275000"
   },
   {
      "name": "Fontenay-en-Parisis",
      "countryCode": "FR",
      "stateCode": "IDF",
      "latitude": "49.05371000",
      "longitude": "2.45156000"
   },
   {
      "name": "Fontenay-le-Fleury",
      "countryCode": "FR",
      "stateCode": "IDF",
      "latitude": "48.81253000",
      "longitude": "2.04863000"
   },
   {
      "name": "Fontenay-lès-Briis",
      "countryCode": "FR",
      "stateCode": "IDF",
      "latitude": "48.61962000",
      "longitude": "2.15276000"
   },
   {
      "name": "Fontenay-sous-Bois",
      "countryCode": "FR",
      "stateCode": "IDF",
      "latitude": "48.85442000",
      "longitude": "2.48268000"
   },
   {
      "name": "Forges-les-Bains",
      "countryCode": "FR",
      "stateCode": "IDF",
      "latitude": "48.62942000",
      "longitude": "2.10264000"
   },
   {
      "name": "Fosses",
      "countryCode": "FR",
      "stateCode": "IDF",
      "latitude": "49.09808000",
      "longitude": "2.50957000"
   },
   {
      "name": "Fourqueux",
      "countryCode": "FR",
      "stateCode": "IDF",
      "latitude": "48.88693000",
      "longitude": "2.06367000"
   },
   {
      "name": "Franconville",
      "countryCode": "FR",
      "stateCode": "IDF",
      "latitude": "48.98333000",
      "longitude": "2.23333000"
   },
   {
      "name": "Freneuse",
      "countryCode": "FR",
      "stateCode": "IDF",
      "latitude": "49.04832000",
      "longitude": "1.60168000"
   },
   {
      "name": "Fresnes",
      "countryCode": "FR",
      "stateCode": "IDF",
      "latitude": "48.75568000",
      "longitude": "2.32241000"
   },
   {
      "name": "Frépillon",
      "countryCode": "FR",
      "stateCode": "IDF",
      "latitude": "49.05216000",
      "longitude": "2.20528000"
   },
   {
      "name": "Fublaines",
      "countryCode": "FR",
      "stateCode": "IDF",
      "latitude": "48.93816000",
      "longitude": "2.93655000"
   },
   {
      "name": "Férolles-Attilly",
      "countryCode": "FR",
      "stateCode": "IDF",
      "latitude": "48.73184000",
      "longitude": "2.63088000"
   },
   {
      "name": "Gagny",
      "countryCode": "FR",
      "stateCode": "IDF",
      "latitude": "48.88333000",
      "longitude": "2.53333000"
   },
   {
      "name": "Galluis",
      "countryCode": "FR",
      "stateCode": "IDF",
      "latitude": "48.79657000",
      "longitude": "1.79414000"
   },
   {
      "name": "Gambais",
      "countryCode": "FR",
      "stateCode": "IDF",
      "latitude": "48.77351000",
      "longitude": "1.67196000"
   },
   {
      "name": "Garancières",
      "countryCode": "FR",
      "stateCode": "IDF",
      "latitude": "48.82271000",
      "longitude": "1.75512000"
   },
   {
      "name": "Garches",
      "countryCode": "FR",
      "stateCode": "IDF",
      "latitude": "48.84226000",
      "longitude": "2.18232000"
   },
   {
      "name": "Gargenville",
      "countryCode": "FR",
      "stateCode": "IDF",
      "latitude": "48.98802000",
      "longitude": "1.81176000"
   },
   {
      "name": "Garges-lès-Gonesse",
      "countryCode": "FR",
      "stateCode": "IDF",
      "latitude": "48.96791000",
      "longitude": "2.39781000"
   },
   {
      "name": "Gazeran",
      "countryCode": "FR",
      "stateCode": "IDF",
      "latitude": "48.63264000",
      "longitude": "1.77149000"
   },
   {
      "name": "Gennevilliers",
      "countryCode": "FR",
      "stateCode": "IDF",
      "latitude": "48.93333000",
      "longitude": "2.30000000"
   },
   {
      "name": "Gentilly",
      "countryCode": "FR",
      "stateCode": "IDF",
      "latitude": "48.81294000",
      "longitude": "2.34170000"
   },
   {
      "name": "Gif-sur-Yvette",
      "countryCode": "FR",
      "stateCode": "IDF",
      "latitude": "48.68333000",
      "longitude": "2.13333000"
   },
   {
      "name": "Gometz-la-Ville",
      "countryCode": "FR",
      "stateCode": "IDF",
      "latitude": "48.67219000",
      "longitude": "2.12868000"
   },
   {
      "name": "Gometz-le-Châtel",
      "countryCode": "FR",
      "stateCode": "IDF",
      "latitude": "48.67837000",
      "longitude": "2.13792000"
   },
   {
      "name": "Gonesse",
      "countryCode": "FR",
      "stateCode": "IDF",
      "latitude": "48.98693000",
      "longitude": "2.44892000"
   },
   {
      "name": "Gouaix",
      "countryCode": "FR",
      "stateCode": "IDF",
      "latitude": "48.48539000",
      "longitude": "3.29336000"
   },
   {
      "name": "Gournay-sur-Marne",
      "countryCode": "FR",
      "stateCode": "IDF",
      "latitude": "48.86223000",
      "longitude": "2.58452000"
   },
   {
      "name": "Goussainville",
      "countryCode": "FR",
      "stateCode": "IDF",
      "latitude": "49.01367000",
      "longitude": "2.46595000"
   },
   {
      "name": "Gouvernes",
      "countryCode": "FR",
      "stateCode": "IDF",
      "latitude": "48.86007000",
      "longitude": "2.69074000"
   },
   {
      "name": "Gretz-Armainvilliers",
      "countryCode": "FR",
      "stateCode": "IDF",
      "latitude": "48.74120000",
      "longitude": "2.73105000"
   },
   {
      "name": "Grez-sur-Loing",
      "countryCode": "FR",
      "stateCode": "IDF",
      "latitude": "48.31754000",
      "longitude": "2.68848000"
   },
   {
      "name": "Grigny",
      "countryCode": "FR",
      "stateCode": "IDF",
      "latitude": "48.65412000",
      "longitude": "2.39343000"
   },
   {
      "name": "Grisy-Suisnes",
      "countryCode": "FR",
      "stateCode": "IDF",
      "latitude": "48.68538000",
      "longitude": "2.66781000"
   },
   {
      "name": "Groslay",
      "countryCode": "FR",
      "stateCode": "IDF",
      "latitude": "48.98561000",
      "longitude": "2.34736000"
   },
   {
      "name": "Guermantes",
      "countryCode": "FR",
      "stateCode": "IDF",
      "latitude": "48.85303000",
      "longitude": "2.70495000"
   },
   {
      "name": "Guerville",
      "countryCode": "FR",
      "stateCode": "IDF",
      "latitude": "48.94388000",
      "longitude": "1.73429000"
   },
   {
      "name": "Guignes",
      "countryCode": "FR",
      "stateCode": "IDF",
      "latitude": "48.63333000",
      "longitude": "2.80000000"
   },
   {
      "name": "Guyancourt",
      "countryCode": "FR",
      "stateCode": "IDF",
      "latitude": "48.77334000",
      "longitude": "2.07393000"
   },
   {
      "name": "Guérard",
      "countryCode": "FR",
      "stateCode": "IDF",
      "latitude": "48.82086000",
      "longitude": "2.95969000"
   },
   {
      "name": "Hardricourt",
      "countryCode": "FR",
      "stateCode": "IDF",
      "latitude": "49.00779000",
      "longitude": "1.89389000"
   },
   {
      "name": "Hauts-de-Seine",
      "countryCode": "FR",
      "stateCode": "IDF",
      "latitude": "48.85000000",
      "longitude": "2.19293000"
   },
   {
      "name": "Herblay",
      "countryCode": "FR",
      "stateCode": "IDF",
      "latitude": "48.98994000",
      "longitude": "2.16990000"
   },
   {
      "name": "Houdan",
      "countryCode": "FR",
      "stateCode": "IDF",
      "latitude": "48.79044000",
      "longitude": "1.60007000"
   },
   {
      "name": "Houilles",
      "countryCode": "FR",
      "stateCode": "IDF",
      "latitude": "48.92161000",
      "longitude": "2.19263000"
   },
   {
      "name": "Héricy",
      "countryCode": "FR",
      "stateCode": "IDF",
      "latitude": "48.44848000",
      "longitude": "2.76445000"
   },
   {
      "name": "Igny",
      "countryCode": "FR",
      "stateCode": "IDF",
      "latitude": "48.74437000",
      "longitude": "2.22428000"
   },
   {
      "name": "Issou",
      "countryCode": "FR",
      "stateCode": "IDF",
      "latitude": "48.98994000",
      "longitude": "1.79292000"
   },
   {
      "name": "Issy-les-Moulineaux",
      "countryCode": "FR",
      "stateCode": "IDF",
      "latitude": "48.82104000",
      "longitude": "2.27718000"
   },
   {
      "name": "Itteville",
      "countryCode": "FR",
      "stateCode": "IDF",
      "latitude": "48.51536000",
      "longitude": "2.34377000"
   },
   {
      "name": "Ivry-sur-Seine",
      "countryCode": "FR",
      "stateCode": "IDF",
      "latitude": "48.81568000",
      "longitude": "2.38487000"
   },
   {
      "name": "Janville-sur-Juine",
      "countryCode": "FR",
      "stateCode": "IDF",
      "latitude": "48.51352000",
      "longitude": "2.27064000"
   },
   {
      "name": "Joinville-le-Pont",
      "countryCode": "FR",
      "stateCode": "IDF",
      "latitude": "48.82538000",
      "longitude": "2.47458000"
   },
   {
      "name": "Jouarre",
      "countryCode": "FR",
      "stateCode": "IDF",
      "latitude": "48.92661000",
      "longitude": "3.13168000"
   },
   {
      "name": "Jouars-Pontchartrain",
      "countryCode": "FR",
      "stateCode": "IDF",
      "latitude": "48.78888000",
      "longitude": "1.89898000"
   },
   {
      "name": "Jouy-en-Josas",
      "countryCode": "FR",
      "stateCode": "IDF",
      "latitude": "48.75909000",
      "longitude": "2.16966000"
   },
   {
      "name": "Jouy-le-Châtel",
      "countryCode": "FR",
      "stateCode": "IDF",
      "latitude": "48.66651000",
      "longitude": "3.13036000"
   },
   {
      "name": "Jouy-le-Moutier",
      "countryCode": "FR",
      "stateCode": "IDF",
      "latitude": "49.01068000",
      "longitude": "2.04028000"
   },
   {
      "name": "Jouy-sur-Morin",
      "countryCode": "FR",
      "stateCode": "IDF",
      "latitude": "48.79500000",
      "longitude": "3.27238000"
   },
   {
      "name": "Juilly",
      "countryCode": "FR",
      "stateCode": "IDF",
      "latitude": "49.01375000",
      "longitude": "2.70563000"
   },
   {
      "name": "Juvisy-sur-Orge",
      "countryCode": "FR",
      "stateCode": "IDF",
      "latitude": "48.68333000",
      "longitude": "2.38333000"
   },
   {
      "name": "Juziers",
      "countryCode": "FR",
      "stateCode": "IDF",
      "latitude": "48.99137000",
      "longitude": "1.84760000"
   },
   {
      "name": "L'Haÿ-les-Roses",
      "countryCode": "FR",
      "stateCode": "IDF",
      "latitude": "48.78333000",
      "longitude": "2.33333000"
   },
   {
      "name": "La Celle-Saint-Cloud",
      "countryCode": "FR",
      "stateCode": "IDF",
      "latitude": "48.85029000",
      "longitude": "2.14523000"
   },
   {
      "name": "La Celle-sur-Morin",
      "countryCode": "FR",
      "stateCode": "IDF",
      "latitude": "48.81146000",
      "longitude": "2.96921000"
   },
   {
      "name": "La Chapelle-Gauthier",
      "countryCode": "FR",
      "stateCode": "IDF",
      "latitude": "48.54947000",
      "longitude": "2.89776000"
   },
   {
      "name": "La Chapelle-la-Reine",
      "countryCode": "FR",
      "stateCode": "IDF",
      "latitude": "48.31813000",
      "longitude": "2.57152000"
   },
   {
      "name": "La Chapelle-sur-Crécy",
      "countryCode": "FR",
      "stateCode": "IDF",
      "latitude": "48.85879000",
      "longitude": "2.92597000"
   },
   {
      "name": "La Courneuve",
      "countryCode": "FR",
      "stateCode": "IDF",
      "latitude": "48.92805000",
      "longitude": "2.39627000"
   },
   {
      "name": "La Defense",
      "countryCode": "FR",
      "stateCode": "IDF",
      "latitude": "48.89198000",
      "longitude": "2.23881000"
   },
   {
      "name": "La Ferté-Alais",
      "countryCode": "FR",
      "stateCode": "IDF",
      "latitude": "48.48306000",
      "longitude": "2.34802000"
   },
   {
      "name": "La Ferté-Gaucher",
      "countryCode": "FR",
      "stateCode": "IDF",
      "latitude": "48.78310000",
      "longitude": "3.30678000"
   },
   {
      "name": "La Ferté-sous-Jouarre",
      "countryCode": "FR",
      "stateCode": "IDF",
      "latitude": "48.95140000",
      "longitude": "3.12724000"
   },
   {
      "name": "La Frette-sur-Seine",
      "countryCode": "FR",
      "stateCode": "IDF",
      "latitude": "48.98057000",
      "longitude": "2.17866000"
   },
   {
      "name": "La Garenne-Colombes",
      "countryCode": "FR",
      "stateCode": "IDF",
      "latitude": "48.90472000",
      "longitude": "2.24690000"
   },
   {
      "name": "La Grande-Paroisse",
      "countryCode": "FR",
      "stateCode": "IDF",
      "latitude": "48.38682000",
      "longitude": "2.90157000"
   },
   {
      "name": "La Houssaye-en-Brie",
      "countryCode": "FR",
      "stateCode": "IDF",
      "latitude": "48.75381000",
      "longitude": "2.86552000"
   },
   {
      "name": "La Norville",
      "countryCode": "FR",
      "stateCode": "IDF",
      "latitude": "48.58243000",
      "longitude": "2.26180000"
   },
   {
      "name": "La Queue-en-Brie",
      "countryCode": "FR",
      "stateCode": "IDF",
      "latitude": "48.78520000",
      "longitude": "2.58112000"
   },
   {
      "name": "La Queue-les-Yvelines",
      "countryCode": "FR",
      "stateCode": "IDF",
      "latitude": "48.80000000",
      "longitude": "1.76667000"
   },
   {
      "name": "La Rochette",
      "countryCode": "FR",
      "stateCode": "IDF",
      "latitude": "48.50882000",
      "longitude": "2.66357000"
   },
   {
      "name": "La Verrière",
      "countryCode": "FR",
      "stateCode": "IDF",
      "latitude": "48.75200000",
      "longitude": "1.94649000"
   },
   {
      "name": "La Ville-du-Bois",
      "countryCode": "FR",
      "stateCode": "IDF",
      "latitude": "48.65521000",
      "longitude": "2.26833000"
   },
   {
      "name": "Lagny-sur-Marne",
      "countryCode": "FR",
      "stateCode": "IDF",
      "latitude": "48.86667000",
      "longitude": "2.71667000"
   },
   {
      "name": "Lardy",
      "countryCode": "FR",
      "stateCode": "IDF",
      "latitude": "48.51847000",
      "longitude": "2.27360000"
   },
   {
      "name": "Le Blanc-Mesnil",
      "countryCode": "FR",
      "stateCode": "IDF",
      "latitude": "48.93872000",
      "longitude": "2.46138000"
   },
   {
      "name": "Le Bourget",
      "countryCode": "FR",
      "stateCode": "IDF",
      "latitude": "48.93405000",
      "longitude": "2.43584000"
   },
   {
      "name": "Le Chesnay",
      "countryCode": "FR",
      "stateCode": "IDF",
      "latitude": "48.82220000",
      "longitude": "2.12213000"
   },
   {
      "name": "Le Châtelet-en-Brie",
      "countryCode": "FR",
      "stateCode": "IDF",
      "latitude": "48.50695000",
      "longitude": "2.79163000"
   },
   {
      "name": "Le Coudray-Montceaux",
      "countryCode": "FR",
      "stateCode": "IDF",
      "latitude": "48.56376000",
      "longitude": "2.50013000"
   },
   {
      "name": "Le Kremlin-Bicêtre",
      "countryCode": "FR",
      "stateCode": "IDF",
      "latitude": "48.81471000",
      "longitude": "2.36073000"
   },
   {
      "name": "Le Mesnil-Saint-Denis",
      "countryCode": "FR",
      "stateCode": "IDF",
      "latitude": "48.74485000",
      "longitude": "1.95594000"
   },
   {
      "name": "Le Mesnil-le-Roi",
      "countryCode": "FR",
      "stateCode": "IDF",
      "latitude": "48.93825000",
      "longitude": "2.12554000"
   },
   {
      "name": "Le Mée-sur-Seine",
      "countryCode": "FR",
      "stateCode": "IDF",
      "latitude": "48.53157000",
      "longitude": "2.62829000"
   },
   {
      "name": "Le Pecq",
      "countryCode": "FR",
      "stateCode": "IDF",
      "latitude": "48.89317000",
      "longitude": "2.10371000"
   },
   {
      "name": "Le Perray-en-Yvelines",
      "countryCode": "FR",
      "stateCode": "IDF",
      "latitude": "48.69441000",
      "longitude": "1.85643000"
   },
   {
      "name": "Le Perreux-sur-Marne",
      "countryCode": "FR",
      "stateCode": "IDF",
      "latitude": "48.85000000",
      "longitude": "2.50000000"
   },
   {
      "name": "Le Pin",
      "countryCode": "FR",
      "stateCode": "IDF",
      "latitude": "48.91523000",
      "longitude": "2.62841000"
   },
   {
      "name": "Le Plessis-Bouchard",
      "countryCode": "FR",
      "stateCode": "IDF",
      "latitude": "49.00000000",
      "longitude": "2.23333000"
   },
   {
      "name": "Le Plessis-Pâté",
      "countryCode": "FR",
      "stateCode": "IDF",
      "latitude": "48.61078000",
      "longitude": "2.32318000"
   },
   {
      "name": "Le Plessis-Robinson",
      "countryCode": "FR",
      "stateCode": "IDF",
      "latitude": "48.78889000",
      "longitude": "2.27078000"
   },
   {
      "name": "Le Plessis-Trévise",
      "countryCode": "FR",
      "stateCode": "IDF",
      "latitude": "48.81074000",
      "longitude": "2.57363000"
   },
   {
      "name": "Le Port-Marly",
      "countryCode": "FR",
      "stateCode": "IDF",
      "latitude": "48.89016000",
      "longitude": "2.11139000"
   },
   {
      "name": "Le Pré-Saint-Gervais",
      "countryCode": "FR",
      "stateCode": "IDF",
      "latitude": "48.88549000",
      "longitude": "2.40422000"
   },
   {
      "name": "Le Raincy",
      "countryCode": "FR",
      "stateCode": "IDF",
      "latitude": "48.89916000",
      "longitude": "2.52298000"
   },
   {
      "name": "Le Thillay",
      "countryCode": "FR",
      "stateCode": "IDF",
      "latitude": "49.00659000",
      "longitude": "2.47218000"
   },
   {
      "name": "Le Val-Saint-Germain",
      "countryCode": "FR",
      "stateCode": "IDF",
      "latitude": "48.56601000",
      "longitude": "2.06471000"
   },
   {
      "name": "Le Vésinet",
      "countryCode": "FR",
      "stateCode": "IDF",
      "latitude": "48.89281000",
      "longitude": "2.13308000"
   },
   {
      "name": "Les Alluets-le-Roi",
      "countryCode": "FR",
      "stateCode": "IDF",
      "latitude": "48.91379000",
      "longitude": "1.91810000"
   },
   {
      "name": "Les Clayes-sous-Bois",
      "countryCode": "FR",
      "stateCode": "IDF",
      "latitude": "48.82206000",
      "longitude": "1.98677000"
   },
   {
      "name": "Les Essarts-le-Roi",
      "countryCode": "FR",
      "stateCode": "IDF",
      "latitude": "48.71673000",
      "longitude": "1.90089000"
   },
   {
      "name": "Les Lilas",
      "countryCode": "FR",
      "stateCode": "IDF",
      "latitude": "48.87992000",
      "longitude": "2.42057000"
   },
   {
      "name": "Les Loges-en-Josas",
      "countryCode": "FR",
      "stateCode": "IDF",
      "latitude": "48.76377000",
      "longitude": "2.14002000"
   },
   {
      "name": "Les Molières",
      "countryCode": "FR",
      "stateCode": "IDF",
      "latitude": "48.67306000",
      "longitude": "2.06959000"
   },
   {
      "name": "Les Mureaux",
      "countryCode": "FR",
      "stateCode": "IDF",
      "latitude": "48.99173000",
      "longitude": "1.90972000"
   },
   {
      "name": "Les Pavillons-sous-Bois",
      "countryCode": "FR",
      "stateCode": "IDF",
      "latitude": "48.90683000",
      "longitude": "2.50648000"
   },
   {
      "name": "Les Ulis",
      "countryCode": "FR",
      "stateCode": "IDF",
      "latitude": "48.68167000",
      "longitude": "2.16944000"
   },
   {
      "name": "Leudeville",
      "countryCode": "FR",
      "stateCode": "IDF",
      "latitude": "48.56591000",
      "longitude": "2.32676000"
   },
   {
      "name": "Leuville-sur-Orge",
      "countryCode": "FR",
      "stateCode": "IDF",
      "latitude": "48.61730000",
      "longitude": "2.26685000"
   },
   {
      "name": "Levallois-Perret",
      "countryCode": "FR",
      "stateCode": "IDF",
      "latitude": "48.89389000",
      "longitude": "2.28864000"
   },
   {
      "name": "Lieusaint",
      "countryCode": "FR",
      "stateCode": "IDF",
      "latitude": "48.63476000",
      "longitude": "2.54806000"
   },
   {
      "name": "Limay",
      "countryCode": "FR",
      "stateCode": "IDF",
      "latitude": "48.99553000",
      "longitude": "1.74081000"
   },
   {
      "name": "Limeil-Brévannes",
      "countryCode": "FR",
      "stateCode": "IDF",
      "latitude": "48.74480000",
      "longitude": "2.48705000"
   },
   {
      "name": "Limetz-Villez",
      "countryCode": "FR",
      "stateCode": "IDF",
      "latitude": "49.06667000",
      "longitude": "1.55000000"
   },
   {
      "name": "Limours",
      "countryCode": "FR",
      "stateCode": "IDF",
      "latitude": "48.64625000",
      "longitude": "2.07688000"
   },
   {
      "name": "Linas",
      "countryCode": "FR",
      "stateCode": "IDF",
      "latitude": "48.63041000",
      "longitude": "2.26266000"
   },
   {
      "name": "Lisses",
      "countryCode": "FR",
      "stateCode": "IDF",
      "latitude": "48.60222000",
      "longitude": "2.42245000"
   },
   {
      "name": "Liverdy-en-Brie",
      "countryCode": "FR",
      "stateCode": "IDF",
      "latitude": "48.69987000",
      "longitude": "2.77606000"
   },
   {
      "name": "Livry-Gargan",
      "countryCode": "FR",
      "stateCode": "IDF",
      "latitude": "48.91930000",
      "longitude": "2.54305000"
   },
   {
      "name": "Livry-sur-Seine",
      "countryCode": "FR",
      "stateCode": "IDF",
      "latitude": "48.51771000",
      "longitude": "2.67879000"
   },
   {
      "name": "Lizy-sur-Ourcq",
      "countryCode": "FR",
      "stateCode": "IDF",
      "latitude": "49.02454000",
      "longitude": "3.02178000"
   },
   {
      "name": "Lognes",
      "countryCode": "FR",
      "stateCode": "IDF",
      "latitude": "48.83541000",
      "longitude": "2.62998000"
   },
   {
      "name": "Longjumeau",
      "countryCode": "FR",
      "stateCode": "IDF",
      "latitude": "48.69503000",
      "longitude": "2.30735000"
   },
   {
      "name": "Longnes",
      "countryCode": "FR",
      "stateCode": "IDF",
      "latitude": "48.92002000",
      "longitude": "1.58705000"
   },
   {
      "name": "Longperrier",
      "countryCode": "FR",
      "stateCode": "IDF",
      "latitude": "49.04844000",
      "longitude": "2.66571000"
   },
   {
      "name": "Longpont-sur-Orge",
      "countryCode": "FR",
      "stateCode": "IDF",
      "latitude": "48.64171000",
      "longitude": "2.29278000"
   },
   {
      "name": "Longueville",
      "countryCode": "FR",
      "stateCode": "IDF",
      "latitude": "48.51503000",
      "longitude": "3.24677000"
   },
   {
      "name": "Lorrez-le-Bocage-Préaux",
      "countryCode": "FR",
      "stateCode": "IDF",
      "latitude": "48.23333000",
      "longitude": "2.90000000"
   },
   {
      "name": "Louveciennes",
      "countryCode": "FR",
      "stateCode": "IDF",
      "latitude": "48.86115000",
      "longitude": "2.11463000"
   },
   {
      "name": "Louvres",
      "countryCode": "FR",
      "stateCode": "IDF",
      "latitude": "49.04460000",
      "longitude": "2.50479000"
   },
   {
      "name": "Lumigny-Nesles-Ormeaux",
      "countryCode": "FR",
      "stateCode": "IDF",
      "latitude": "48.73333000",
      "longitude": "2.95000000"
   },
   {
      "name": "Luzarches",
      "countryCode": "FR",
      "stateCode": "IDF",
      "latitude": "49.11319000",
      "longitude": "2.42230000"
   },
   {
      "name": "Lésigny",
      "countryCode": "FR",
      "stateCode": "IDF",
      "latitude": "48.74374000",
      "longitude": "2.61518000"
   },
   {
      "name": "Lévis-Saint-Nom",
      "countryCode": "FR",
      "stateCode": "IDF",
      "latitude": "48.71667000",
      "longitude": "1.95000000"
   },
   {
      "name": "L’Isle-Adam",
      "countryCode": "FR",
      "stateCode": "IDF",
      "latitude": "49.10744000",
      "longitude": "2.22818000"
   },
   {
      "name": "L’Étang-la-Ville",
      "countryCode": "FR",
      "stateCode": "IDF",
      "latitude": "48.86954000",
      "longitude": "2.05732000"
   },
   {
      "name": "Maffliers",
      "countryCode": "FR",
      "stateCode": "IDF",
      "latitude": "49.07758000",
      "longitude": "2.30768000"
   },
   {
      "name": "Magnanville",
      "countryCode": "FR",
      "stateCode": "IDF",
      "latitude": "48.96798000",
      "longitude": "1.67842000"
   },
   {
      "name": "Magny-en-Vexin",
      "countryCode": "FR",
      "stateCode": "IDF",
      "latitude": "49.15515000",
      "longitude": "1.78669000"
   },
   {
      "name": "Magny-le-Hongre",
      "countryCode": "FR",
      "stateCode": "IDF",
      "latitude": "48.86325000",
      "longitude": "2.81546000"
   },
   {
      "name": "Magny-les-Hameaux",
      "countryCode": "FR",
      "stateCode": "IDF",
      "latitude": "48.74345000",
      "longitude": "2.06154000"
   },
   {
      "name": "Maincy",
      "countryCode": "FR",
      "stateCode": "IDF",
      "latitude": "48.54977000",
      "longitude": "2.70017000"
   },
   {
      "name": "Maisons-Alfort",
      "countryCode": "FR",
      "stateCode": "IDF",
      "latitude": "48.81171000",
      "longitude": "2.43945000"
   },
   {
      "name": "Maisons-Laffitte",
      "countryCode": "FR",
      "stateCode": "IDF",
      "latitude": "48.95264000",
      "longitude": "2.14521000"
   },
   {
      "name": "Maisse",
      "countryCode": "FR",
      "stateCode": "IDF",
      "latitude": "48.39525000",
      "longitude": "2.37902000"
   },
   {
      "name": "Malakoff",
      "countryCode": "FR",
      "stateCode": "IDF",
      "latitude": "48.81999000",
      "longitude": "2.29998000"
   },
   {
      "name": "Mandres-les-Roses",
      "countryCode": "FR",
      "stateCode": "IDF",
      "latitude": "48.70198000",
      "longitude": "2.54662000"
   },
   {
      "name": "Mantes-la-Jolie",
      "countryCode": "FR",
      "stateCode": "IDF",
      "latitude": "48.99048000",
      "longitude": "1.71670000"
   },
   {
      "name": "Mantes-la-Ville",
      "countryCode": "FR",
      "stateCode": "IDF",
      "latitude": "48.97374000",
      "longitude": "1.70253000"
   },
   {
      "name": "Marcoussis",
      "countryCode": "FR",
      "stateCode": "IDF",
      "latitude": "48.64026000",
      "longitude": "2.23858000"
   },
   {
      "name": "Mareil-Marly",
      "countryCode": "FR",
      "stateCode": "IDF",
      "latitude": "48.88213000",
      "longitude": "2.07351000"
   },
   {
      "name": "Mareil-sur-Mauldre",
      "countryCode": "FR",
      "stateCode": "IDF",
      "latitude": "48.89521000",
      "longitude": "1.86870000"
   },
   {
      "name": "Mareuil-lès-Meaux",
      "countryCode": "FR",
      "stateCode": "IDF",
      "latitude": "48.92648000",
      "longitude": "2.86134000"
   },
   {
      "name": "Margency",
      "countryCode": "FR",
      "stateCode": "IDF",
      "latitude": "49.00000000",
      "longitude": "2.30000000"
   },
   {
      "name": "Marines",
      "countryCode": "FR",
      "stateCode": "IDF",
      "latitude": "49.14485000",
      "longitude": "1.98226000"
   },
   {
      "name": "Marles-en-Brie",
      "countryCode": "FR",
      "stateCode": "IDF",
      "latitude": "48.72783000",
      "longitude": "2.88003000"
   },
   {
      "name": "Marly-la-Ville",
      "countryCode": "FR",
      "stateCode": "IDF",
      "latitude": "49.08201000",
      "longitude": "2.50347000"
   },
   {
      "name": "Marly-le-Roi",
      "countryCode": "FR",
      "stateCode": "IDF",
      "latitude": "48.86667000",
      "longitude": "2.08333000"
   },
   {
      "name": "Marnes-la-Coquette",
      "countryCode": "FR",
      "stateCode": "IDF",
      "latitude": "48.82732000",
      "longitude": "2.17151000"
   },
   {
      "name": "Marolles-en-Hurepoix",
      "countryCode": "FR",
      "stateCode": "IDF",
      "latitude": "48.56232000",
      "longitude": "2.29885000"
   },
   {
      "name": "Marolles-sur-Seine",
      "countryCode": "FR",
      "stateCode": "IDF",
      "latitude": "48.38662000",
      "longitude": "3.03562000"
   },
   {
      "name": "Mary-sur-Marne",
      "countryCode": "FR",
      "stateCode": "IDF",
      "latitude": "49.01591000",
      "longitude": "3.02788000"
   },
   {
      "name": "Massy",
      "countryCode": "FR",
      "stateCode": "IDF",
      "latitude": "48.72692000",
      "longitude": "2.28301000"
   },
   {
      "name": "Maule",
      "countryCode": "FR",
      "stateCode": "IDF",
      "latitude": "48.91056000",
      "longitude": "1.85264000"
   },
   {
      "name": "Maurecourt",
      "countryCode": "FR",
      "stateCode": "IDF",
      "latitude": "48.99614000",
      "longitude": "2.06155000"
   },
   {
      "name": "Maurepas",
      "countryCode": "FR",
      "stateCode": "IDF",
      "latitude": "48.76486000",
      "longitude": "1.92923000"
   },
   {
      "name": "Meaux",
      "countryCode": "FR",
      "stateCode": "IDF",
      "latitude": "48.96014000",
      "longitude": "2.87885000"
   },
   {
      "name": "Melun",
      "countryCode": "FR",
      "stateCode": "IDF",
      "latitude": "48.54570000",
      "longitude": "2.65356000"
   },
   {
      "name": "Mennecy",
      "countryCode": "FR",
      "stateCode": "IDF",
      "latitude": "48.56903000",
      "longitude": "2.44384000"
   },
   {
      "name": "Menucourt",
      "countryCode": "FR",
      "stateCode": "IDF",
      "latitude": "49.02841000",
      "longitude": "1.98046000"
   },
   {
      "name": "Meudon",
      "countryCode": "FR",
      "stateCode": "IDF",
      "latitude": "48.81381000",
      "longitude": "2.23500000"
   },
   {
      "name": "Meulan-en-Yvelines",
      "countryCode": "FR",
      "stateCode": "IDF",
      "latitude": "49.00768000",
      "longitude": "1.90602000"
   },
   {
      "name": "Milly-la-Forêt",
      "countryCode": "FR",
      "stateCode": "IDF",
      "latitude": "48.40400000",
      "longitude": "2.47015000"
   },
   {
      "name": "Mitry-Mory",
      "countryCode": "FR",
      "stateCode": "IDF",
      "latitude": "48.98333000",
      "longitude": "2.61667000"
   },
   {
      "name": "Moigny-sur-École",
      "countryCode": "FR",
      "stateCode": "IDF",
      "latitude": "48.43262000",
      "longitude": "2.45802000"
   },
   {
      "name": "Moisenay",
      "countryCode": "FR",
      "stateCode": "IDF",
      "latitude": "48.56266000",
      "longitude": "2.73527000"
   },
   {
      "name": "Moisselles",
      "countryCode": "FR",
      "stateCode": "IDF",
      "latitude": "49.05000000",
      "longitude": "2.33597000"
   },
   {
      "name": "Moissy-Cramayel",
      "countryCode": "FR",
      "stateCode": "IDF",
      "latitude": "48.62605000",
      "longitude": "2.60125000"
   },
   {
      "name": "Montcourt-Fromonville",
      "countryCode": "FR",
      "stateCode": "IDF",
      "latitude": "48.30672000",
      "longitude": "2.70460000"
   },
   {
      "name": "Montereau-Fault-Yonne",
      "countryCode": "FR",
      "stateCode": "IDF",
      "latitude": "48.38333000",
      "longitude": "2.95000000"
   },
   {
      "name": "Montesson",
      "countryCode": "FR",
      "stateCode": "IDF",
      "latitude": "48.90924000",
      "longitude": "2.13754000"
   },
   {
      "name": "Montfermeil",
      "countryCode": "FR",
      "stateCode": "IDF",
      "latitude": "48.89820000",
      "longitude": "2.57913000"
   },
   {
      "name": "Montgeron",
      "countryCode": "FR",
      "stateCode": "IDF",
      "latitude": "48.70543000",
      "longitude": "2.45039000"
   },
   {
      "name": "Monthyon",
      "countryCode": "FR",
      "stateCode": "IDF",
      "latitude": "49.00753000",
      "longitude": "2.82610000"
   },
   {
      "name": "Montigny-Lencoup",
      "countryCode": "FR",
      "stateCode": "IDF",
      "latitude": "48.45162000",
      "longitude": "3.06503000"
   },
   {
      "name": "Montigny-le-Bretonneux",
      "countryCode": "FR",
      "stateCode": "IDF",
      "latitude": "48.76636000",
      "longitude": "2.03405000"
   },
   {
      "name": "Montigny-lès-Cormeilles",
      "countryCode": "FR",
      "stateCode": "IDF",
      "latitude": "48.98201000",
      "longitude": "2.20035000"
   },
   {
      "name": "Montigny-sur-Loing",
      "countryCode": "FR",
      "stateCode": "IDF",
      "latitude": "48.33575000",
      "longitude": "2.74423000"
   },
   {
      "name": "Montlhéry",
      "countryCode": "FR",
      "stateCode": "IDF",
      "latitude": "48.64004000",
      "longitude": "2.27465000"
   },
   {
      "name": "Montlignon",
      "countryCode": "FR",
      "stateCode": "IDF",
      "latitude": "49.00636000",
      "longitude": "2.28705000"
   },
   {
      "name": "Montmagny",
      "countryCode": "FR",
      "stateCode": "IDF",
      "latitude": "48.97338000",
      "longitude": "2.34688000"
   },
   {
      "name": "Montmorency",
      "countryCode": "FR",
      "stateCode": "IDF",
      "latitude": "48.98826000",
      "longitude": "2.34340000"
   },
   {
      "name": "Montreuil",
      "countryCode": "FR",
      "stateCode": "IDF",
      "latitude": "48.86415000",
      "longitude": "2.44322000"
   },
   {
      "name": "Montrouge",
      "countryCode": "FR",
      "stateCode": "IDF",
      "latitude": "48.81620000",
      "longitude": "2.31393000"
   },
   {
      "name": "Montry",
      "countryCode": "FR",
      "stateCode": "IDF",
      "latitude": "48.88409000",
      "longitude": "2.82915000"
   },
   {
      "name": "Montsoult",
      "countryCode": "FR",
      "stateCode": "IDF",
      "latitude": "49.06942000",
      "longitude": "2.31966000"
   },
   {
      "name": "Montévrain",
      "countryCode": "FR",
      "stateCode": "IDF",
      "latitude": "48.87415000",
      "longitude": "2.75114000"
   },
   {
      "name": "Morainvilliers",
      "countryCode": "FR",
      "stateCode": "IDF",
      "latitude": "48.92902000",
      "longitude": "1.93621000"
   },
   {
      "name": "Morangis",
      "countryCode": "FR",
      "stateCode": "IDF",
      "latitude": "48.70383000",
      "longitude": "2.33908000"
   },
   {
      "name": "Moret-sur-Loing",
      "countryCode": "FR",
      "stateCode": "IDF",
      "latitude": "48.37239000",
      "longitude": "2.81713000"
   },
   {
      "name": "Morigny-Champigny",
      "countryCode": "FR",
      "stateCode": "IDF",
      "latitude": "48.44685000",
      "longitude": "2.18351000"
   },
   {
      "name": "Mormant",
      "countryCode": "FR",
      "stateCode": "IDF",
      "latitude": "48.60901000",
      "longitude": "2.89025000"
   },
   {
      "name": "Morsang-sur-Orge",
      "countryCode": "FR",
      "stateCode": "IDF",
      "latitude": "48.66181000",
      "longitude": "2.35338000"
   },
   {
      "name": "Mortcerf",
      "countryCode": "FR",
      "stateCode": "IDF",
      "latitude": "48.78879000",
      "longitude": "2.91692000"
   },
   {
      "name": "Mouroux",
      "countryCode": "FR",
      "stateCode": "IDF",
      "latitude": "48.82263000",
      "longitude": "3.03879000"
   },
   {
      "name": "Mours",
      "countryCode": "FR",
      "stateCode": "IDF",
      "latitude": "49.13077000",
      "longitude": "2.26761000"
   },
   {
      "name": "Moussy-le-Neuf",
      "countryCode": "FR",
      "stateCode": "IDF",
      "latitude": "49.06427000",
      "longitude": "2.60252000"
   },
   {
      "name": "Moussy-le-Vieux",
      "countryCode": "FR",
      "stateCode": "IDF",
      "latitude": "49.04712000",
      "longitude": "2.62493000"
   },
   {
      "name": "Médan",
      "countryCode": "FR",
      "stateCode": "IDF",
      "latitude": "48.95539000",
      "longitude": "1.99494000"
   },
   {
      "name": "Mériel",
      "countryCode": "FR",
      "stateCode": "IDF",
      "latitude": "49.07614000",
      "longitude": "2.21054000"
   },
   {
      "name": "Méry-sur-Oise",
      "countryCode": "FR",
      "stateCode": "IDF",
      "latitude": "49.05876000",
      "longitude": "2.19113000"
   },
   {
      "name": "Méré",
      "countryCode": "FR",
      "stateCode": "IDF",
      "latitude": "48.78445000",
      "longitude": "1.81247000"
   },
   {
      "name": "Méréville",
      "countryCode": "FR",
      "stateCode": "IDF",
      "latitude": "48.31476000",
      "longitude": "2.08609000"
   },
   {
      "name": "Mézières-sur-Seine",
      "countryCode": "FR",
      "stateCode": "IDF",
      "latitude": "48.96128000",
      "longitude": "1.79245000"
   },
   {
      "name": "Mézy-sur-Seine",
      "countryCode": "FR",
      "stateCode": "IDF",
      "latitude": "49.00000000",
      "longitude": "1.88333000"
   },
   {
      "name": "Nandy",
      "countryCode": "FR",
      "stateCode": "IDF",
      "latitude": "48.58301000",
      "longitude": "2.56292000"
   },
   {
      "name": "Nangis",
      "countryCode": "FR",
      "stateCode": "IDF",
      "latitude": "48.55535000",
      "longitude": "3.01306000"
   },
   {
      "name": "Nanterre",
      "countryCode": "FR",
      "stateCode": "IDF",
      "latitude": "48.89198000",
      "longitude": "2.20675000"
   },
   {
      "name": "Nanteuil-lès-Meaux",
      "countryCode": "FR",
      "stateCode": "IDF",
      "latitude": "48.92940000",
      "longitude": "2.89594000"
   },
   {
      "name": "Neauphle-le-Château",
      "countryCode": "FR",
      "stateCode": "IDF",
      "latitude": "48.81418000",
      "longitude": "1.90567000"
   },
   {
      "name": "Nemours",
      "countryCode": "FR",
      "stateCode": "IDF",
      "latitude": "48.27511000",
      "longitude": "2.69078000"
   },
   {
      "name": "Nesles-la-Vallée",
      "countryCode": "FR",
      "stateCode": "IDF",
      "latitude": "49.13202000",
      "longitude": "2.17099000"
   },
   {
      "name": "Neufmoutiers-en-Brie",
      "countryCode": "FR",
      "stateCode": "IDF",
      "latitude": "48.76882000",
      "longitude": "2.83156000"
   },
   {
      "name": "Neuilly-Plaisance",
      "countryCode": "FR",
      "stateCode": "IDF",
      "latitude": "48.86342000",
      "longitude": "2.50600000"
   },
   {
      "name": "Neuilly-sur-Marne",
      "countryCode": "FR",
      "stateCode": "IDF",
      "latitude": "48.85373000",
      "longitude": "2.54903000"
   },
   {
      "name": "Neuilly-sur-Seine",
      "countryCode": "FR",
      "stateCode": "IDF",
      "latitude": "48.88460000",
      "longitude": "2.26965000"
   },
   {
      "name": "Neuville-sur-Oise",
      "countryCode": "FR",
      "stateCode": "IDF",
      "latitude": "49.01667000",
      "longitude": "2.06667000"
   },
   {
      "name": "Nogent-sur-Marne",
      "countryCode": "FR",
      "stateCode": "IDF",
      "latitude": "48.83669000",
      "longitude": "2.48255000"
   },
   {
      "name": "Noiseau",
      "countryCode": "FR",
      "stateCode": "IDF",
      "latitude": "48.77589000",
      "longitude": "2.54892000"
   },
   {
      "name": "Noisiel",
      "countryCode": "FR",
      "stateCode": "IDF",
      "latitude": "48.84868000",
      "longitude": "2.62435000"
   },
   {
      "name": "Noisy-le-Grand",
      "countryCode": "FR",
      "stateCode": "IDF",
      "latitude": "48.84979000",
      "longitude": "2.56266000"
   },
   {
      "name": "Noisy-le-Roi",
      "countryCode": "FR",
      "stateCode": "IDF",
      "latitude": "48.84445000",
      "longitude": "2.06345000"
   },
   {
      "name": "Noisy-le-Sec",
      "countryCode": "FR",
      "stateCode": "IDF",
      "latitude": "48.89148000",
      "longitude": "2.46451000"
   },
   {
      "name": "Noisy-sur-École",
      "countryCode": "FR",
      "stateCode": "IDF",
      "latitude": "48.36701000",
      "longitude": "2.50804000"
   },
   {
      "name": "Nozay",
      "countryCode": "FR",
      "stateCode": "IDF",
      "latitude": "48.65921000",
      "longitude": "2.24151000"
   },
   {
      "name": "Oinville-sur-Montcient",
      "countryCode": "FR",
      "stateCode": "IDF",
      "latitude": "49.02722000",
      "longitude": "1.84928000"
   },
   {
      "name": "Oissery",
      "countryCode": "FR",
      "stateCode": "IDF",
      "latitude": "49.07047000",
      "longitude": "2.81819000"
   },
   {
      "name": "Ollainville",
      "countryCode": "FR",
      "stateCode": "IDF",
      "latitude": "48.59081000",
      "longitude": "2.21936000"
   },
   {
      "name": "Orgerus",
      "countryCode": "FR",
      "stateCode": "IDF",
      "latitude": "48.83851000",
      "longitude": "1.70132000"
   },
   {
      "name": "Orgeval",
      "countryCode": "FR",
      "stateCode": "IDF",
      "latitude": "48.92162000",
      "longitude": "1.97790000"
   },
   {
      "name": "Orly",
      "countryCode": "FR",
      "stateCode": "IDF",
      "latitude": "48.74792000",
      "longitude": "2.39253000"
   },
   {
      "name": "Ormesson-sur-Marne",
      "countryCode": "FR",
      "stateCode": "IDF",
      "latitude": "48.78630000",
      "longitude": "2.54471000"
   },
   {
      "name": "Ormoy",
      "countryCode": "FR",
      "stateCode": "IDF",
      "latitude": "48.57489000",
      "longitude": "2.45206000"
   },
   {
      "name": "Orsay",
      "countryCode": "FR",
      "stateCode": "IDF",
      "latitude": "48.69572000",
      "longitude": "2.18727000"
   },
   {
      "name": "Osny",
      "countryCode": "FR",
      "stateCode": "IDF",
      "latitude": "49.07010000",
      "longitude": "2.06277000"
   },
   {
      "name": "Othis",
      "countryCode": "FR",
      "stateCode": "IDF",
      "latitude": "49.07387000",
      "longitude": "2.67502000"
   },
   {
      "name": "Ozoir-la-Ferrière",
      "countryCode": "FR",
      "stateCode": "IDF",
      "latitude": "48.76699000",
      "longitude": "2.66871000"
   },
   {
      "name": "Ozouer-le-Voulgis",
      "countryCode": "FR",
      "stateCode": "IDF",
      "latitude": "48.66012000",
      "longitude": "2.77409000"
   },
   {
      "name": "Palaiseau",
      "countryCode": "FR",
      "stateCode": "IDF",
      "latitude": "48.71828000",
      "longitude": "2.24980000"
   },
   {
      "name": "Pantin",
      "countryCode": "FR",
      "stateCode": "IDF",
      "latitude": "48.89437000",
      "longitude": "2.40935000"
   },
   {
      "name": "Paray-Vieille-Poste",
      "countryCode": "FR",
      "stateCode": "IDF",
      "latitude": "48.71402000",
      "longitude": "2.36283000"
   },
   {
      "name": "Paris",
      "countryCode": "FR",
      "stateCode": "IDF",
      "latitude": "48.85340000",
      "longitude": "2.34860000"
   },
   {
      "name": "Parmain",
      "countryCode": "FR",
      "stateCode": "IDF",
      "latitude": "49.11247000",
      "longitude": "2.21487000"
   },
   {
      "name": "Persan",
      "countryCode": "FR",
      "stateCode": "IDF",
      "latitude": "49.15335000",
      "longitude": "2.27218000"
   },
   {
      "name": "Perthes",
      "countryCode": "FR",
      "stateCode": "IDF",
      "latitude": "48.47821000",
      "longitude": "2.55509000"
   },
   {
      "name": "Pierrefitte-sur-Seine",
      "countryCode": "FR",
      "stateCode": "IDF",
      "latitude": "48.96691000",
      "longitude": "2.36104000"
   },
   {
      "name": "Pierrelaye",
      "countryCode": "FR",
      "stateCode": "IDF",
      "latitude": "49.02110000",
      "longitude": "2.15481000"
   },
   {
      "name": "Plaisir",
      "countryCode": "FR",
      "stateCode": "IDF",
      "latitude": "48.82319000",
      "longitude": "1.95410000"
   },
   {
      "name": "Poissy",
      "countryCode": "FR",
      "stateCode": "IDF",
      "latitude": "48.92902000",
      "longitude": "2.04952000"
   },
   {
      "name": "Pommeuse",
      "countryCode": "FR",
      "stateCode": "IDF",
      "latitude": "48.81667000",
      "longitude": "3.01667000"
   },
   {
      "name": "Pomponne",
      "countryCode": "FR",
      "stateCode": "IDF",
      "latitude": "48.88130000",
      "longitude": "2.68232000"
   },
   {
      "name": "Pontault-Combault",
      "countryCode": "FR",
      "stateCode": "IDF",
      "latitude": "48.79813000",
      "longitude": "2.60676000"
   },
   {
      "name": "Pontcarré",
      "countryCode": "FR",
      "stateCode": "IDF",
      "latitude": "48.79772000",
      "longitude": "2.70508000"
   },
   {
      "name": "Ponthierry",
      "countryCode": "FR",
      "stateCode": "IDF",
      "latitude": "48.53366000",
      "longitude": "2.54419000"
   },
   {
      "name": "Pontoise",
      "countryCode": "FR",
      "stateCode": "IDF",
      "latitude": "49.05000000",
      "longitude": "2.10000000"
   },
   {
      "name": "Porcheville",
      "countryCode": "FR",
      "stateCode": "IDF",
      "latitude": "48.97254000",
      "longitude": "1.77973000"
   },
   {
      "name": "Presles-en-Brie",
      "countryCode": "FR",
      "stateCode": "IDF",
      "latitude": "48.71527000",
      "longitude": "2.74112000"
   },
   {
      "name": "Pringy",
      "countryCode": "FR",
      "stateCode": "IDF",
      "latitude": "48.51815000",
      "longitude": "2.56333000"
   },
   {
      "name": "Provins",
      "countryCode": "FR",
      "stateCode": "IDF",
      "latitude": "48.55897000",
      "longitude": "3.29939000"
   },
   {
      "name": "Puiseux-en-France",
      "countryCode": "FR",
      "stateCode": "IDF",
      "latitude": "49.05552000",
      "longitude": "2.50035000"
   },
   {
      "name": "Pussay",
      "countryCode": "FR",
      "stateCode": "IDF",
      "latitude": "48.34908000",
      "longitude": "1.99182000"
   },
   {
      "name": "Puteaux",
      "countryCode": "FR",
      "stateCode": "IDF",
      "latitude": "48.88341000",
      "longitude": "2.23894000"
   },
   {
      "name": "Périgny",
      "countryCode": "FR",
      "stateCode": "IDF",
      "latitude": "48.69656000",
      "longitude": "2.55537000"
   },
   {
      "name": "Quincy-Voisins",
      "countryCode": "FR",
      "stateCode": "IDF",
      "latitude": "48.90114000",
      "longitude": "2.87559000"
   },
   {
      "name": "Quincy-sous-Sénart",
      "countryCode": "FR",
      "stateCode": "IDF",
      "latitude": "48.67294000",
      "longitude": "2.53419000"
   },
   {
      "name": "Rambouillet",
      "countryCode": "FR",
      "stateCode": "IDF",
      "latitude": "48.64374000",
      "longitude": "1.82992000"
   },
   {
      "name": "Rebais",
      "countryCode": "FR",
      "stateCode": "IDF",
      "latitude": "48.84721000",
      "longitude": "3.23232000"
   },
   {
      "name": "Ris-Orangis",
      "countryCode": "FR",
      "stateCode": "IDF",
      "latitude": "48.65110000",
      "longitude": "2.41406000"
   },
   {
      "name": "Rocquencourt",
      "countryCode": "FR",
      "stateCode": "IDF",
      "latitude": "48.83783000",
      "longitude": "2.10228000"
   },
   {
      "name": "Roissy-en-Brie",
      "countryCode": "FR",
      "stateCode": "IDF",
      "latitude": "48.79159000",
      "longitude": "2.64747000"
   },
   {
      "name": "Roissy-en-France",
      "countryCode": "FR",
      "stateCode": "IDF",
      "latitude": "49.00443000",
      "longitude": "2.51703000"
   },
   {
      "name": "Romainville",
      "countryCode": "FR",
      "stateCode": "IDF",
      "latitude": "48.88540000",
      "longitude": "2.43482000"
   },
   {
      "name": "Rosny-sous-Bois",
      "countryCode": "FR",
      "stateCode": "IDF",
      "latitude": "48.87017000",
      "longitude": "2.49910000"
   },
   {
      "name": "Rosny-sur-Seine",
      "countryCode": "FR",
      "stateCode": "IDF",
      "latitude": "48.99808000",
      "longitude": "1.63130000"
   },
   {
      "name": "Rozay-en-Brie",
      "countryCode": "FR",
      "stateCode": "IDF",
      "latitude": "48.68333000",
      "longitude": "2.95816000"
   },
   {
      "name": "Rubelles",
      "countryCode": "FR",
      "stateCode": "IDF",
      "latitude": "48.55327000",
      "longitude": "2.67593000"
   },
   {
      "name": "Rueil-Malmaison",
      "countryCode": "FR",
      "stateCode": "IDF",
      "latitude": "48.87650000",
      "longitude": "2.18967000"
   },
   {
      "name": "Rungis",
      "countryCode": "FR",
      "stateCode": "IDF",
      "latitude": "48.74607000",
      "longitude": "2.35275000"
   },
   {
      "name": "Saclas",
      "countryCode": "FR",
      "stateCode": "IDF",
      "latitude": "48.35845000",
      "longitude": "2.12349000"
   },
   {
      "name": "Saclay",
      "countryCode": "FR",
      "stateCode": "IDF",
      "latitude": "48.73260000",
      "longitude": "2.16923000"
   },
   {
      "name": "Sagy",
      "countryCode": "FR",
      "stateCode": "IDF",
      "latitude": "49.04988000",
      "longitude": "1.95216000"
   },
   {
      "name": "Saint-Arnoult-en-Yvelines",
      "countryCode": "FR",
      "stateCode": "IDF",
      "latitude": "48.57111000",
      "longitude": "1.93950000"
   },
   {
      "name": "Saint-Augustin",
      "countryCode": "FR",
      "stateCode": "IDF",
      "latitude": "48.78333000",
      "longitude": "3.03016000"
   },
   {
      "name": "Saint-Brice-sous-Forêt",
      "countryCode": "FR",
      "stateCode": "IDF",
      "latitude": "49.00132000",
      "longitude": "2.35361000"
   },
   {
      "name": "Saint-Chéron",
      "countryCode": "FR",
      "stateCode": "IDF",
      "latitude": "48.55433000",
      "longitude": "2.12403000"
   },
   {
      "name": "Saint-Cloud",
      "countryCode": "FR",
      "stateCode": "IDF",
      "latitude": "48.84598000",
      "longitude": "2.20289000"
   },
   {
      "name": "Saint-Cyr-l’École",
      "countryCode": "FR",
      "stateCode": "IDF",
      "latitude": "48.79865000",
      "longitude": "2.06814000"
   },
   {
      "name": "Saint-Cyr-sous-Dourdan",
      "countryCode": "FR",
      "stateCode": "IDF",
      "latitude": "48.56667000",
      "longitude": "2.03333000"
   },
   {
      "name": "Saint-Cyr-sur-Morin",
      "countryCode": "FR",
      "stateCode": "IDF",
      "latitude": "48.90664000",
      "longitude": "3.18016000"
   },
   {
      "name": "Saint-Denis",
      "countryCode": "FR",
      "stateCode": "IDF",
      "latitude": "48.93564000",
      "longitude": "2.35387000"
   },
   {
      "name": "Saint-Fargeau-Ponthierry",
      "countryCode": "FR",
      "stateCode": "IDF",
      "latitude": "48.55713000",
      "longitude": "2.52840000"
   },
   {
      "name": "Saint-Germain-Laval",
      "countryCode": "FR",
      "stateCode": "IDF",
      "latitude": "48.39968000",
      "longitude": "2.99781000"
   },
   {
      "name": "Saint-Germain-de-la-Grange",
      "countryCode": "FR",
      "stateCode": "IDF",
      "latitude": "48.83436000",
      "longitude": "1.89884000"
   },
   {
      "name": "Saint-Germain-en-Laye",
      "countryCode": "FR",
      "stateCode": "IDF",
      "latitude": "48.89643000",
      "longitude": "2.09040000"
   },
   {
      "name": "Saint-Germain-lès-Arpajon",
      "countryCode": "FR",
      "stateCode": "IDF",
      "latitude": "48.59733000",
      "longitude": "2.26481000"
   },
   {
      "name": "Saint-Germain-lès-Corbeil",
      "countryCode": "FR",
      "stateCode": "IDF",
      "latitude": "48.62211000",
      "longitude": "2.48775000"
   },
   {
      "name": "Saint-Germain-sur-Morin",
      "countryCode": "FR",
      "stateCode": "IDF",
      "latitude": "48.88257000",
      "longitude": "2.85127000"
   },
   {
      "name": "Saint-Gratien",
      "countryCode": "FR",
      "stateCode": "IDF",
      "latitude": "48.97350000",
      "longitude": "2.28729000"
   },
   {
      "name": "Saint-Jean-les-Deux-Jumeaux",
      "countryCode": "FR",
      "stateCode": "IDF",
      "latitude": "48.95140000",
      "longitude": "3.01959000"
   },
   {
      "name": "Saint-Leu-la-Forêt",
      "countryCode": "FR",
      "stateCode": "IDF",
      "latitude": "49.01667000",
      "longitude": "2.25000000"
   },
   {
      "name": "Saint-Léger-en-Yvelines",
      "countryCode": "FR",
      "stateCode": "IDF",
      "latitude": "48.72173000",
      "longitude": "1.76638000"
   },
   {
      "name": "Saint-Mammès",
      "countryCode": "FR",
      "stateCode": "IDF",
      "latitude": "48.38458000",
      "longitude": "2.81578000"
   },
   {
      "name": "Saint-Mandé",
      "countryCode": "FR",
      "stateCode": "IDF",
      "latitude": "48.83864000",
      "longitude": "2.41579000"
   },
   {
      "name": "Saint-Mard",
      "countryCode": "FR",
      "stateCode": "IDF",
      "latitude": "49.03701000",
      "longitude": "2.69645000"
   },
   {
      "name": "Saint-Martin-du-Tertre",
      "countryCode": "FR",
      "stateCode": "IDF",
      "latitude": "49.10743000",
      "longitude": "2.34533000"
   },
   {
      "name": "Saint-Maur-des-Fossés",
      "countryCode": "FR",
      "stateCode": "IDF",
      "latitude": "48.79395000",
      "longitude": "2.49323000"
   },
   {
      "name": "Saint-Maurice",
      "countryCode": "FR",
      "stateCode": "IDF",
      "latitude": "48.82182000",
      "longitude": "2.42716000"
   },
   {
      "name": "Saint-Maurice-Montcouronne",
      "countryCode": "FR",
      "stateCode": "IDF",
      "latitude": "48.58288000",
      "longitude": "2.12504000"
   },
   {
      "name": "Saint-Michel-sur-Orge",
      "countryCode": "FR",
      "stateCode": "IDF",
      "latitude": "48.63479000",
      "longitude": "2.30831000"
   },
   {
      "name": "Saint-Nom-la-Bretêche",
      "countryCode": "FR",
      "stateCode": "IDF",
      "latitude": "48.85942000",
      "longitude": "2.02233000"
   },
   {
      "name": "Saint-Ouen",
      "countryCode": "FR",
      "stateCode": "IDF",
      "latitude": "48.90654000",
      "longitude": "2.33339000"
   },
   {
      "name": "Saint-Ouen-l’Aumône",
      "countryCode": "FR",
      "stateCode": "IDF",
      "latitude": "49.04353000",
      "longitude": "2.12134000"
   },
   {
      "name": "Saint-Pathus",
      "countryCode": "FR",
      "stateCode": "IDF",
      "latitude": "49.07136000",
      "longitude": "2.79886000"
   },
   {
      "name": "Saint-Pierre-du-Perray",
      "countryCode": "FR",
      "stateCode": "IDF",
      "latitude": "48.61064000",
      "longitude": "2.49429000"
   },
   {
      "name": "Saint-Pierre-lès-Nemours",
      "countryCode": "FR",
      "stateCode": "IDF",
      "latitude": "48.26733000",
      "longitude": "2.67966000"
   },
   {
      "name": "Saint-Prix",
      "countryCode": "FR",
      "stateCode": "IDF",
      "latitude": "49.01667000",
      "longitude": "2.26667000"
   },
   {
      "name": "Saint-Quentin-en-Yvelines",
      "countryCode": "FR",
      "stateCode": "IDF",
      "latitude": "48.77186000",
      "longitude": "2.01891000"
   },
   {
      "name": "Saint-Rémy-lès-Chevreuse",
      "countryCode": "FR",
      "stateCode": "IDF",
      "latitude": "48.70708000",
      "longitude": "2.07692000"
   },
   {
      "name": "Saint-Sauveur-sur-École",
      "countryCode": "FR",
      "stateCode": "IDF",
      "latitude": "48.49750000",
      "longitude": "2.54711000"
   },
   {
      "name": "Saint-Soupplets",
      "countryCode": "FR",
      "stateCode": "IDF",
      "latitude": "49.03866000",
      "longitude": "2.80723000"
   },
   {
      "name": "Saint-Thibault-des-Vignes",
      "countryCode": "FR",
      "stateCode": "IDF",
      "latitude": "48.87111000",
      "longitude": "2.68041000"
   },
   {
      "name": "Saint-Vrain",
      "countryCode": "FR",
      "stateCode": "IDF",
      "latitude": "48.54302000",
      "longitude": "2.33331000"
   },
   {
      "name": "Saint-Witz",
      "countryCode": "FR",
      "stateCode": "IDF",
      "latitude": "49.09100000",
      "longitude": "2.57122000"
   },
   {
      "name": "Sainte-Colombe",
      "countryCode": "FR",
      "stateCode": "IDF",
      "latitude": "48.53047000",
      "longitude": "3.25517000"
   },
   {
      "name": "Sainte-Geneviève-des-Bois",
      "countryCode": "FR",
      "stateCode": "IDF",
      "latitude": "48.64682000",
      "longitude": "2.31965000"
   },
   {
      "name": "Saintry-sur-Seine",
      "countryCode": "FR",
      "stateCode": "IDF",
      "latitude": "48.59640000",
      "longitude": "2.49515000"
   },
   {
      "name": "Saints",
      "countryCode": "FR",
      "stateCode": "IDF",
      "latitude": "48.76066000",
      "longitude": "3.04645000"
   },
   {
      "name": "Salins",
      "countryCode": "FR",
      "stateCode": "IDF",
      "latitude": "48.42156000",
      "longitude": "3.02130000"
   },
   {
      "name": "Sammeron",
      "countryCode": "FR",
      "stateCode": "IDF",
      "latitude": "48.94721000",
      "longitude": "3.08333000"
   },
   {
      "name": "Samois-sur-Seine",
      "countryCode": "FR",
      "stateCode": "IDF",
      "latitude": "48.45251000",
      "longitude": "2.75040000"
   },
   {
      "name": "Samoreau",
      "countryCode": "FR",
      "stateCode": "IDF",
      "latitude": "48.42946000",
      "longitude": "2.75587000"
   },
   {
      "name": "Sannois",
      "countryCode": "FR",
      "stateCode": "IDF",
      "latitude": "48.96667000",
      "longitude": "2.25000000"
   },
   {
      "name": "Santeny",
      "countryCode": "FR",
      "stateCode": "IDF",
      "latitude": "48.72730000",
      "longitude": "2.57346000"
   },
   {
      "name": "Sarcelles",
      "countryCode": "FR",
      "stateCode": "IDF",
      "latitude": "48.99739000",
      "longitude": "2.37821000"
   },
   {
      "name": "Sartrouville",
      "countryCode": "FR",
      "stateCode": "IDF",
      "latitude": "48.94820000",
      "longitude": "2.19169000"
   },
   {
      "name": "Saulx-les-Chartreux",
      "countryCode": "FR",
      "stateCode": "IDF",
      "latitude": "48.69062000",
      "longitude": "2.26727000"
   },
   {
      "name": "Savigny-le-Temple",
      "countryCode": "FR",
      "stateCode": "IDF",
      "latitude": "48.57409000",
      "longitude": "2.58287000"
   },
   {
      "name": "Savigny-sur-Orge",
      "countryCode": "FR",
      "stateCode": "IDF",
      "latitude": "48.67677000",
      "longitude": "2.34835000"
   },
   {
      "name": "Saâcy-sur-Marne",
      "countryCode": "FR",
      "stateCode": "IDF",
      "latitude": "48.96210000",
      "longitude": "3.21083000"
   },
   {
      "name": "Sceaux",
      "countryCode": "FR",
      "stateCode": "IDF",
      "latitude": "48.77644000",
      "longitude": "2.29026000"
   },
   {
      "name": "Seine-Port",
      "countryCode": "FR",
      "stateCode": "IDF",
      "latitude": "48.55743000",
      "longitude": "2.55316000"
   },
   {
      "name": "Seine-Saint-Denis",
      "countryCode": "FR",
      "stateCode": "IDF",
      "latitude": "48.91421000",
      "longitude": "2.47604000"
   },
   {
      "name": "Seine-et-Marne",
      "countryCode": "FR",
      "stateCode": "IDF",
      "latitude": "48.64599000",
      "longitude": "2.95905000"
   },
   {
      "name": "Septeuil",
      "countryCode": "FR",
      "stateCode": "IDF",
      "latitude": "48.89245000",
      "longitude": "1.68357000"
   },
   {
      "name": "Seraincourt",
      "countryCode": "FR",
      "stateCode": "IDF",
      "latitude": "49.03573000",
      "longitude": "1.86703000"
   },
   {
      "name": "Serris",
      "countryCode": "FR",
      "stateCode": "IDF",
      "latitude": "48.84528000",
      "longitude": "2.78611000"
   },
   {
      "name": "Servon",
      "countryCode": "FR",
      "stateCode": "IDF",
      "latitude": "48.71662000",
      "longitude": "2.58737000"
   },
   {
      "name": "Seugy",
      "countryCode": "FR",
      "stateCode": "IDF",
      "latitude": "49.12182000",
      "longitude": "2.39377000"
   },
   {
      "name": "Sevran",
      "countryCode": "FR",
      "stateCode": "IDF",
      "latitude": "48.94472000",
      "longitude": "2.52746000"
   },
   {
      "name": "Soignolles-en-Brie",
      "countryCode": "FR",
      "stateCode": "IDF",
      "latitude": "48.65350000",
      "longitude": "2.69968000"
   },
   {
      "name": "Soisy-sous-Montmorency",
      "countryCode": "FR",
      "stateCode": "IDF",
      "latitude": "48.98813000",
      "longitude": "2.30156000"
   },
   {
      "name": "Soisy-sur-Seine",
      "countryCode": "FR",
      "stateCode": "IDF",
      "latitude": "48.64875000",
      "longitude": "2.45223000"
   },
   {
      "name": "Soisy-sur-École",
      "countryCode": "FR",
      "stateCode": "IDF",
      "latitude": "48.47637000",
      "longitude": "2.49301000"
   },
   {
      "name": "Solers",
      "countryCode": "FR",
      "stateCode": "IDF",
      "latitude": "48.65919000",
      "longitude": "2.71617000"
   },
   {
      "name": "Sonchamp",
      "countryCode": "FR",
      "stateCode": "IDF",
      "latitude": "48.57590000",
      "longitude": "1.87753000"
   },
   {
      "name": "Souppes-sur-Loing",
      "countryCode": "FR",
      "stateCode": "IDF",
      "latitude": "48.18297000",
      "longitude": "2.73521000"
   },
   {
      "name": "Sourdun",
      "countryCode": "FR",
      "stateCode": "IDF",
      "latitude": "48.53688000",
      "longitude": "3.35200000"
   },
   {
      "name": "Stains",
      "countryCode": "FR",
      "stateCode": "IDF",
      "latitude": "48.95000000",
      "longitude": "2.38333000"
   },
   {
      "name": "Sucy-en-Brie",
      "countryCode": "FR",
      "stateCode": "IDF",
      "latitude": "48.76872000",
      "longitude": "2.53474000"
   },
   {
      "name": "Suresnes",
      "countryCode": "FR",
      "stateCode": "IDF",
      "latitude": "48.87143000",
      "longitude": "2.22929000"
   },
   {
      "name": "Survilliers",
      "countryCode": "FR",
      "stateCode": "IDF",
      "latitude": "49.09712000",
      "longitude": "2.54449000"
   },
   {
      "name": "Sèvres",
      "countryCode": "FR",
      "stateCode": "IDF",
      "latitude": "48.82292000",
      "longitude": "2.21757000"
   },
   {
      "name": "Tacoignières",
      "countryCode": "FR",
      "stateCode": "IDF",
      "latitude": "48.83619000",
      "longitude": "1.67501000"
   },
   {
      "name": "Taverny",
      "countryCode": "FR",
      "stateCode": "IDF",
      "latitude": "49.02542000",
      "longitude": "2.21691000"
   },
   {
      "name": "Thiais",
      "countryCode": "FR",
      "stateCode": "IDF",
      "latitude": "48.76496000",
      "longitude": "2.39610000"
   },
   {
      "name": "Thiverval-Grignon",
      "countryCode": "FR",
      "stateCode": "IDF",
      "latitude": "48.84964000",
      "longitude": "1.91729000"
   },
   {
      "name": "Thoiry",
      "countryCode": "FR",
      "stateCode": "IDF",
      "latitude": "48.86715000",
      "longitude": "1.79760000"
   },
   {
      "name": "Thomery",
      "countryCode": "FR",
      "stateCode": "IDF",
      "latitude": "48.40723000",
      "longitude": "2.78852000"
   },
   {
      "name": "Thorigny-sur-Marne",
      "countryCode": "FR",
      "stateCode": "IDF",
      "latitude": "48.88689000",
      "longitude": "2.71806000"
   },
   {
      "name": "Tigery",
      "countryCode": "FR",
      "stateCode": "IDF",
      "latitude": "48.64257000",
      "longitude": "2.50779000"
   },
   {
      "name": "Torcy",
      "countryCode": "FR",
      "stateCode": "IDF",
      "latitude": "48.85064000",
      "longitude": "2.65078000"
   },
   {
      "name": "Touquin",
      "countryCode": "FR",
      "stateCode": "IDF",
      "latitude": "48.73498000",
      "longitude": "3.01222000"
   },
   {
      "name": "Tournan-en-Brie",
      "countryCode": "FR",
      "stateCode": "IDF",
      "latitude": "48.74146000",
      "longitude": "2.77200000"
   },
   {
      "name": "Trappes",
      "countryCode": "FR",
      "stateCode": "IDF",
      "latitude": "48.77413000",
      "longitude": "2.01781000"
   },
   {
      "name": "Tremblay-en-France",
      "countryCode": "FR",
      "stateCode": "IDF",
      "latitude": "48.94956000",
      "longitude": "2.56840000"
   },
   {
      "name": "Triel-sur-Seine",
      "countryCode": "FR",
      "stateCode": "IDF",
      "latitude": "48.97818000",
      "longitude": "2.00743000"
   },
   {
      "name": "Trilport",
      "countryCode": "FR",
      "stateCode": "IDF",
      "latitude": "48.95685000",
      "longitude": "2.95076000"
   },
   {
      "name": "Us",
      "countryCode": "FR",
      "stateCode": "IDF",
      "latitude": "49.10000000",
      "longitude": "1.96667000"
   },
   {
      "name": "Vaires-sur-Marne",
      "countryCode": "FR",
      "stateCode": "IDF",
      "latitude": "48.87649000",
      "longitude": "2.63982000"
   },
   {
      "name": "Val-de-Marne",
      "countryCode": "FR",
      "stateCode": "IDF",
      "latitude": "48.78149000",
      "longitude": "2.49331000"
   },
   {
      "name": "Valenton",
      "countryCode": "FR",
      "stateCode": "IDF",
      "latitude": "48.74527000",
      "longitude": "2.46467000"
   },
   {
      "name": "Valmondois",
      "countryCode": "FR",
      "stateCode": "IDF",
      "latitude": "49.09730000",
      "longitude": "2.18996000"
   },
   {
      "name": "Vanves",
      "countryCode": "FR",
      "stateCode": "IDF",
      "latitude": "48.82345000",
      "longitude": "2.29025000"
   },
   {
      "name": "Varennes-Jarcy",
      "countryCode": "FR",
      "stateCode": "IDF",
      "latitude": "48.67914000",
      "longitude": "2.56152000"
   },
   {
      "name": "Varennes-sur-Seine",
      "countryCode": "FR",
      "stateCode": "IDF",
      "latitude": "48.37304000",
      "longitude": "2.92571000"
   },
   {
      "name": "Varreddes",
      "countryCode": "FR",
      "stateCode": "IDF",
      "latitude": "49.00305000",
      "longitude": "2.92788000"
   },
   {
      "name": "Vaucresson",
      "countryCode": "FR",
      "stateCode": "IDF",
      "latitude": "48.84078000",
      "longitude": "2.15652000"
   },
   {
      "name": "Vaugrigneuse",
      "countryCode": "FR",
      "stateCode": "IDF",
      "latitude": "48.60263000",
      "longitude": "2.12218000"
   },
   {
      "name": "Vauhallan",
      "countryCode": "FR",
      "stateCode": "IDF",
      "latitude": "48.73354000",
      "longitude": "2.20277000"
   },
   {
      "name": "Vaujours",
      "countryCode": "FR",
      "stateCode": "IDF",
      "latitude": "48.93022000",
      "longitude": "2.57110000"
   },
   {
      "name": "Vauréal",
      "countryCode": "FR",
      "stateCode": "IDF",
      "latitude": "49.03333000",
      "longitude": "2.03333000"
   },
   {
      "name": "Vaux-le-Pénil",
      "countryCode": "FR",
      "stateCode": "IDF",
      "latitude": "48.52803000",
      "longitude": "2.69165000"
   },
   {
      "name": "Vaux-sur-Seine",
      "countryCode": "FR",
      "stateCode": "IDF",
      "latitude": "49.01271000",
      "longitude": "1.96942000"
   },
   {
      "name": "Veneux-les-Sablons",
      "countryCode": "FR",
      "stateCode": "IDF",
      "latitude": "48.37872000",
      "longitude": "2.79499000"
   },