[
   {
      "name": "Dien Bien Phu",
      "countryCode": "VN",
      "stateCode": "71",
      "latitude": "21.38602000",
      "longitude": "103.02301000"
   },
   {
      "name": "Huyện Mường Nhé",
      "countryCode": "VN",
      "stateCode": "71",
      "latitude": "22.10353000",
      "longitude": "102.58465000"
   },
   {
      "name": "Huyện Tuần Giáo",
      "countryCode": "VN",
      "stateCode": "71",
      "latitude": "21.69481000",
      "longitude": "103.41758000"
   },
   {
      "name": "Huyện Tủa Chùa",
      "countryCode": "VN",
      "stateCode": "71",
      "latitude": "21.95357000",
      "longitude": "103.37332000"
   },
   {
      "name": "Huyện Điện Biên Đông",
      "countryCode": "VN",
      "stateCode": "71",
      "latitude": "21.25266000",
      "longitude": "103.26900000"
   },
   {
      "name": "Thị Xã Mưòng Lay",
      "countryCode": "VN",
      "stateCode": "71",
      "latitude": "22.03374000",
      "longitude": "103.12331000"
   }
]