[
   {
      "name": "Ouham Prefecture",
      "isoCode": "AC",
      "countryCode": "CF",
      "latitude": "7.09091100",
      "longitude": "17.66888700"
   },
   {
      "name": "Bamingui-Bangoran Prefecture",
      "isoCode": "BB",
      "countryCode": "CF",
      "latitude": "8.27334550",
      "longitude": "20.71224650"
   },
   {
      "name": "Bangui",
      "isoCode": "BGF",
      "countryCode": "CF",
      "latitude": "4.39467350",
      "longitude": "18.55818990"
   },
   {
      "name": "Basse-Kotto Prefecture",
      "isoCode": "BK",
      "countryCode": "CF",
      "latitude": "4.87193190",
      "longitude": "21.28450250"
   },
   {
      "name": "Haute-Kotto Prefecture",
      "isoCode": "HK",
      "countryCode": "CF",
      "latitude": "7.79643790",
      "longitude": "23.38235450"
   },
   {
      "name": "Haut-Mbomou Prefecture",
      "isoCode": "HM",
      "countryCode": "CF",
      "latitude": "6.25371340",
      "longitude": "25.47335540"
   },
   {
      "name": "Mambéré-Kadéï",
      "isoCode": "HS",
      "countryCode": "CF",
      "latitude": "4.70556530",
      "longitude": "15.96998780"
   },
   {
      "name": "Nana-Grébizi Economic Prefecture",
      "isoCode": "KB",
      "countryCode": "CF",
      "latitude": "7.18486070",
      "longitude": "19.37832060"
   },
   {
      "name": "Kémo Prefecture",
      "isoCode": "KG",
      "countryCode": "CF",
      "latitude": "5.88677940",
      "longitude": "19.37832060"
   },
   {
      "name": "Lobaye Prefecture",
      "isoCode": "LB",
      "countryCode": "CF",
      "latitude": "4.35259810",
      "longitude": "17.47951730"
   },
   {
      "name": "Mbomou Prefecture",
      "isoCode": "MB",
      "countryCode": "CF",
      "latitude": "5.55683700",
      "longitude": "23.76328280"
   },
   {
      "name": "Ombella-M'Poko Prefecture",
      "isoCode": "MP",
      "countryCode": "CF",
      "latitude": "5.11888250",
      "longitude": "18.42760470"
   },
   {
      "name": "Nana-Mambéré Prefecture",
      "isoCode": "NM",
      "countryCode": "CF",
      "latitude": "5.69321350",
      "longitude": "15.21948080"
   },
   {
      "name": "Ouham-Pendé Prefecture",
      "isoCode": "OP",
      "countryCode": "CF",
      "latitude": "6.48509840",
      "longitude": "16.15809370"
   },
   {
      "name": "Sangha-Mbaéré",
      "isoCode": "SE",
      "countryCode": "CF",
      "latitude": "3.43686070",
      "longitude": "16.34637910"
   },
   {
      "name": "Ouaka Prefecture",
      "isoCode": "UK",
      "countryCode": "CF",
      "latitude": "6.31682160",
      "longitude": "20.71224650"
   },
   {
      "name": "Vakaga Prefecture",
      "isoCode": "VK",
      "countryCode": "CF",
      "latitude": "9.51132960",
      "longitude": "22.23840170"
   }
]