[
   {
      "name": "Boulsa",
      "countryCode": "BF",
      "stateCode": "05",
      "latitude": "12.66664000",
      "longitude": "-0.57469000"
   },
   {
      "name": "Kaya",
      "countryCode": "BF",
      "stateCode": "05",
      "latitude": "13.09167000",
      "longitude": "-1.08444000"
   },
   {
      "name": "Kongoussi",
      "countryCode": "BF",
      "stateCode": "05",
      "latitude": "13.32583000",
      "longitude": "-1.53472000"
   },
   {
      "name": "Province du Bam",
      "countryCode": "BF",
      "stateCode": "05",
      "latitude": "13.46667000",
      "longitude": "-1.58333000"
   },
   {
      "name": "Province du Namentenga",
      "countryCode": "BF",
      "stateCode": "05",
      "latitude": "13.25000000",
      "longitude": "-0.50000000"
   },
   {
      "name": "Province du Sanmatenga",
      "countryCode": "BF",
      "stateCode": "05",
      "latitude": "13.25000000",
      "longitude": "-1.08333000"
   }
]