[
   {
      "name": "Alhué",
      "countryCode": "CL",
      "stateCode": "RM",
      "latitude": "-34.03333333",
      "longitude": "-71.10000000"
   },
   {
      "name": "Buin",
      "countryCode": "CL",
      "stateCode": "RM",
      "latitude": "-33.73257000",
      "longitude": "-70.74281000"
   },
   {
      "name": "Calera de Tango",
      "countryCode": "CL",
      "stateCode": "RM",
      "latitude": "-33.65000000",
      "longitude": "-70.81666667"
   },
   {
      "name": "Cerrillos",
      "countryCode": "CL",
      "stateCode": "RM",
      "latitude": "-33.50229190",
      "longitude": "-70.73009420"
   },
   {
      "name": "Cerro Navia",
      "countryCode": "CL",
      "stateCode": "RM",
      "latitude": "-33.42516430",
      "longitude": "-70.78407540"
   },
   {
      "name": "Colina",
      "countryCode": "CL",
      "stateCode": "RM",
      "latitude": "-33.20000000",
      "longitude": "-70.68333333"
   },
   {
      "name": "Conchalí",
      "countryCode": "CL",
      "stateCode": "RM",
      "latitude": "-33.35000000",
      "longitude": "-70.61666667"
   },
   {
      "name": "Curacaví",
      "countryCode": "CL",
      "stateCode": "RM",
      "latitude": "-33.46937830",
      "longitude": "-70.72612030"
   },
   {
      "name": "El Bosque",
      "countryCode": "CL",
      "stateCode": "RM",
      "latitude": "-33.56666667",
      "longitude": "-70.70000000"
   },
   {
      "name": "El Monte",
      "countryCode": "CL",
      "stateCode": "RM",
      "latitude": "-33.67969000",
      "longitude": "-70.98482000"
   },
   {
      "name": "Estación Central",
      "countryCode": "CL",
      "stateCode": "RM",
      "latitude": "-33.45194400",
      "longitude": "-70.67888900"
   },
   {
      "name": "Huechuraba",
      "countryCode": "CL",
      "stateCode": "RM",
      "latitude": "-33.36928270",
      "longitude": "-70.66482650"
   },
   {
      "name": "Independencia",
      "countryCode": "CL",
      "stateCode": "RM",
      "latitude": "-33.41666667",
      "longitude": "-70.63333333"
   },
   {
      "name": "Isla de Maipo",
      "countryCode": "CL",
      "stateCode": "RM",
      "latitude": "-33.75000000",
      "longitude": "-70.90000000"
   },
   {
      "name": "La Cisterna",
      "countryCode": "CL",
      "stateCode": "RM",
      "latitude": "-33.55000000",
      "longitude": "-70.68333000"
   },
   {
      "name": "La Florida",
      "countryCode": "CL",
      "stateCode": "RM",
      "latitude": "-33.55000000",
      "longitude": "-70.56666667"
   },
   {
      "name": "La Granja",
      "countryCode": "CL",
      "stateCode": "RM",
      "latitude": "-33.54305556",
      "longitude": "-70.63194444"
   },
   {
      "name": "La Pintana",
      "countryCode": "CL",
      "stateCode": "RM",
      "latitude": "-33.58331000",
      "longitude": "-70.63419000"
   },
   {
      "name": "La Reina",
      "countryCode": "CL",
      "stateCode": "RM",
      "latitude": "-33.45000000",
      "longitude": "-70.55000000"
   },
   {
      "name": "Lampa",
      "countryCode": "CL",
      "stateCode": "RM",
      "latitude": "-33.28630000",
      "longitude": "-70.87561000"
   },
   {
      "name": "Las Condes",
      "countryCode": "CL",
      "stateCode": "RM",
      "latitude": "-33.41666667",
      "longitude": "-70.58333333"
   },
   {
      "name": "Lo Barnechea",
      "countryCode": "CL",
      "stateCode": "RM",
      "latitude": "-33.35000000",
      "longitude": "-70.51666667"
   },
   {
      "name": "Lo Espejo",
      "countryCode": "CL",
      "stateCode": "RM",
      "latitude": "-33.53333333",
      "longitude": "-70.71666667"
   },
   {
      "name": "Lo Prado",
      "countryCode": "CL",
      "stateCode": "RM",
      "latitude": "-33.44430000",
      "longitude": "-70.72552000"
   },
   {
      "name": "Macul",
      "countryCode": "CL",
      "stateCode": "RM",
      "latitude": "-33.50000000",
      "longitude": "-70.56666667"
   },
   {
      "name": "Maipú",
      "countryCode": "CL",
      "stateCode": "RM",
      "latitude": "-33.51666667",
      "longitude": "-70.76666667"
   },
   {
      "name": "María Pinto",
      "countryCode": "CL",
      "stateCode": "RM",
      "latitude": "-33.53333333",
      "longitude": "-71.13333333"
   },
   {
      "name": "Melipilla",
      "countryCode": "CL",
      "stateCode": "RM",
      "latitude": "-33.68909000",
      "longitude": "-71.21528000"
   },
   {
      "name": "Padre Hurtado",
      "countryCode": "CL",
      "stateCode": "RM",
      "latitude": "-33.56666667",
      "longitude": "-70.83333333"
   },
   {
      "name": "Paine",
      "countryCode": "CL",
      "stateCode": "RM",
      "latitude": "-33.80796000",
      "longitude": "-70.74109000"
   },
   {
      "name": "Pedro Aguirre Cerda",
      "countryCode": "CL",
      "stateCode": "RM",
      "latitude": "-33.46666667",
      "longitude": "-70.63333333"
   },
   {
      "name": "Peñaflor",
      "countryCode": "CL",
      "stateCode": "RM",
      "latitude": "-33.60627000",
      "longitude": "-70.87649000"
   },
   {
      "name": "Peñalolén",
      "countryCode": "CL",
      "stateCode": "RM",
      "latitude": "-33.48333333",
      "longitude": "-70.53333333"
   },
   {
      "name": "Pirque",
      "countryCode": "CL",
      "stateCode": "RM",
      "latitude": "-33.71865000",
      "longitude": "-70.50658000"
   },
   {
      "name": "Providencia",
      "countryCode": "CL",
      "stateCode": "RM",
      "latitude": "-33.43333333",
      "longitude": "-70.61666667"
   },
   {
      "name": "Pudahuel",
      "countryCode": "CL",
      "stateCode": "RM",
      "latitude": "-33.41883590",
      "longitude": "-70.91463070"
   },
   {
      "name": "Puente Alto",
      "countryCode": "CL",
      "stateCode": "RM",
      "latitude": "-33.61169000",
      "longitude": "-70.57577000"
   },
   {
      "name": "Quilicura",
      "countryCode": "CL",
      "stateCode": "RM",
      "latitude": "-33.36666667",
      "longitude": "-70.75000000"
   },
   {
      "name": "Quinta Normal",
      "countryCode": "CL",
      "stateCode": "RM",
      "latitude": "-33.45000000",
      "longitude": "-70.70000000"
   },
   {
      "name": "Recoleta",
      "countryCode": "CL",
      "stateCode": "RM",
      "latitude": "-33.41666667",
      "longitude": "-70.65000000"
   },
   {
      "name": "Renca",
      "countryCode": "CL",
      "stateCode": "RM",
      "latitude": "-33.40000000",
      "longitude": "-70.73333333"
   },
   {
      "name": "San Bernardo",
      "countryCode": "CL",
      "stateCode": "RM",
      "latitude": "-33.59217000",
      "longitude": "-70.69960000"
   },
   {
      "name": "San Joaquín",
      "countryCode": "CL",
      "stateCode": "RM",
      "latitude": "-33.50000000",
      "longitude": "-70.61666667"
   },
   {
      "name": "San José de Maipo",
      "countryCode": "CL",
      "stateCode": "RM",
      "latitude": "-33.63333333",
      "longitude": "-70.36666667"
   },
   {
      "name": "San Miguel",
      "countryCode": "CL",
      "stateCode": "RM",
      "latitude": "-33.50000000",
      "longitude": "-70.66666667"
   },
   {
      "name": "San Pedro",
      "countryCode": "CL",
      "stateCode": "RM",
      "latitude": "-33.90000000",
      "longitude": "-71.46666667"
   },
   {
      "name": "San Ramón",
      "countryCode": "CL",
      "stateCode": "RM",
      "latitude": "-33.53775950",
      "longitude": "-70.65176730"
   },
   {
      "name": "Santiago",
      "countryCode": "CL",
      "stateCode": "RM",
      "latitude": "-33.45694000",
      "longitude": "-70.64827000"
   },
   {
      "name": "Talagante",
      "countryCode": "CL",
      "stateCode": "RM",
      "latitude": "-33.66386000",
      "longitude": "-70.92734000"
   },
   {
      "name": "Tiltil",
      "countryCode": "CL",
      "stateCode": "RM",
      "latitude": "-33.08333333",
      "longitude": "-70.93333333"
   },
   {
      "name": "Vitacura",
      "countryCode": "CL",
      "stateCode": "RM",
      "latitude": "-33.40000000",
      "longitude": "-70.60000000"
   },
   {
      "name": "Ñuñoa",
      "countryCode": "CL",
      "stateCode": "RM",
      "latitude": "-33.46666667",
      "longitude": "-70.60000000"
   }
]