[
   {
      "name": "Dashtobod",
      "countryCode": "UZ",
      "stateCode": "JI",
      "latitude": "40.12694000",
      "longitude": "68.49444000"
   },
   {
      "name": "DÅ­stlik",
      "countryCode": "UZ",
      "stateCode": "JI",
      "latitude": "40.52472000",
      "longitude": "68.03583000"
   },
   {
      "name": "Gagarin",
      "countryCode": "UZ",
      "stateCode": "JI",
      "latitude": "40.66194000",
      "longitude": "68.17222000"
   },
   {
      "name": "Jizzax",
      "countryCode": "UZ",
      "stateCode": "JI",
      "latitude": "40.11583000",
      "longitude": "67.84222000"
   },
   {
      "name": "Paxtakor",
      "countryCode": "UZ",
      "stateCode": "JI",
      "latitude": "40.31528000",
      "longitude": "67.95444000"
   },
   {
      "name": "Zomin",
      "countryCode": "UZ",
      "stateCode": "JI",
      "latitude": "39.96056000",
      "longitude": "68.39583000"
   }
]