[
   {
      "name": "Chadiza",
      "countryCode": "ZM",
      "stateCode": "03",
      "latitude": "-14.06779000",
      "longitude": "32.43917000"
   },
   {
      "name": "Chipata",
      "countryCode": "ZM",
      "stateCode": "03",
      "latitude": "-13.63333000",
      "longitude": "32.65000000"
   },
   {
      "name": "Lundazi",
      "countryCode": "ZM",
      "stateCode": "03",
      "latitude": "-12.29292000",
      "longitude": "33.17820000"
   },
   {
      "name": "Nyimba",
      "countryCode": "ZM",
      "stateCode": "03",
      "latitude": "-14.55656000",
      "longitude": "30.81490000"
   },
   {
      "name": "Petauke",
      "countryCode": "ZM",
      "stateCode": "03",
      "latitude": "-14.24117000",
      "longitude": "31.31975000"
   }
]