[
   {
      "name": "Lai Châu",
      "isoCode": "01",
      "countryCode": "VN",
      "latitude": "22.38622270",
      "longitude": "103.47026310"
   },
   {
      "name": "Lào Cai",
      "isoCode": "02",
      "countryCode": "VN",
      "latitude": "22.48094310",
      "longitude": "103.97549590"
   },
   {
      "name": "Hà Giang",
      "isoCode": "03",
      "countryCode": "VN",
      "latitude": "22.80255880",
      "longitude": "104.97844940"
   },
   {
      "name": "Cao Bằng",
      "isoCode": "04",
      "countryCode": "VN",
      "latitude": "22.63568900",
      "longitude": "106.25221430"
   },
   {
      "name": "Sơn La",
      "isoCode": "05",
      "countryCode": "VN",
      "latitude": "21.10222840",
      "longitude": "103.72891670"
   },
   {
      "name": "Yên Bái",
      "isoCode": "06",
      "countryCode": "VN",
      "latitude": "21.71676890",
      "longitude": "104.89858780"
   },
   {
      "name": "Tuyên Quang",
      "isoCode": "07",
      "countryCode": "VN",
      "latitude": "21.77672460",
      "longitude": "105.22801960"
   },
   {
      "name": "Lạng Sơn",
      "isoCode": "09",
      "countryCode": "VN",
      "latitude": "21.85370800",
      "longitude": "106.76151900"
   },
   {
      "name": "Quảng Ninh",
      "isoCode": "13",
      "countryCode": "VN",
      "latitude": "21.00638200",
      "longitude": "107.29251440"
   },
   {
      "name": "Hòa Bình",
      "isoCode": "14",
      "countryCode": "VN",
      "latitude": "20.68612650",
      "longitude": "105.31311850"
   },
   {
      "name": "Ninh Bình",
      "isoCode": "18",
      "countryCode": "VN",
      "latitude": "20.25061490",
      "longitude": "105.97445360"
   },
   {
      "name": "Thái Bình",
      "isoCode": "20",
      "countryCode": "VN",
      "latitude": "20.44634710",
      "longitude": "106.33658280"
   },
   {
      "name": "Thanh Hóa",
      "isoCode": "21",
      "countryCode": "VN",
      "latitude": "19.80669200",
      "longitude": "105.78518160"
   },
   {
      "name": "Nghệ An",
      "isoCode": "22",
      "countryCode": "VN",
      "latitude": "19.23424890",
      "longitude": "104.92003650"
   },
   {
      "name": "Hà Tĩnh",
      "isoCode": "23",
      "countryCode": "VN",
      "latitude": "18.35595370",
      "longitude": "105.88774940"
   },
   {
      "name": "Quảng Bình",
      "isoCode": "24",
      "countryCode": "VN",
      "latitude": "17.61027150",
      "longitude": "106.34874740"
   },
   {
      "name": "Quảng Trị",
      "isoCode": "25",
      "countryCode": "VN",
      "latitude": "16.74030740",
      "longitude": "107.18546790"
   },
   {
      "name": "Thừa Thiên-Huế",
      "isoCode": "26",
      "countryCode": "VN",
      "latitude": "16.46739700",
      "longitude": "107.59053260"
   },
   {
      "name": "Quảng Nam",
      "isoCode": "27",
      "countryCode": "VN",
      "latitude": "15.53935380",
      "longitude": "108.01910200"
   },
   {
      "name": "Kon Tum",
      "isoCode": "28",
      "countryCode": "VN",
      "latitude": "14.34974030",
      "longitude": "108.00046060"
   },
   {
      "name": "Quảng Ngãi",
      "isoCode": "29",
      "countryCode": "VN",
      "latitude": "15.12138730",
      "longitude": "108.80441450"
   },
   {
      "name": "Gia Lai",
      "isoCode": "30",
      "countryCode": "VN",
      "latitude": "13.80789430",
      "longitude": "108.10937500"
   },
   {
      "name": "Bình Định",
      "isoCode": "31",
      "countryCode": "VN",
      "latitude": "14.16653240",
      "longitude": "108.90268300"
   },
   {
      "name": "Phú Yên",
      "isoCode": "32",
      "countryCode": "VN",
      "latitude": "13.08818610",
      "longitude": "109.09287640"
   },
   {
      "name": "Đắk Lắk",
      "isoCode": "33",
      "countryCode": "VN",
      "latitude": "12.71001160",
      "longitude": "108.23775190"
   },
   {
      "name": "Khánh Hòa",
      "isoCode": "34",
      "countryCode": "VN",
      "latitude": "12.25850980",
      "longitude": "109.05260760"
   },
   {
      "name": "Lâm Đồng",
      "isoCode": "35",
      "countryCode": "VN",
      "latitude": "11.57527910",
      "longitude": "108.14286690"
   },
   {
      "name": "Ninh Thuận",
      "isoCode": "36",
      "countryCode": "VN",
      "latitude": "11.67387670",
      "longitude": "108.86295720"
   },
   {
      "name": "Tây Ninh",
      "isoCode": "37",
      "countryCode": "VN",
      "latitude": "11.33515540",
      "longitude": "106.10988540"
   },
   {
      "name": "Đồng Nai",
      "isoCode": "39",
      "countryCode": "VN",
      "latitude": "11.06863050",
      "longitude": "107.16759760"
   },
   {
      "name": "Bình Thuận",
      "isoCode": "40",
      "countryCode": "VN",
      "latitude": "11.09037030",
      "longitude": "108.07207810"
   },
   {
      "name": "Long An",
      "isoCode": "41",
      "countryCode": "VN",
      "latitude": "10.56071680",
      "longitude": "106.64976230"
   },
   {
      "name": "Bà Rịa-Vũng Tàu",
      "isoCode": "43",
      "countryCode": "VN",
      "latitude": "10.54173970",
      "longitude": "107.24299760"
   },
   {
      "name": "An Giang",
      "isoCode": "44",
      "countryCode": "VN",
      "latitude": "10.52158360",
      "longitude": "105.12589550"
   },
   {
      "name": "Đồng Tháp",
      "isoCode": "45",
      "countryCode": "VN",
      "latitude": "10.49379890",
      "longitude": "105.68817880"
   },
   {
      "name": "Tiền Giang",
      "isoCode": "46",
      "countryCode": "VN",
      "latitude": "10.44933240",
      "longitude": "106.34205040"
   },
   {
      "name": "Kiên Giang",
      "isoCode": "47",
      "countryCode": "VN",
      "latitude": "9.82495870",
      "longitude": "105.12589550"
   },
   {
      "name": "Vĩnh Long",
      "isoCode": "49",
      "countryCode": "VN",
      "latitude": "10.23957400",
      "longitude": "105.95719280"
   },
   {
      "name": "Bến Tre",
      "isoCode": "50",
      "countryCode": "VN",
      "latitude": "10.24335560",
      "longitude": "106.37555100"
   },
   {
      "name": "Trà Vinh",
      "isoCode": "51",
      "countryCode": "VN",
      "latitude": "9.81274100",
      "longitude": "106.29929120"
   },
   {
      "name": "Sóc Trăng",
      "isoCode": "52",
      "countryCode": "VN",
      "latitude": "9.60252100",
      "longitude": "105.97390490"
   },
   {
      "name": "Bắc Kạn",
      "isoCode": "53",
      "countryCode": "VN",
      "latitude": "22.30329230",
      "longitude": "105.87600400"
   },
   {
      "name": "Bắc Giang",
      "isoCode": "54",
      "countryCode": "VN",
      "latitude": "21.28199210",
      "longitude": "106.19747690"
   },
   {
      "name": "Bạc Liêu",
      "isoCode": "55",
      "countryCode": "VN",
      "latitude": "9.29400270",
      "longitude": "105.72156630"
   },
   {
      "name": "Bắc Ninh",
      "isoCode": "56",
      "countryCode": "VN",
      "latitude": "21.12144400",
      "longitude": "106.11105010"
   },
   {
      "name": "Bình Dương",
      "isoCode": "57",
      "countryCode": "VN",
      "latitude": "11.32540240",
      "longitude": "106.47701700"
   },
   {
      "name": "Bình Phước",
      "isoCode": "58",
      "countryCode": "VN",
      "latitude": "11.75118940",
      "longitude": "106.72346390"
   },
   {
      "name": "Cà Mau",
      "isoCode": "59",
      "countryCode": "VN",
      "latitude": "9.15267280",
      "longitude": "105.19607950"
   },
   {
      "name": "Hải Dương",
      "isoCode": "61",
      "countryCode": "VN",
      "latitude": "20.93734130",
      "longitude": "106.31455420"
   },
   {
      "name": "Hà Nam",
      "isoCode": "63",
      "countryCode": "VN",
      "latitude": "20.58351960",
      "longitude": "105.92299000"
   },
   {
      "name": "Hưng Yên",
      "isoCode": "66",
      "countryCode": "VN",
      "latitude": "20.85257110",
      "longitude": "106.01699710"
   },
   {
      "name": "Nam Định",
      "isoCode": "67",
      "countryCode": "VN",
      "latitude": "20.43882250",
      "longitude": "106.16210530"
   },
   {
      "name": "Phú Thọ",
      "isoCode": "68",
      "countryCode": "VN",
      "latitude": "21.26844300",
      "longitude": "105.20455730"
   },
   {
      "name": "Thái Nguyên",
      "isoCode": "69",
      "countryCode": "VN",
      "latitude": "21.56715590",
      "longitude": "105.82520380"
   },
   {
      "name": "Vĩnh Phúc",
      "isoCode": "70",
      "countryCode": "VN",
      "latitude": "21.36088050",
      "longitude": "105.54743730"
   },
   {
      "name": "Điện Biên",
      "isoCode": "71",
      "countryCode": "VN",
      "latitude": "21.80423090",
      "longitude": "103.10765250"
   },
   {
      "name": "Đắk Nông",
      "isoCode": "72",
      "countryCode": "VN",
      "latitude": "12.26464760",
      "longitude": "107.60980600"
   },
   {
      "name": "Hậu Giang",
      "isoCode": "73",
      "countryCode": "VN",
      "latitude": "9.75789800",
      "longitude": "105.64125270"
   },
   {
      "name": "Cần Thơ",
      "isoCode": "CT",
      "countryCode": "VN",
      "latitude": "10.03418510",
      "longitude": "105.72255070"
   },
   {
      "name": "Đà Nẵng",
      "isoCode": "DN",
      "countryCode": "VN",
      "latitude": "16.05440680",
      "longitude": "108.20216670"
   },
   {
      "name": "Hà Nội",
      "isoCode": "HN",
      "countryCode": "VN",
      "latitude": "21.02776440",
      "longitude": "105.83415980"
   },
   {
      "name": "Hải Phòng",
      "isoCode": "HP",
      "countryCode": "VN",
      "latitude": "20.84491150",
      "longitude": "106.68808410"
   },
   {
      "name": "Hồ Chí Minh",
      "isoCode": "SG",
      "countryCode": "VN",
      "latitude": "10.82309890",
      "longitude": "106.62966380"
   }
]