[
   {
      "name": "Adana",
      "countryCode": "TR",
      "stateCode": "01",
      "latitude": "37.00167000",
      "longitude": "35.32889000"
   },
   {
      "name": "Aladağ",
      "countryCode": "TR",
      "stateCode": "01",
      "latitude": "37.55854000",
      "longitude": "35.40196000"
   },
   {
      "name": "Bahçe",
      "countryCode": "TR",
      "stateCode": "01",
      "latitude": "37.19724000",
      "longitude": "36.57658000"
   },
   {
      "name": "Ceyhan",
      "countryCode": "TR",
      "stateCode": "01",
      "latitude": "37.02472000",
      "longitude": "35.81750000"
   },
   {
      "name": "Feke",
      "countryCode": "TR",
      "stateCode": "01",
      "latitude": "37.82405000",
      "longitude": "35.91826000"
   },
   {
      "name": "Karaisalı",
      "countryCode": "TR",
      "stateCode": "01",
      "latitude": "37.26655000",
      "longitude": "35.05033000"
   },
   {
      "name": "Karataş",
      "countryCode": "TR",
      "stateCode": "01",
      "latitude": "36.57186000",
      "longitude": "35.36784000"
   },
   {
      "name": "Kozan",
      "countryCode": "TR",
      "stateCode": "01",
      "latitude": "37.50000000",
      "longitude": "35.75000000"
   },
   {
      "name": "Pozantı",
      "countryCode": "TR",
      "stateCode": "01",
      "latitude": "37.43671000",
      "longitude": "34.88057000"
   },
   {
      "name": "Saimbeyli",
      "countryCode": "TR",
      "stateCode": "01",
      "latitude": "37.99615000",
      "longitude": "36.09909000"
   },
   {
      "name": "Sarıçam",
      "countryCode": "TR",
      "stateCode": "01",
      "latitude": "37.14971000",
      "longitude": "35.50949000"
   },
   {
      "name": "Seyhan",
      "countryCode": "TR",
      "stateCode": "01",
      "latitude": "36.95540000",
      "longitude": "35.21637000"
   },
   {
      "name": "Tufanbeyli",
      "countryCode": "TR",
      "stateCode": "01",
      "latitude": "38.27343000",
      "longitude": "36.22731000"
   },
   {
      "name": "Yumurtalık",
      "countryCode": "TR",
      "stateCode": "01",
      "latitude": "36.78245000",
      "longitude": "35.79949000"
   },
   {
      "name": "Yüreğir",
      "countryCode": "TR",
      "stateCode": "01",
      "latitude": "36.99205000",
      "longitude": "35.45402000"
   },
   {
      "name": "Çukurova",
      "countryCode": "TR",
      "stateCode": "01",
      "latitude": "37.05627000",
      "longitude": "35.13119000"
   },
   {
      "name": "İmamoğlu",
      "countryCode": "TR",
      "stateCode": "01",
      "latitude": "37.27500000",
      "longitude": "35.66649000"
   }
]