[
   {
      "name": "Belle Vue",
      "countryCode": "LC",
      "stateCode": "03",
      "latitude": "13.80510000",
      "longitude": "-61.03615000"
   },
   {
      "name": "Bois Dinde",
      "countryCode": "LC",
      "stateCode": "03",
      "latitude": "13.80463000",
      "longitude": "-61.04952000"
   },
   {
      "name": "Caffiere",
      "countryCode": "LC",
      "stateCode": "03",
      "latitude": "13.78409000",
      "longitude": "-61.03554000"
   },
   {
      "name": "Cedars/Chu Tigre",
      "countryCode": "LC",
      "stateCode": "03",
      "latitude": "13.76995000",
      "longitude": "-61.04716000"
   },
   {
      "name": "Choiseul",
      "countryCode": "LC",
      "stateCode": "03",
      "latitude": "13.77273000",
      "longitude": "-61.04931000"
   },
   {
      "name": "Christian Hill",
      "countryCode": "LC",
      "stateCode": "03",
      "latitude": "13.77354000",
      "longitude": "-61.04694000"
   },
   {
      "name": "Dacretin",
      "countryCode": "LC",
      "stateCode": "03",
      "latitude": "13.79617000",
      "longitude": "-61.03574000"
   },
   {
      "name": "Debreuil",
      "countryCode": "LC",
      "stateCode": "03",
      "latitude": "13.79033000",
      "longitude": "-61.02585000"
   },
   {
      "name": "Delcer",
      "countryCode": "LC",
      "stateCode": "03",
      "latitude": "13.80121000",
      "longitude": "-61.05892000"
   },
   {
      "name": "Derriere Morne",
      "countryCode": "LC",
      "stateCode": "03",
      "latitude": "13.80916000",
      "longitude": "-61.05101000"
   },
   {
      "name": "Dugard",
      "countryCode": "LC",
      "stateCode": "03",
      "latitude": "13.80386000",
      "longitude": "-61.02831000"
   },
   {
      "name": "Dupre",
      "countryCode": "LC",
      "stateCode": "03",
      "latitude": "13.79435000",
      "longitude": "-61.02947000"
   },
   {
      "name": "Esperance",
      "countryCode": "LC",
      "stateCode": "03",
      "latitude": "13.80775000",
      "longitude": "-61.05331000"
   },
   {
      "name": "Franciou",
      "countryCode": "LC",
      "stateCode": "03",
      "latitude": "13.80400000",
      "longitude": "-61.05448000"
   },
   {
      "name": "Industry",
      "countryCode": "LC",
      "stateCode": "03",
      "latitude": "13.79127000",
      "longitude": "-61.05992000"
   },
   {
      "name": "La Fargue",
      "countryCode": "LC",
      "stateCode": "03",
      "latitude": "13.77197000",
      "longitude": "-61.04124000"
   },
   {
      "name": "La Pointe",
      "countryCode": "LC",
      "stateCode": "03",
      "latitude": "13.79443000",
      "longitude": "-61.06497000"
   },
   {
      "name": "Lamaze",
      "countryCode": "LC",
      "stateCode": "03",
      "latitude": "13.80649000",
      "longitude": "-61.01906000"
   },
   {
      "name": "Le Riche",
      "countryCode": "LC",
      "stateCode": "03",
      "latitude": "13.78365000",
      "longitude": "-61.04815000"
   },
   {
      "name": "Mailly Motete",
      "countryCode": "LC",
      "stateCode": "03",
      "latitude": "13.81788000",
      "longitude": "-61.02772000"
   },
   {
      "name": "Martin",
      "countryCode": "LC",
      "stateCode": "03",
      "latitude": "13.78941000",
      "longitude": "-61.04542000"
   },
   {
      "name": "Mongouge",
      "countryCode": "LC",
      "stateCode": "03",
      "latitude": "13.80301000",
      "longitude": "-61.04524000"
   },
   {
      "name": "Monzie",
      "countryCode": "LC",
      "stateCode": "03",
      "latitude": "13.80669000",
      "longitude": "-61.02297000"
   },
   {
      "name": "Morne Jacques",
      "countryCode": "LC",
      "stateCode": "03",
      "latitude": "13.81162000",
      "longitude": "-61.03165000"
   },
   {
      "name": "Morne Sion",
      "countryCode": "LC",
      "stateCode": "03",
      "latitude": "13.79246000",
      "longitude": "-61.05467000"
   },
   {
      "name": "Motete",
      "countryCode": "LC",
      "stateCode": "03",
      "latitude": "13.81325000",
      "longitude": "-61.02320000"
   },
   {
      "name": "New Field/Fiette",
      "countryCode": "LC",
      "stateCode": "03",
      "latitude": "13.78815000",
      "longitude": "-61.05216000"
   },
   {
      "name": "Ponyon",
      "countryCode": "LC",
      "stateCode": "03",
      "latitude": "13.79639000",
      "longitude": "-61.04360000"
   },
   {
      "name": "Raveneau",
      "countryCode": "LC",
      "stateCode": "03",
      "latitude": "13.81018000",
      "longitude": "-61.04642000"
   },
   {
      "name": "Reunion",
      "countryCode": "LC",
      "stateCode": "03",
      "latitude": "13.77861000",
      "longitude": "-61.04531000"
   },
   {
      "name": "River Doree",
      "countryCode": "LC",
      "stateCode": "03",
      "latitude": "13.76769000",
      "longitude": "-61.03646000"
   },
   {
      "name": "Roblot",
      "countryCode": "LC",
      "stateCode": "03",
      "latitude": "13.80323000",
      "longitude": "-61.02297000"
   },
   {
      "name": "Sauzay",
      "countryCode": "LC",
      "stateCode": "03",
      "latitude": "13.77743000",
      "longitude": "-61.03368000"
   },
   {
      "name": "Savannesgeorge/Constitution",
      "countryCode": "LC",
      "stateCode": "03",
      "latitude": "13.77855000",
      "longitude": "-61.05139000"
   },
   {
      "name": "Victoria",
      "countryCode": "LC",
      "stateCode": "03",
      "latitude": "13.81116000",
      "longitude": "-61.03963000"
   },
   {
      "name": "Village",
      "countryCode": "LC",
      "stateCode": "03",
      "latitude": "13.77464000",
      "longitude": "-61.05020000"
   }
]