[
   {
      "name": "Balsthal",
      "countryCode": "CH",
      "stateCode": "SO",
      "latitude": "47.31613000",
      "longitude": "7.69318000"
   },
   {
      "name": "Bettlach",
      "countryCode": "CH",
      "stateCode": "SO",
      "latitude": "47.20062000",
      "longitude": "7.42405000"
   },
   {
      "name": "Bezirk Bucheggberg",
      "countryCode": "CH",
      "stateCode": "SO",
      "latitude": "47.13205000",
      "longitude": "7.47885000"
   },
   {
      "name": "Bezirk Dorneck",
      "countryCode": "CH",
      "stateCode": "SO",
      "latitude": "47.48032000",
      "longitude": "7.61816000"
   },
   {
      "name": "Bezirk Gäu",
      "countryCode": "CH",
      "stateCode": "SO",
      "latitude": "47.29606000",
      "longitude": "7.77503000"
   },
   {
      "name": "Bezirk Gösgen",
      "countryCode": "CH",
      "stateCode": "SO",
      "latitude": "47.37758000",
      "longitude": "7.92030000"
   },
   {
      "name": "Bezirk Lebern",
      "countryCode": "CH",
      "stateCode": "SO",
      "latitude": "47.21798000",
      "longitude": "7.48053000"
   },
   {
      "name": "Bezirk Olten",
      "countryCode": "CH",
      "stateCode": "SO",
      "latitude": "47.34426000",
      "longitude": "7.90755000"
   },
   {
      "name": "Bezirk Solothurn",
      "countryCode": "CH",
      "stateCode": "SO",
      "latitude": "47.20818000",
      "longitude": "7.53084000"
   },
   {
      "name": "Bezirk Thal",
      "countryCode": "CH",
      "stateCode": "SO",
      "latitude": "47.31095000",
      "longitude": "7.63592000"
   },
   {
      "name": "Bezirk Thierstein",
      "countryCode": "CH",
      "stateCode": "SO",
      "latitude": "47.38333000",
      "longitude": "7.55000000"
   },
   {
      "name": "Bezirk Wasseramt",
      "countryCode": "CH",
      "stateCode": "SO",
      "latitude": "47.18911000",
      "longitude": "7.59157000"
   },
   {
      "name": "Biberist",
      "countryCode": "CH",
      "stateCode": "SO",
      "latitude": "47.18009000",
      "longitude": "7.56246000"
   },
   {
      "name": "Breitenbach",
      "countryCode": "CH",
      "stateCode": "SO",
      "latitude": "47.40668000",
      "longitude": "7.54554000"
   },
   {
      "name": "Büsserach",
      "countryCode": "CH",
      "stateCode": "SO",
      "latitude": "47.39415000",
      "longitude": "7.54117000"
   },
   {
      "name": "Deitingen",
      "countryCode": "CH",
      "stateCode": "SO",
      "latitude": "47.21515000",
      "longitude": "7.61880000"
   },
   {
      "name": "Derendingen",
      "countryCode": "CH",
      "stateCode": "SO",
      "latitude": "47.19850000",
      "longitude": "7.58844000"
   },
   {
      "name": "Dornach",
      "countryCode": "CH",
      "stateCode": "SO",
      "latitude": "47.48038000",
      "longitude": "7.61644000"
   },
   {
      "name": "Egerkingen",
      "countryCode": "CH",
      "stateCode": "SO",
      "latitude": "47.31957000",
      "longitude": "7.78424000"
   },
   {
      "name": "Erlinsbach",
      "countryCode": "CH",
      "stateCode": "SO",
      "latitude": "47.39753000",
      "longitude": "8.00797000"
   },
   {
      "name": "Fulenbach",
      "countryCode": "CH",
      "stateCode": "SO",
      "latitude": "47.27103000",
      "longitude": "7.83136000"
   },
   {
      "name": "Gerlafingen",
      "countryCode": "CH",
      "stateCode": "SO",
      "latitude": "47.17087000",
      "longitude": "7.57249000"
   },
   {
      "name": "Grenchen",
      "countryCode": "CH",
      "stateCode": "SO",
      "latitude": "47.19210000",
      "longitude": "7.39586000"
   },
   {
      "name": "Gunzgen",
      "countryCode": "CH",
      "stateCode": "SO",
      "latitude": "47.31375000",
      "longitude": "7.83102000"
   },
   {
      "name": "Himmelried",
      "countryCode": "CH",
      "stateCode": "SO",
      "latitude": "47.42136000",
      "longitude": "7.59985000"
   },
   {
      "name": "Hochwald",
      "countryCode": "CH",
      "stateCode": "SO",
      "latitude": "47.45389000",
      "longitude": "7.64459000"
   },
   {
      "name": "Hägendorf",
      "countryCode": "CH",
      "stateCode": "SO",
      "latitude": "47.33497000",
      "longitude": "7.84133000"
   },
   {
      "name": "Kleinlützel",
      "countryCode": "CH",
      "stateCode": "SO",
      "latitude": "47.42518000",
      "longitude": "7.41607000"
   },
   {
      "name": "Kriegstetten",
      "countryCode": "CH",
      "stateCode": "SO",
      "latitude": "47.17449000",
      "longitude": "7.59799000"
   },
   {
      "name": "Langendorf",
      "countryCode": "CH",
      "stateCode": "SO",
      "latitude": "47.21974000",
      "longitude": "7.51469000"
   },
   {
      "name": "Laupersdorf",
      "countryCode": "CH",
      "stateCode": "SO",
      "latitude": "47.31260000",
      "longitude": "7.65465000"
   },
   {
      "name": "Lostorf",
      "countryCode": "CH",
      "stateCode": "SO",
      "latitude": "47.38372000",
      "longitude": "7.94655000"
   },
   {
      "name": "Luterbach",
      "countryCode": "CH",
      "stateCode": "SO",
      "latitude": "47.21426000",
      "longitude": "7.58463000"
   },
   {
      "name": "Matzendorf",
      "countryCode": "CH",
      "stateCode": "SO",
      "latitude": "47.30374000",
      "longitude": "7.62820000"
   },
   {
      "name": "Messen",
      "countryCode": "CH",
      "stateCode": "SO",
      "latitude": "47.09155000",
      "longitude": "7.44528000"
   },
   {
      "name": "Niedergösgen",
      "countryCode": "CH",
      "stateCode": "SO",
      "latitude": "47.37157000",
      "longitude": "7.98837000"
   },
   {
      "name": "Nunningen",
      "countryCode": "CH",
      "stateCode": "SO",
      "latitude": "47.39410000",
      "longitude": "7.61951000"
   },
   {
      "name": "Oberbuchsiten",
      "countryCode": "CH",
      "stateCode": "SO",
      "latitude": "47.31334000",
      "longitude": "7.76836000"
   },
   {
      "name": "Obergösgen",
      "countryCode": "CH",
      "stateCode": "SO",
      "latitude": "47.36538000",
      "longitude": "7.95173000"
   },
   {
      "name": "Oensingen",
      "countryCode": "CH",
      "stateCode": "SO",
      "latitude": "47.28764000",
      "longitude": "7.71612000"
   },
   {
      "name": "Olten",
      "countryCode": "CH",
      "stateCode": "SO",
      "latitude": "47.34999000",
      "longitude": "7.90329000"
   },
   {
      "name": "Riedholz",
      "countryCode": "CH",
      "stateCode": "SO",
      "latitude": "47.23158000",
      "longitude": "7.56829000"
   },
   {
      "name": "Rodersdorf",
      "countryCode": "CH",
      "stateCode": "SO",
      "latitude": "47.48082000",
      "longitude": "7.45767000"
   },
   {
      "name": "Rohr",
      "countryCode": "CH",
      "stateCode": "SO",
      "latitude": "47.41029000",
      "longitude": "7.95333000"
   },
   {
      "name": "Schönenwerd",
      "countryCode": "CH",
      "stateCode": "SO",
      "latitude": "47.36910000",
      "longitude": "8.00167000"
   },
   {
      "name": "Selzach",
      "countryCode": "CH",
      "stateCode": "SO",
      "latitude": "47.20531000",
      "longitude": "7.45521000"
   },
   {
      "name": "Solothurn",
      "countryCode": "CH",
      "stateCode": "SO",
      "latitude": "47.20791000",
      "longitude": "7.53714000"
   },
   {
      "name": "Subingen",
      "countryCode": "CH",
      "stateCode": "SO",
      "latitude": "47.19852000",
      "longitude": "7.61949000"
   },
   {
      "name": "Trimbach",
      "countryCode": "CH",
      "stateCode": "SO",
      "latitude": "47.36561000",
      "longitude": "7.88680000"
   },
   {
      "name": "Wangen",
      "countryCode": "CH",
      "stateCode": "SO",
      "latitude": "47.34365000",
      "longitude": "7.86982000"
   },
   {
      "name": "Welschenrohr",
      "countryCode": "CH",
      "stateCode": "SO",
      "latitude": "47.28052000",
      "longitude": "7.52664000"
   },
   {
      "name": "Wolfwil",
      "countryCode": "CH",
      "stateCode": "SO",
      "latitude": "47.26871000",
      "longitude": "7.79652000"
   },
   {
      "name": "Zuchwil",
      "countryCode": "CH",
      "stateCode": "SO",
      "latitude": "47.20173000",
      "longitude": "7.56649000"
   }
]