[
   {
      "name": "Alimănești",
      "countryCode": "RO",
      "stateCode": "OT",
      "latitude": "44.25693000",
      "longitude": "24.53895000"
   },
   {
      "name": "Alunișu",
      "countryCode": "RO",
      "stateCode": "OT",
      "latitude": "44.71667000",
      "longitude": "24.55000000"
   },
   {
      "name": "Bacea",
      "countryCode": "RO",
      "stateCode": "OT",
      "latitude": "44.39824000",
      "longitude": "24.63759000"
   },
   {
      "name": "Baldovineşti",
      "countryCode": "RO",
      "stateCode": "OT",
      "latitude": "44.38333000",
      "longitude": "24.05000000"
   },
   {
      "name": "Balş",
      "countryCode": "RO",
      "stateCode": "OT",
      "latitude": "44.35000000",
      "longitude": "24.10000000"
   },
   {
      "name": "Barza",
      "countryCode": "RO",
      "stateCode": "OT",
      "latitude": "44.33333000",
      "longitude": "24.78333000"
   },
   {
      "name": "Bircii",
      "countryCode": "RO",
      "stateCode": "OT",
      "latitude": "44.51673000",
      "longitude": "24.60324000"
   },
   {
      "name": "Bobiceşti",
      "countryCode": "RO",
      "stateCode": "OT",
      "latitude": "44.38333000",
      "longitude": "24.15000000"
   },
   {
      "name": "Braneț",
      "countryCode": "RO",
      "stateCode": "OT",
      "latitude": "44.32576000",
      "longitude": "24.17792000"
   },
   {
      "name": "Brastavățu",
      "countryCode": "RO",
      "stateCode": "OT",
      "latitude": "43.90634000",
      "longitude": "24.40784000"
   },
   {
      "name": "Brebeni",
      "countryCode": "RO",
      "stateCode": "OT",
      "latitude": "44.36667000",
      "longitude": "24.45000000"
   },
   {
      "name": "Brâncoveni",
      "countryCode": "RO",
      "stateCode": "OT",
      "latitude": "44.31667000",
      "longitude": "24.30000000"
   },
   {
      "name": "Bucinişu",
      "countryCode": "RO",
      "stateCode": "OT",
      "latitude": "43.95000000",
      "longitude": "24.25000000"
   },
   {
      "name": "Bușca",
      "countryCode": "RO",
      "stateCode": "OT",
      "latitude": "44.11166000",
      "longitude": "24.80238000"
   },
   {
      "name": "Băbiciu",
      "countryCode": "RO",
      "stateCode": "OT",
      "latitude": "44.03333000",
      "longitude": "24.56667000"
   },
   {
      "name": "Bălteni",
      "countryCode": "RO",
      "stateCode": "OT",
      "latitude": "44.44883000",
      "longitude": "24.53247000"
   },
   {
      "name": "Bălănești",
      "countryCode": "RO",
      "stateCode": "OT",
      "latitude": "44.24970000",
      "longitude": "24.48216000"
   },
   {
      "name": "Bărăștii de Vede",
      "countryCode": "RO",
      "stateCode": "OT",
      "latitude": "44.71601000",
      "longitude": "24.65919000"
   },
   {
      "name": "Caracal",
      "countryCode": "RO",
      "stateCode": "OT",
      "latitude": "44.11667000",
      "longitude": "24.35000000"
   },
   {
      "name": "Catanele",
      "countryCode": "RO",
      "stateCode": "OT",
      "latitude": "44.38199000",
      "longitude": "24.56145000"
   },
   {
      "name": "Cepari",
      "countryCode": "RO",
      "stateCode": "OT",
      "latitude": "44.49733000",
      "longitude": "24.17122000"
   },
   {
      "name": "Cezieni",
      "countryCode": "RO",
      "stateCode": "OT",
      "latitude": "44.18333000",
      "longitude": "24.26667000"
   },
   {
      "name": "Cilieni",
      "countryCode": "RO",
      "stateCode": "OT",
      "latitude": "43.90000000",
      "longitude": "24.61667000"
   },
   {
      "name": "Coloneşti",
      "countryCode": "RO",
      "stateCode": "OT",
      "latitude": "44.65000000",
      "longitude": "24.66667000"
   },
   {
      "name": "Comanca",
      "countryCode": "RO",
      "stateCode": "OT",
      "latitude": "44.07790000",
      "longitude": "24.35863000"
   },
   {
      "name": "Comani",
      "countryCode": "RO",
      "stateCode": "OT",
      "latitude": "44.18286000",
      "longitude": "24.49160000"
   },
   {
      "name": "Comuna Baldovineşti",
      "countryCode": "RO",
      "stateCode": "OT",
      "latitude": "44.39195000",
      "longitude": "24.03898000"
   },
   {
      "name": "Comuna Bobiceşti",
      "countryCode": "RO",
      "stateCode": "OT",
      "latitude": "44.39321000",
      "longitude": "24.14215000"
   },
   {
      "name": "Comuna Brastavăţu",
      "countryCode": "RO",
      "stateCode": "OT",
      "latitude": "43.91553000",
      "longitude": "24.41135000"
   },
   {
      "name": "Comuna Brebeni",
      "countryCode": "RO",
      "stateCode": "OT",
      "latitude": "44.35956000",
      "longitude": "24.44360000"
   },
   {
      "name": "Comuna Brâncoveni",
      "countryCode": "RO",
      "stateCode": "OT",
      "latitude": "44.31488000",
      "longitude": "24.32941000"
   },
   {
      "name": "Comuna Bucinişu",
      "countryCode": "RO",
      "stateCode": "OT",
      "latitude": "43.94202000",
      "longitude": "24.25463000"
   },
   {
      "name": "Comuna Bârza",
      "countryCode": "RO",
      "stateCode": "OT",
      "latitude": "44.32693000",
      "longitude": "24.15990000"
   },
   {
      "name": "Comuna Bãrãşti",
      "countryCode": "RO",
      "stateCode": "OT",
      "latitude": "44.70852000",
      "longitude": "24.64470000"
   },
   {
      "name": "Comuna Băbiciu",
      "countryCode": "RO",
      "stateCode": "OT",
      "latitude": "44.03230000",
      "longitude": "24.56533000"
   },
   {
      "name": "Comuna Bălteni",
      "countryCode": "RO",
      "stateCode": "OT",
      "latitude": "44.44883000",
      "longitude": "24.53247000"
   },
   {
      "name": "Comuna Cezieni",
      "countryCode": "RO",
      "stateCode": "OT",
      "latitude": "44.18245000",
      "longitude": "24.26846000"
   },
   {
      "name": "Comuna Cilieni",
      "countryCode": "RO",
      "stateCode": "OT",
      "latitude": "43.90206000",
      "longitude": "24.61470000"
   },
   {
      "name": "Comuna Coloneşti",
      "countryCode": "RO",
      "stateCode": "OT",
      "latitude": "44.62345000",
      "longitude": "24.67666000"
   },
   {
      "name": "Comuna Corbu",
      "countryCode": "RO",
      "stateCode": "OT",
      "latitude": "44.45514000",
      "longitude": "24.71639000"
   },
   {
      "name": "Comuna Coteana",
      "countryCode": "RO",
      "stateCode": "OT",
      "latitude": "44.30133000",
      "longitude": "24.46638000"
   },
   {
      "name": "Comuna Crâmpoia",
      "countryCode": "RO",
      "stateCode": "OT",
      "latitude": "44.30513000",
      "longitude": "24.72742000"
   },
   {
      "name": "Comuna Cungrea",
      "countryCode": "RO",
      "stateCode": "OT",
      "latitude": "44.68497000",
      "longitude": "24.39274000"
   },
   {
      "name": "Comuna Curtişoara",
      "countryCode": "RO",
      "stateCode": "OT",
      "latitude": "44.48175000",
      "longitude": "24.34214000"
   },
   {
      "name": "Comuna Cârlogani",
      "countryCode": "RO",
      "stateCode": "OT",
      "latitude": "44.51990000",
      "longitude": "24.16007000"
   },
   {
      "name": "Comuna Cãlui",
      "countryCode": "RO",
      "stateCode": "OT",
      "latitude": "44.45600000",
      "longitude": "24.04953000"
   },
   {
      "name": "Comuna Deveselu",
      "countryCode": "RO",
      "stateCode": "OT",
      "latitude": "44.06569000",
      "longitude": "24.37351000"
   },
   {
      "name": "Comuna Dobreţu",
      "countryCode": "RO",
      "stateCode": "OT",
      "latitude": "44.49164000",
      "longitude": "23.95302000"
   },
   {
      "name": "Comuna Dobrosloveni",
      "countryCode": "RO",
      "stateCode": "OT",
      "latitude": "44.17356000",
      "longitude": "24.36558000"
   },
   {
      "name": "Comuna Dobroteasa",
      "countryCode": "RO",
      "stateCode": "OT",
      "latitude": "44.77107000",
      "longitude": "24.32810000"
   },
   {
      "name": "Comuna Dobrun",
      "countryCode": "RO",
      "stateCode": "OT",
      "latitude": "44.25323000",
      "longitude": "24.23299000"
   },
   {
      "name": "Comuna Drăghiceni",
      "countryCode": "RO",
      "stateCode": "OT",
      "latitude": "44.12694000",
      "longitude": "24.25611000"
   },
   {
      "name": "Comuna Dăneasa",
      "countryCode": "RO",
      "stateCode": "OT",
      "latitude": "44.11390000",
      "longitude": "24.56597000"
   },
   {
      "name": "Comuna Făgeţelu",
      "countryCode": "RO",
      "stateCode": "OT",
      "latitude": "44.78429000",
      "longitude": "24.54421000"
   },
   {
      "name": "Comuna Fălcoiu",
      "countryCode": "RO",
      "stateCode": "OT",
      "latitude": "44.23774000",
      "longitude": "24.37601000"
   },
   {
      "name": "Comuna Fărcaşele",
      "countryCode": "RO",
      "stateCode": "OT",
      "latitude": "44.15057000",
      "longitude": "24.43283000"
   },
   {
      "name": "Comuna Ghimpeţeni",
      "countryCode": "RO",
      "stateCode": "OT",
      "latitude": "44.29002000",
      "longitude": "24.78303000"
   },
   {
      "name": "Comuna Giuvărăşti",
      "countryCode": "RO",
      "stateCode": "OT",
      "latitude": "43.79412000",
      "longitude": "24.68729000"
   },
   {
      "name": "Comuna Gostavăţu",
      "countryCode": "RO",
      "stateCode": "OT",
      "latitude": "44.08028000",
      "longitude": "24.53283000"
   },
   {
      "name": "Comuna Grojdibodu",
      "countryCode": "RO",
      "stateCode": "OT",
      "latitude": "43.75562000",
      "longitude": "24.26073000"
   },
   {
      "name": "Comuna Grãdinari",
      "countryCode": "RO",
      "stateCode": "OT",
      "latitude": "44.56736000",
      "longitude": "24.27761000"
   },
   {
      "name": "Comuna Grãdinile",
      "countryCode": "RO",
      "stateCode": "OT",
      "latitude": "43.94973000",
      "longitude": "24.39228000"
   },
   {
      "name": "Comuna Gura Padinii",
      "countryCode": "RO",
      "stateCode": "OT",
      "latitude": "43.76276000",
      "longitude": "24.31690000"
   },
   {
      "name": "Comuna Gârcov",
      "countryCode": "RO",
      "stateCode": "OT",
      "latitude": "43.77342000",
      "longitude": "24.62709000"
   },
   {
      "name": "Comuna Găneasa",
      "countryCode": "RO",
      "stateCode": "OT",
      "latitude": "44.42129000",
      "longitude": "24.26774000"
   },
   {
      "name": "Comuna Găvăneşti",
      "countryCode": "RO",
      "stateCode": "OT",
      "latitude": "44.41403000",
      "longitude": "24.00867000"
   },
   {
      "name": "Comuna Ianca",
      "countryCode": "RO",
      "stateCode": "OT",
      "latitude": "43.77472000",
      "longitude": "24.19165000"
   },
   {
      "name": "Comuna Iancu Jianu",
      "countryCode": "RO",
      "stateCode": "OT",
      "latitude": "44.51807000",
      "longitude": "24.01257000"
   },
   {
      "name": "Comuna Icoana",
      "countryCode": "RO",
      "stateCode": "OT",
      "latitude": "44.40682000",
      "longitude": "24.72551000"
   },
   {
      "name": "Comuna Ipotesti",
      "countryCode": "RO",
      "stateCode": "OT",
      "latitude": "44.32529000",
      "longitude": "24.40089000"
   },
   {
      "name": "Comuna Izbiceni",
      "countryCode": "RO",
      "stateCode": "OT",
      "latitude": "43.82418000",
      "longitude": "24.66415000"
   },
   {
      "name": "Comuna Izvoarele",
      "countryCode": "RO",
      "stateCode": "OT",
      "latitude": "44.25958000",
      "longitude": "24.53144000"
   },
   {
      "name": "Comuna Leleasca",
      "countryCode": "RO",
      "stateCode": "OT",
      "latitude": "44.75768000",
      "longitude": "24.43708000"
   },
   {
      "name": "Comuna Mihăeşti",
      "countryCode": "RO",
      "stateCode": "OT",
      "latitude": "44.11870000",
      "longitude": "24.79663000"
   },
   {
      "name": "Comuna Milcov",
      "countryCode": "RO",
      "stateCode": "OT",
      "latitude": "44.37396000",
      "longitude": "24.38004000"
   },
   {
      "name": "Comuna Morunglav",
      "countryCode": "RO",
      "stateCode": "OT",
      "latitude": "44.47266000",
      "longitude": "24.11686000"
   },
   {
      "name": "Comuna Movileni",
      "countryCode": "RO",
      "stateCode": "OT",
      "latitude": "44.38368000",
      "longitude": "24.64075000"
   },
   {
      "name": "Comuna Mărunţei",
      "countryCode": "RO",
      "stateCode": "OT",
      "latitude": "44.23679000",
      "longitude": "24.46583000"
   },
   {
      "name": "Comuna Nicolae Titulescu",
      "countryCode": "RO",
      "stateCode": "OT",
      "latitude": "44.27008000",
      "longitude": "24.75897000"
   },
   {
      "name": "Comuna Oboga",
      "countryCode": "RO",
      "stateCode": "OT",
      "latitude": "44.42448000",
      "longitude": "24.08724000"
   },
   {
      "name": "Comuna Obârşia",
      "countryCode": "RO",
      "stateCode": "OT",
      "latitude": "43.89063000",
      "longitude": "24.32188000"
   },
   {
      "name": "Comuna Oporelu",
      "countryCode": "RO",
      "stateCode": "OT",
      "latitude": "44.58682000",
      "longitude": "24.42410000"
   },
   {
      "name": "Comuna Optaşi-Mãgura",
      "countryCode": "RO",
      "stateCode": "OT",
      "latitude": "44.57944000",
      "longitude": "24.65183000"
   },
   {
      "name": "Comuna Orlea",
      "countryCode": "RO",
      "stateCode": "OT",
      "latitude": "43.75430000",
      "longitude": "24.36775000"
   },
   {
      "name": "Comuna Osica de Jos",
      "countryCode": "RO",
      "stateCode": "OT",
      "latitude": "44.23800000",
      "longitude": "24.29502000"
   },
   {
      "name": "Comuna Osica de Sus",
      "countryCode": "RO",
      "stateCode": "OT",
      "latitude": "44.27268000",
      "longitude": "24.33730000"
   },
   {
      "name": "Comuna Perieţi",
      "countryCode": "RO",
      "stateCode": "OT",
      "latitude": "44.40468000",
      "longitude": "24.55611000"
   },
   {
      "name": "Comuna Pleşoiu",
      "countryCode": "RO",
      "stateCode": "OT",
      "latitude": "44.48165000",
      "longitude": "24.24212000"
   },
   {
      "name": "Comuna Poboru",
      "countryCode": "RO",
      "stateCode": "OT",
      "latitude": "44.68335000",
      "longitude": "24.48678000"
   },
   {
      "name": "Comuna Priseaca",
      "countryCode": "RO",
      "stateCode": "OT",
      "latitude": "44.51206000",
      "longitude": "24.43787000"
   },
   {
      "name": "Comuna Pârşcoveni",
      "countryCode": "RO",
      "stateCode": "OT",
      "latitude": "44.29678000",
      "longitude": "24.21836000"
   },
   {
      "name": "Comuna Radomireşti",
      "countryCode": "RO",
      "stateCode": "OT",
      "latitude": "44.11049000",
      "longitude": "24.67816000"
   },
   {
      "name": "Comuna Redea",
      "countryCode": "RO",
      "stateCode": "OT",
      "latitude": "44.04157000",
      "longitude": "24.30677000"
   },
   {
      "name": "Comuna Rotunda",
      "countryCode": "RO",
      "stateCode": "OT",
      "latitude": "43.98427000",
      "longitude": "24.31402000"
   },
   {
      "name": "Comuna Rusăneşti",
      "countryCode": "RO",
      "stateCode": "OT",
      "latitude": "43.94385000",
      "longitude": "24.59498000"
   },
   {
      "name": "Comuna Schitu",
      "countryCode": "RO",
      "stateCode": "OT",
      "latitude": "44.35679000",
      "longitude": "24.55926000"
   },
   {
      "name": "Comuna Scărişoara",
      "countryCode": "RO",
      "stateCode": "OT",
      "latitude": "43.98528000",
      "longitude": "24.58333000"
   },
   {
      "name": "Comuna Seaca",
      "countryCode": "RO",
      "stateCode": "OT",
      "latitude": "44.15159000",
      "longitude": "24.76149000"
   },
   {
      "name": "Comuna Slătioara",
      "countryCode": "RO",
      "stateCode": "OT",
      "latitude": "44.41545000",
      "longitude": "24.32082000"
   },
   {
      "name": "Comuna Spineni",
      "countryCode": "RO",
      "stateCode": "OT",
      "latitude": "44.71808000",
      "longitude": "24.55897000"
   },
   {
      "name": "Comuna Sprâncenata",
      "countryCode": "RO",
      "stateCode": "OT",
      "latitude": "44.06110000",
      "longitude": "24.63984000"
   },
   {
      "name": "Comuna Stoeneşti",
      "countryCode": "RO",
      "stateCode": "OT",
      "latitude": "44.11675000",
      "longitude": "24.49720000"
   },
   {
      "name": "Comuna Stoicăneşti",
      "countryCode": "RO",
      "stateCode": "OT",
      "latitude": "44.18568000",
      "longitude": "24.64267000"
   },
   {
      "name": "Comuna Strejeşti",
      "countryCode": "RO",
      "stateCode": "OT",
      "latitude": "44.52733000",
      "longitude": "24.27036000"
   },
   {
      "name": "Comuna Studina",
      "countryCode": "RO",
      "stateCode": "OT",
      "latitude": "43.96784000",
      "longitude": "24.42136000"
   },
   {
      "name": "Comuna Sâmbureşti",
      "countryCode": "RO",
      "stateCode": "OT",
      "latitude": "44.81131000",
      "longitude": "24.39922000"
   },
   {
      "name": "Comuna Sârbii-Măgura",
      "countryCode": "RO",
      "stateCode": "OT",
      "latitude": "44.52730000",
      "longitude": "24.69585000"
   },
   {
      "name": "Comuna Teslui",
      "countryCode": "RO",
      "stateCode": "OT",
      "latitude": "44.51316000",
      "longitude": "24.35600000"
   },
   {
      "name": "Comuna Tia Mare",
      "countryCode": "RO",
      "stateCode": "OT",
      "latitude": "43.86417000",
      "longitude": "24.63883000"
   },
   {
      "name": "Comuna Topana",
      "countryCode": "RO",
      "stateCode": "OT",
      "latitude": "44.84319000",
      "longitude": "24.52827000"
   },
   {
      "name": "Comuna Traian",
      "countryCode": "RO",
      "stateCode": "OT",
      "latitude": "44.02337000",
      "longitude": "24.45586000"
   },
   {
      "name": "Comuna Tufeni",
      "countryCode": "RO",
      "stateCode": "OT",
      "latitude": "44.34718000",
      "longitude": "24.78986000"
   },
   {
      "name": "Comuna Tătuleşti",
      "countryCode": "RO",
      "stateCode": "OT",
      "latitude": "44.66386000",
      "longitude": "24.61405000"
   },
   {
      "name": "Comuna Urzica",
      "countryCode": "RO",
      "stateCode": "OT",
      "latitude": "43.86055000",
      "longitude": "24.27497000"
   },
   {
      "name": "Comuna Valea Mare",
      "countryCode": "RO",
      "stateCode": "OT",
      "latitude": "44.44188000",
      "longitude": "24.46120000"
   },
   {
      "name": "Comuna Verguleasa",
      "countryCode": "RO",
      "stateCode": "OT",
      "latitude": "44.64128000",
      "longitude": "24.34234000"
   },
   {
      "name": "Comuna Vitomireşti",
      "countryCode": "RO",
      "stateCode": "OT",
      "latitude": "44.85194000",
      "longitude": "24.37704000"
   },
   {
      "name": "Comuna Vişina",
      "countryCode": "RO",
      "stateCode": "OT",
      "latitude": "43.86618000",
      "longitude": "24.45469000"
   },
   {
      "name": "Comuna Vişina Nouă",
      "countryCode": "RO",
      "stateCode": "OT",
      "latitude": "43.87434000",
      "longitude": "24.41820000"
   },
   {
      "name": "Comuna Vlădila",
      "countryCode": "RO",
      "stateCode": "OT",
      "latitude": "44.00114000",
      "longitude": "24.40993000"
   },
   {
      "name": "Comuna Voineasa",
      "countryCode": "RO",
      "stateCode": "OT",
      "latitude": "44.28949000",
      "longitude": "24.15529000"
   },
   {
      "name": "Comuna Vulpeni",
      "countryCode": "RO",
      "stateCode": "OT",
      "latitude": "44.45854000",
      "longitude": "23.92718000"
   },
   {
      "name": "Comuna Vultureşti",
      "countryCode": "RO",
      "stateCode": "OT",
      "latitude": "44.72993000",
      "longitude": "24.33354000"
   },
   {
      "name": "Comuna Vâlcele",
      "countryCode": "RO",
      "stateCode": "OT",
      "latitude": "44.28923000",
      "longitude": "24.54968000"
   },
   {
      "name": "Comuna Vădastra",
      "countryCode": "RO",
      "stateCode": "OT",
      "latitude": "43.86497000",
      "longitude": "24.38069000"
   },
   {
      "name": "Comuna Vădăstriţa",
      "countryCode": "RO",
      "stateCode": "OT",
      "latitude": "43.84531000",
      "longitude": "24.34017000"
   },
   {
      "name": "Comuna Văleni",
      "countryCode": "RO",
      "stateCode": "OT",
      "latitude": "44.21882000",
      "longitude": "24.79748000"
   },
   {
      "name": "Comuna Şerbăneşti",
      "countryCode": "RO",
      "stateCode": "OT",
      "latitude": "44.33607000",
      "longitude": "24.68782000"
   },
   {
      "name": "Comuna Şopârliţa",
      "countryCode": "RO",
      "stateCode": "OT",
      "latitude": "44.27705000",
      "longitude": "24.27743000"
   },
   {
      "name": "Comuna Ştefan cel Mare",
      "countryCode": "RO",
      "stateCode": "OT",
      "latitude": "43.81174000",
      "longitude": "24.22262000"
   },
   {
      "name": "Corabia",
      "countryCode": "RO",
      "stateCode": "OT",
      "latitude": "43.77513000",
      "longitude": "24.50146000"
   },
   {
      "name": "Corbu",
      "countryCode": "RO",
      "stateCode": "OT",
      "latitude": "44.48333000",
      "longitude": "24.71667000"
   },
   {
      "name": "Coteana",
      "countryCode": "RO",
      "stateCode": "OT",
      "latitude": "44.30000000",
      "longitude": "24.46667000"
   },
   {
      "name": "Crușovu",
      "countryCode": "RO",
      "stateCode": "OT",
      "latitude": "43.92473000",
      "longitude": "24.41486000"
   },
   {
      "name": "Crâmpoia",
      "countryCode": "RO",
      "stateCode": "OT",
      "latitude": "44.30215000",
      "longitude": "24.74513000"
   },
   {
      "name": "Crăciunei",
      "countryCode": "RO",
      "stateCode": "OT",
      "latitude": "44.14575000",
      "longitude": "24.66309000"
   },
   {
      "name": "Cungrea",
      "countryCode": "RO",
      "stateCode": "OT",
      "latitude": "44.66667000",
      "longitude": "24.38333000"
   },
   {
      "name": "Curtişoara",
      "countryCode": "RO",
      "stateCode": "OT",
      "latitude": "44.50000000",
      "longitude": "24.33333000"
   },
   {
      "name": "Cârlogani",
      "countryCode": "RO",
      "stateCode": "OT",
      "latitude": "44.51667000",
      "longitude": "24.15000000"
   },
   {
      "name": "Călinești",
      "countryCode": "RO",
      "stateCode": "OT",
      "latitude": "44.07727000",
      "longitude": "24.68796000"
   },
   {
      "name": "Călui",
      "countryCode": "RO",
      "stateCode": "OT",
      "latitude": "44.45297000",
      "longitude": "24.06360000"
   },
   {
      "name": "Dejești",
      "countryCode": "RO",
      "stateCode": "OT",
      "latitude": "44.83093000",
      "longitude": "24.35648000"
   },
   {
      "name": "Deveselu",
      "countryCode": "RO",
      "stateCode": "OT",
      "latitude": "44.06667000",
      "longitude": "24.38333000"
   },
   {
      "name": "Doanca",
      "countryCode": "RO",
      "stateCode": "OT",
      "latitude": "43.84870000",
      "longitude": "24.64949000"
   },
   {
      "name": "Dobreţu",
      "countryCode": "RO",
      "stateCode": "OT",
      "latitude": "44.50000000",
      "longitude": "23.95000000"
   },
   {
      "name": "Dobrosloveni",
      "countryCode": "RO",
      "stateCode": "OT",
      "latitude": "44.18333000",
      "longitude": "24.36667000"
   },
   {
      "name": "Dobroteasa",
      "countryCode": "RO",
      "stateCode": "OT",
      "latitude": "44.78333000",
      "longitude": "24.38333000"
   },
   {
      "name": "Dobrotinet",
      "countryCode": "RO",
      "stateCode": "OT",
      "latitude": "44.47957000",
      "longitude": "24.34730000"
   },
   {
      "name": "Dobrun",
      "countryCode": "RO",
      "stateCode": "OT",
      "latitude": "44.26667000",
      "longitude": "24.21667000"
   },
   {
      "name": "Dranovățu",
      "countryCode": "RO",
      "stateCode": "OT",
      "latitude": "44.43619000",
      "longitude": "24.27894000"
   },
   {
      "name": "Drăghiceni",
      "countryCode": "RO",
      "stateCode": "OT",
      "latitude": "44.13333000",
      "longitude": "24.25000000"
   },
   {
      "name": "Drăgăneşti-Olt",
      "countryCode": "RO",
      "stateCode": "OT",
      "latitude": "44.16667000",
      "longitude": "24.53333000"
   },
   {
      "name": "Dumitrești",
      "countryCode": "RO",
      "stateCode": "OT",
      "latitude": "44.68370000",
      "longitude": "24.31628000"
   },
   {
      "name": "Dăneasa",
      "countryCode": "RO",
      "stateCode": "OT",
      "latitude": "44.15000000",
      "longitude": "24.56667000"
   },
   {
      "name": "Făgeţelu",
      "countryCode": "RO",
      "stateCode": "OT",
      "latitude": "44.78333000",
      "longitude": "24.53333000"
   },
   {
      "name": "Fălcoiu",
      "countryCode": "RO",
      "stateCode": "OT",
      "latitude": "44.23333000",
      "longitude": "24.36667000"
   },
   {
      "name": "Fărcaşele",
      "countryCode": "RO",
      "stateCode": "OT",
      "latitude": "44.15000000",
      "longitude": "24.43333000"
   },
   {
      "name": "Fărcașu de Jos",
      "countryCode": "RO",
      "stateCode": "OT",
      "latitude": "44.13539000",
      "longitude": "24.45901000"
   },
   {
      "name": "Ghimpați",
      "countryCode": "RO",
      "stateCode": "OT",
      "latitude": "44.15359000",
      "longitude": "24.42698000"
   },
   {
      "name": "Ghimpețeni",
      "countryCode": "RO",
      "stateCode": "OT",
      "latitude": "44.28101000",
      "longitude": "24.77458000"
   },
   {
      "name": "Ghioca",
      "countryCode": "RO",
      "stateCode": "OT",
      "latitude": "44.31667000",
      "longitude": "24.73333000"
   },
   {
      "name": "Giuvărăşti",
      "countryCode": "RO",
      "stateCode": "OT",
      "latitude": "43.80000000",
      "longitude": "24.70000000"
   },
   {
      "name": "Gostavăţu",
      "countryCode": "RO",
      "stateCode": "OT",
      "latitude": "44.08333000",
      "longitude": "24.53333000"
   },
   {
      "name": "Greci",
      "countryCode": "RO",
      "stateCode": "OT",
      "latitude": "44.33025000",
      "longitude": "24.55923000"
   },
   {
      "name": "Grojdibodu",
      "countryCode": "RO",
      "stateCode": "OT",
      "latitude": "43.75000000",
      "longitude": "24.26667000"
   },
   {
      "name": "Gropșani",
      "countryCode": "RO",
      "stateCode": "OT",
      "latitude": "44.44072000",
      "longitude": "23.97047000"
   },
   {
      "name": "Grădinari",
      "countryCode": "RO",
      "stateCode": "OT",
      "latitude": "44.56667000",
      "longitude": "24.26667000"
   },
   {
      "name": "Gura Căluiu",
      "countryCode": "RO",
      "stateCode": "OT",
      "latitude": "44.45903000",
      "longitude": "24.03547000"
   },
   {
      "name": "Gura Padinii",
      "countryCode": "RO",
      "stateCode": "OT",
      "latitude": "43.75704000",
      "longitude": "24.31615000"
   },
   {
      "name": "Gârcov",
      "countryCode": "RO",
      "stateCode": "OT",
      "latitude": "43.75910000",
      "longitude": "24.61577000"
   },
   {
      "name": "Găneasa",
      "countryCode": "RO",
      "stateCode": "OT",
      "latitude": "44.41667000",
      "longitude": "24.28333000"
   },
   {
      "name": "Găvănești",
      "countryCode": "RO",
      "stateCode": "OT",
      "latitude": "44.41724000",
      "longitude": "24.01654000"
   },
   {
      "name": "Ianca",
      "countryCode": "RO",
      "stateCode": "OT",
      "latitude": "43.78333000",
      "longitude": "24.18333000"
   },
   {
      "name": "Iancu Jianu",
      "countryCode": "RO",
      "stateCode": "OT",
      "latitude": "44.50000000",
      "longitude": "24.03333000"
   },
   {
      "name": "Icoana",
      "countryCode": "RO",
      "stateCode": "OT",
      "latitude": "44.41667000",
      "longitude": "24.71667000"
   },
   {
      "name": "Ipotești",
      "countryCode": "RO",
      "stateCode": "OT",
      "latitude": "44.32529000",
      "longitude": "24.40089000"
   },
   {
      "name": "Izbiceni",
      "countryCode": "RO",
      "stateCode": "OT",
      "latitude": "43.83333000",
      "longitude": "24.65000000"
   },
   {
      "name": "Izvoarele",
      "countryCode": "RO",
      "stateCode": "OT",
      "latitude": "44.26667000",
      "longitude": "24.51667000"
   },
   {
      "name": "Jieni",
      "countryCode": "RO",
      "stateCode": "OT",
      "latitude": "43.95095000",
      "longitude": "24.59349000"
   },
   {
      "name": "Leleasca",
      "countryCode": "RO",
      "stateCode": "OT",
      "latitude": "44.78333000",
      "longitude": "24.43333000"
   },
   {
      "name": "Mihăeşti",
      "countryCode": "RO",
      "stateCode": "OT",
      "latitude": "44.13333000",
      "longitude": "24.78333000"
   },
   {
      "name": "Morunglav",
      "countryCode": "RO",
      "stateCode": "OT",
      "latitude": "44.46667000",
      "longitude": "24.11667000"
   },
   {
      "name": "Movileni",
      "countryCode": "RO",
      "stateCode": "OT",
      "latitude": "44.36667000",
      "longitude": "24.65000000"
   },
   {
      "name": "Municipiul Caracal",
      "countryCode": "RO",
      "stateCode": "OT",
      "latitude": "44.11273000",
      "longitude": "24.35089000"
   },
   {
      "name": "Municipiul Slatina",
      "countryCode": "RO",
      "stateCode": "OT",
      "latitude": "44.44276000",
      "longitude": "24.36745000"
   },
   {
      "name": "Mărgineni Slobozia",
      "countryCode": "RO",
      "stateCode": "OT",
      "latitude": "44.53121000",
      "longitude": "24.55675000"
   },
   {
      "name": "Mărunţei",
      "countryCode": "RO",
      "stateCode": "OT",
      "latitude": "44.20000000",
      "longitude": "24.46667000"
   },
   {
      "name": "Negreni",
      "countryCode": "RO",
      "stateCode": "OT",
      "latitude": "44.56848000",
      "longitude": "24.59535000"
   },
   {
      "name": "Nicolae Titulescu",
      "countryCode": "RO",
      "stateCode": "OT",
      "latitude": "44.30000000",
      "longitude": "24.80000000"
   },
   {
      "name": "Oboga",
      "countryCode": "RO",
      "stateCode": "OT",
      "latitude": "44.41667000",
      "longitude": "24.10000000"
   },
   {
      "name": "Obârşia",
      "countryCode": "RO",
      "stateCode": "OT",
      "latitude": "43.88333000",
      "longitude": "24.33333000"
   },
   {
      "name": "Olari",
      "countryCode": "RO",
      "stateCode": "OT",
      "latitude": "44.30783000",
      "longitude": "24.20857000"
   },
   {
      "name": "Oporelu",
      "countryCode": "RO",
      "stateCode": "OT",
      "latitude": "44.60000000",
      "longitude": "24.41667000"
   },
   {
      "name": "Optaşi",
      "countryCode": "RO",
      "stateCode": "OT",
      "latitude": "44.58333000",
      "longitude": "24.65000000"
   },
   {
      "name": "Oraş Balş",
      "countryCode": "RO",
      "stateCode": "OT",
      "latitude": "44.36546000",
      "longitude": "24.11321000"
   },
   {
      "name": "Oraş Corabia",
      "countryCode": "RO",
      "stateCode": "OT",
      "latitude": "43.80248000",
      "longitude": "24.47028000"
   },
   {
      "name": "Oraş Drãgãneşti-Olt",
      "countryCode": "RO",
      "stateCode": "OT",
      "latitude": "44.17618000",
      "longitude": "24.50836000"
   },
   {
      "name": "Oraş Piatra-Olt",
      "countryCode": "RO",
      "stateCode": "OT",
      "latitude": "44.37560000",
      "longitude": "24.28332000"
   },
   {
      "name": "Oraş Potcoava",
      "countryCode": "RO",
      "stateCode": "OT",
      "latitude": "44.47992000",
      "longitude": "24.64172000"
   },
   {
      "name": "Oraş Scorniceşti",
      "countryCode": "RO",
      "stateCode": "OT",
      "latitude": "44.56790000",
      "longitude": "24.55394000"
   },
   {
      "name": "Orlea",
      "countryCode": "RO",
      "stateCode": "OT",
      "latitude": "43.75000000",
      "longitude": "24.38333000"
   },
   {
      "name": "Orlea Nouă",
      "countryCode": "RO",
      "stateCode": "OT",
      "latitude": "43.75522000",
      "longitude": "24.35834000"
   },
   {
      "name": "Osica de Jos",
      "countryCode": "RO",
      "stateCode": "OT",
      "latitude": "44.24439000",
      "longitude": "24.27926000"
   },
   {
      "name": "Osica de Sus",
      "countryCode": "RO",
      "stateCode": "OT",
      "latitude": "44.25000000",
      "longitude": "24.31667000"
   },
   {
      "name": "Perieţi",
      "countryCode": "RO",
      "stateCode": "OT",
      "latitude": "44.40000000",
      "longitude": "24.55000000"
   },
   {
      "name": "Piatra",
      "countryCode": "RO",
      "stateCode": "OT",
      "latitude": "44.36054000",
      "longitude": "24.29557000"
   },
   {
      "name": "Piatra Olt",
      "countryCode": "RO",
      "stateCode": "OT",
      "latitude": "44.36667000",
      "longitude": "24.26667000"
   },
   {
      "name": "Pleşoiu",
      "countryCode": "RO",
      "stateCode": "OT",
      "latitude": "44.46667000",
      "longitude": "24.26667000"
   },
   {
      "name": "Poboru",
      "countryCode": "RO",
      "stateCode": "OT",
      "latitude": "44.66667000",
      "longitude": "24.50000000"
   },
   {
      "name": "Potcoava",
      "countryCode": "RO",
      "stateCode": "OT",
      "latitude": "44.48333000",
      "longitude": "24.65000000"
   },
   {
      "name": "Potcoava Fălcoeni",
      "countryCode": "RO",
      "stateCode": "OT",
      "latitude": "44.49484000",
      "longitude": "24.61650000"
   },
   {
      "name": "Potelu",
      "countryCode": "RO",
      "stateCode": "OT",
      "latitude": "43.76577000",
      "longitude": "24.20535000"
   },
   {
      "name": "Potlogeni",
      "countryCode": "RO",
      "stateCode": "OT",
      "latitude": "43.87995000",
      "longitude": "24.63092000"
   },
   {
      "name": "Priseaca",
      "countryCode": "RO",
      "stateCode": "OT",
      "latitude": "44.51667000",
      "longitude": "24.45000000"
   },
   {
      "name": "Pârşcoveni",
      "countryCode": "RO",
      "stateCode": "OT",
      "latitude": "44.30000000",
      "longitude": "24.23333000"
   },
   {
      "name": "Radomireşti",
      "countryCode": "RO",
      "stateCode": "OT",
      "latitude": "44.11667000",
      "longitude": "24.68333000"
   },
   {
      "name": "Redea",
      "countryCode": "RO",
      "stateCode": "OT",
      "latitude": "44.05000000",
      "longitude": "24.30000000"
   },
   {
      "name": "Rotunda",
      "countryCode": "RO",
      "stateCode": "OT",
      "latitude": "43.98333000",
      "longitude": "24.31667000"
   },
   {
      "name": "Rusăneşti",
      "countryCode": "RO",
      "stateCode": "OT",
      "latitude": "43.93333000",
      "longitude": "24.60000000"
   },
   {
      "name": "Schitu",
      "countryCode": "RO",
      "stateCode": "OT",
      "latitude": "44.35000000",
      "longitude": "24.56667000"
   },
   {
      "name": "Scorniceşti",
      "countryCode": "RO",
      "stateCode": "OT",
      "latitude": "44.56667000",
      "longitude": "24.55000000"
   },
   {
      "name": "Scărişoara",
      "countryCode": "RO",
      "stateCode": "OT",
      "latitude": "44.00000000",
      "longitude": "24.56667000"
   },
   {
      "name": "Seaca",
      "countryCode": "RO",
      "stateCode": "OT",
      "latitude": "44.16667000",
      "longitude": "24.75000000"
   },
   {
      "name": "Sinești",
      "countryCode": "RO",
      "stateCode": "OT",
      "latitude": "44.46777000",
      "longitude": "24.66585000"
   },
   {
      "name": "Slatina",
      "countryCode": "RO",
      "stateCode": "OT",
      "latitude": "44.43333000",
      "longitude": "24.36667000"
   },
   {
      "name": "Slătioara",
      "countryCode": "RO",
      "stateCode": "OT",
      "latitude": "44.40000000",
      "longitude": "24.31667000"
   },
   {
      "name": "Slăveni",
      "countryCode": "RO",
      "stateCode": "OT",
      "latitude": "44.08558000",
      "longitude": "24.52843000"
   },
   {
      "name": "Sprâncenata",
      "countryCode": "RO",
      "stateCode": "OT",
      "latitude": "44.08333000",
      "longitude": "24.63333000"
   },
   {
      "name": "Stoeneşti",
      "countryCode": "RO",
      "stateCode": "OT",
      "latitude": "44.11667000",
      "longitude": "24.50000000"
   },
   {
      "name": "Stoicăneşti",
      "countryCode": "RO",
      "stateCode": "OT",
      "latitude": "44.18333000",
      "longitude": "24.63333000"
   },
   {
      "name": "Strejeşti",
      "countryCode": "RO",
      "stateCode": "OT",
      "latitude": "44.53333000",
      "longitude": "24.26667000"
   },
   {
      "name": "Strejeștii de Sus",
      "countryCode": "RO",
      "stateCode": "OT",
      "latitude": "44.54389000",
      "longitude": "24.22772000"
   },
   {
      "name": "Studina",
      "countryCode": "RO",
      "stateCode": "OT",
      "latitude": "43.96667000",
      "longitude": "24.41667000"
   },
   {
      "name": "Studinița",
      "countryCode": "RO",
      "stateCode": "OT",
      "latitude": "43.97691000",
      "longitude": "24.42668000"
   },
   {
      "name": "Stăvaru",
      "countryCode": "RO",
      "stateCode": "OT",
      "latitude": "43.86445000",
      "longitude": "24.25902000"
   },
   {
      "name": "Sâmbureşti",
      "countryCode": "RO",
      "stateCode": "OT",
      "latitude": "44.80000000",
      "longitude": "24.41667000"
   },
   {
      "name": "Teslui",
      "countryCode": "RO",
      "stateCode": "OT",
      "latitude": "44.51667000",
      "longitude": "24.36667000"
   },
   {
      "name": "Tia Mare",
      "countryCode": "RO",
      "stateCode": "OT",
      "latitude": "43.86667000",
      "longitude": "24.63333000"
   },
   {
      "name": "Topana",
      "countryCode": "RO",
      "stateCode": "OT",
      "latitude": "44.81667000",
      "longitude": "24.51667000"
   },
   {
      "name": "Traian",
      "countryCode": "RO",
      "stateCode": "OT",
      "latitude": "44.01667000",
      "longitude": "24.45000000"
   },
   {
      "name": "Tufeni",
      "countryCode": "RO",
      "stateCode": "OT",
      "latitude": "44.36667000",
      "longitude": "24.78333000"
   },
   {
      "name": "Tătuleşti",
      "countryCode": "RO",
      "stateCode": "OT",
      "latitude": "44.63333000",
      "longitude": "24.63333000"
   },
   {
      "name": "Ursa",
      "countryCode": "RO",
      "stateCode": "OT",
      "latitude": "43.78783000",
      "longitude": "24.63787000"
   },
   {
      "name": "Urzica",
      "countryCode": "RO",
      "stateCode": "OT",
      "latitude": "43.85670000",
      "longitude": "24.28952000"
   },
   {
      "name": "Valea Mare",
      "countryCode": "RO",
      "stateCode": "OT",
      "latitude": "44.46667000",
      "longitude": "24.43333000"
   },
   {
      "name": "Valea Merilor",
      "countryCode": "RO",
      "stateCode": "OT",
      "latitude": "44.47169000",
      "longitude": "24.65611000"
   },
   {
      "name": "Verguleasa",
      "countryCode": "RO",
      "stateCode": "OT",
      "latitude": "44.65000000",
      "longitude": "24.31667000"
   },
   {
      "name": "Vitomireşti",
      "countryCode": "RO",
      "stateCode": "OT",
      "latitude": "44.86667000",
      "longitude": "24.40000000"
   },
   {
      "name": "Vitănești",
      "countryCode": "RO",
      "stateCode": "OT",
      "latitude": "44.52730000",
      "longitude": "24.69585000"
   },
   {
      "name": "Vişina",
      "countryCode": "RO",
      "stateCode": "OT",
      "latitude": "43.86667000",
      "longitude": "24.45000000"
   },
   {
      "name": "Vișina Nouă",
      "countryCode": "RO",
      "stateCode": "OT",
      "latitude": "43.87434000",
      "longitude": "24.41820000"
   },
   {
      "name": "Vlădila",
      "countryCode": "RO",
      "stateCode": "OT",
      "latitude": "44.00000000",
      "longitude": "24.40000000"
   },
   {
      "name": "Voineasa",
      "countryCode": "RO",
      "stateCode": "OT",
      "latitude": "44.28333000",
      "longitude": "24.13333000"
   },
   {
      "name": "Vulpeni",
      "countryCode": "RO",
      "stateCode": "OT",
      "latitude": "44.46667000",
      "longitude": "23.91667000"
   },
   {
      "name": "Vultureşti",
      "countryCode": "RO",
      "stateCode": "OT",
      "latitude": "44.73333000",
      "longitude": "24.31667000"
   },
   {
      "name": "Vâlcele",
      "countryCode": "RO",
      "stateCode": "OT",
      "latitude": "44.28263000",
      "longitude": "24.54376000"
   },
   {
      "name": "Vâlcelele de Sus",
      "countryCode": "RO",
      "stateCode": "OT",
      "latitude": "44.28461000",
      "longitude": "24.55821000"
   },
   {
      "name": "Vădastra",
      "countryCode": "RO",
      "stateCode": "OT",
      "latitude": "43.86667000",
      "longitude": "24.36667000"
   },
   {
      "name": "Vădăstriţa",
      "countryCode": "RO",
      "stateCode": "OT",
      "latitude": "43.85000000",
      "longitude": "24.33333000"
   },
   {
      "name": "Văleni",
      "countryCode": "RO",
      "stateCode": "OT",
      "latitude": "44.23333000",
      "longitude": "24.78333000"
   },
   {
      "name": "Şerbăneşti",
      "countryCode": "RO",
      "stateCode": "OT",
      "latitude": "44.33333000",
      "longitude": "24.70000000"
   },
   {
      "name": "Şopârliţa",
      "countryCode": "RO",
      "stateCode": "OT",
      "latitude": "44.28333000",
      "longitude": "24.28333000"
   },
   {
      "name": "Ştefan cel Mare",
      "countryCode": "RO",
      "stateCode": "OT",
      "latitude": "43.81124000",
      "longitude": "24.22039000"
   }
]