[
   {
      "name": "Achtrup",
      "countryCode": "DE",
      "stateCode": "SH",
      "latitude": "54.79053000",
      "longitude": "9.02848000"
   },
   {
      "name": "Ahrensburg",
      "countryCode": "DE",
      "stateCode": "SH",
      "latitude": "53.67515000",
      "longitude": "10.22593000"
   },
   {
      "name": "Ahrensbök",
      "countryCode": "DE",
      "stateCode": "SH",
      "latitude": "54.00862000",
      "longitude": "10.57434000"
   },
   {
      "name": "Albersdorf",
      "countryCode": "DE",
      "stateCode": "SH",
      "latitude": "54.15000000",
      "longitude": "9.28333000"
   },
   {
      "name": "Alt Duvenstedt",
      "countryCode": "DE",
      "stateCode": "SH",
      "latitude": "54.36667000",
      "longitude": "9.65000000"
   },
   {
      "name": "Altenholz",
      "countryCode": "DE",
      "stateCode": "SH",
      "latitude": "54.40000000",
      "longitude": "10.13333000"
   },
   {
      "name": "Altenkrempe",
      "countryCode": "DE",
      "stateCode": "SH",
      "latitude": "54.13333000",
      "longitude": "10.83333000"
   },
   {
      "name": "Alveslohe",
      "countryCode": "DE",
      "stateCode": "SH",
      "latitude": "53.78333000",
      "longitude": "9.91667000"
   },
   {
      "name": "Appen",
      "countryCode": "DE",
      "stateCode": "SH",
      "latitude": "53.65813000",
      "longitude": "9.74582000"
   },
   {
      "name": "Ascheberg",
      "countryCode": "DE",
      "stateCode": "SH",
      "latitude": "54.15027000",
      "longitude": "10.34552000"
   },
   {
      "name": "Aukrug",
      "countryCode": "DE",
      "stateCode": "SH",
      "latitude": "54.08333000",
      "longitude": "9.78333000"
   },
   {
      "name": "Bad Bramstedt",
      "countryCode": "DE",
      "stateCode": "SH",
      "latitude": "53.91830000",
      "longitude": "9.88424000"
   },
   {
      "name": "Bad Oldesloe",
      "countryCode": "DE",
      "stateCode": "SH",
      "latitude": "53.81167000",
      "longitude": "10.37417000"
   },
   {
      "name": "Bad Schwartau",
      "countryCode": "DE",
      "stateCode": "SH",
      "latitude": "53.91887000",
      "longitude": "10.69691000"
   },
   {
      "name": "Bad Segeberg",
      "countryCode": "DE",
      "stateCode": "SH",
      "latitude": "53.94313000",
      "longitude": "10.30215000"
   },
   {
      "name": "Bargfeld-Stegen",
      "countryCode": "DE",
      "stateCode": "SH",
      "latitude": "53.76778000",
      "longitude": "10.18750000"
   },
   {
      "name": "Bargteheide",
      "countryCode": "DE",
      "stateCode": "SH",
      "latitude": "53.72856000",
      "longitude": "10.26695000"
   },
   {
      "name": "Bark",
      "countryCode": "DE",
      "stateCode": "SH",
      "latitude": "53.91146000",
      "longitude": "10.17949000"
   },
   {
      "name": "Barkelsby",
      "countryCode": "DE",
      "stateCode": "SH",
      "latitude": "54.50000000",
      "longitude": "9.83333000"
   },
   {
      "name": "Barmstedt",
      "countryCode": "DE",
      "stateCode": "SH",
      "latitude": "53.79209000",
      "longitude": "9.76739000"
   },
   {
      "name": "Barsbüttel",
      "countryCode": "DE",
      "stateCode": "SH",
      "latitude": "53.56667000",
      "longitude": "10.16667000"
   },
   {
      "name": "Berkenthin",
      "countryCode": "DE",
      "stateCode": "SH",
      "latitude": "53.73333000",
      "longitude": "10.65000000"
   },
   {
      "name": "Blekendorf",
      "countryCode": "DE",
      "stateCode": "SH",
      "latitude": "54.28211000",
      "longitude": "10.65820000"
   },
   {
      "name": "Bokholt-Hanredder",
      "countryCode": "DE",
      "stateCode": "SH",
      "latitude": "53.78808000",
      "longitude": "9.73586000"
   },
   {
      "name": "Bollingstedt",
      "countryCode": "DE",
      "stateCode": "SH",
      "latitude": "54.59229000",
      "longitude": "9.41738000"
   },
   {
      "name": "Boostedt",
      "countryCode": "DE",
      "stateCode": "SH",
      "latitude": "54.01667000",
      "longitude": "10.03333000"
   },
   {
      "name": "Bordelum",
      "countryCode": "DE",
      "stateCode": "SH",
      "latitude": "54.63333000",
      "longitude": "8.93333000"
   },
   {
      "name": "Bordesholm",
      "countryCode": "DE",
      "stateCode": "SH",
      "latitude": "54.17611000",
      "longitude": "10.03146000"
   },
   {
      "name": "Borgstedt",
      "countryCode": "DE",
      "stateCode": "SH",
      "latitude": "54.33268000",
      "longitude": "9.70954000"
   },
   {
      "name": "Bornhöved",
      "countryCode": "DE",
      "stateCode": "SH",
      "latitude": "54.06667000",
      "longitude": "10.23333000"
   },
   {
      "name": "Borstel-Hohenraden",
      "countryCode": "DE",
      "stateCode": "SH",
      "latitude": "53.68333000",
      "longitude": "9.81667000"
   },
   {
      "name": "Bosau",
      "countryCode": "DE",
      "stateCode": "SH",
      "latitude": "54.09787000",
      "longitude": "10.43570000"
   },
   {
      "name": "Bovenau",
      "countryCode": "DE",
      "stateCode": "SH",
      "latitude": "54.33333000",
      "longitude": "9.83333000"
   },
   {
      "name": "Brande-Hörnerkirchen",
      "countryCode": "DE",
      "stateCode": "SH",
      "latitude": "53.85000000",
      "longitude": "9.71667000"
   },
   {
      "name": "Bredenbek",
      "countryCode": "DE",
      "stateCode": "SH",
      "latitude": "54.32247000",
      "longitude": "9.87293000"
   },
   {
      "name": "Bredstedt",
      "countryCode": "DE",
      "stateCode": "SH",
      "latitude": "54.61868000",
      "longitude": "8.96441000"
   },
   {
      "name": "Breiholz",
      "countryCode": "DE",
      "stateCode": "SH",
      "latitude": "54.20554000",
      "longitude": "9.52371000"
   },
   {
      "name": "Breitenburg",
      "countryCode": "DE",
      "stateCode": "SH",
      "latitude": "53.90572000",
      "longitude": "9.57041000"
   },
   {
      "name": "Breitenfelde",
      "countryCode": "DE",
      "stateCode": "SH",
      "latitude": "53.60592000",
      "longitude": "10.63339000"
   },
   {
      "name": "Brekendorf",
      "countryCode": "DE",
      "stateCode": "SH",
      "latitude": "54.42120000",
      "longitude": "9.63350000"
   },
   {
      "name": "Breklum",
      "countryCode": "DE",
      "stateCode": "SH",
      "latitude": "54.60000000",
      "longitude": "8.98333000"
   },
   {
      "name": "Brokdorf",
      "countryCode": "DE",
      "stateCode": "SH",
      "latitude": "53.86380000",
      "longitude": "9.32314000"
   },
   {
      "name": "Brokstedt",
      "countryCode": "DE",
      "stateCode": "SH",
      "latitude": "53.98333000",
      "longitude": "9.81667000"
   },
   {
      "name": "Brunsbüttel",
      "countryCode": "DE",
      "stateCode": "SH",
      "latitude": "53.89504000",
      "longitude": "9.10484000"
   },
   {
      "name": "Brügge",
      "countryCode": "DE",
      "stateCode": "SH",
      "latitude": "54.17578000",
      "longitude": "10.06913000"
   },
   {
      "name": "Buchholz",
      "countryCode": "DE",
      "stateCode": "SH",
      "latitude": "53.98829000",
      "longitude": "9.22362000"
   },
   {
      "name": "Burg",
      "countryCode": "DE",
      "stateCode": "SH",
      "latitude": "53.99708000",
      "longitude": "9.25891000"
   },
   {
      "name": "Burg auf Fehmarn",
      "countryCode": "DE",
      "stateCode": "SH",
      "latitude": "54.43333000",
      "longitude": "11.20000000"
   },
   {
      "name": "Busdorf",
      "countryCode": "DE",
      "stateCode": "SH",
      "latitude": "54.10345000",
      "longitude": "10.08242000"
   },
   {
      "name": "Bönebüttel",
      "countryCode": "DE",
      "stateCode": "SH",
      "latitude": "54.08333000",
      "longitude": "10.06667000"
   },
   {
      "name": "Bönningstedt",
      "countryCode": "DE",
      "stateCode": "SH",
      "latitude": "53.66667000",
      "longitude": "9.91667000"
   },
   {
      "name": "Börnsen",
      "countryCode": "DE",
      "stateCode": "SH",
      "latitude": "53.47620000",
      "longitude": "10.28160000"
   },
   {
      "name": "Bösdorf",
      "countryCode": "DE",
      "stateCode": "SH",
      "latitude": "54.15000000",
      "longitude": "10.48333000"
   },
   {
      "name": "Büchen",
      "countryCode": "DE",
      "stateCode": "SH",
      "latitude": "53.48008000",
      "longitude": "10.61760000"
   },
   {
      "name": "Büdelsdorf",
      "countryCode": "DE",
      "stateCode": "SH",
      "latitude": "54.31844000",
      "longitude": "9.67295000"
   },
   {
      "name": "Büsum",
      "countryCode": "DE",
      "stateCode": "SH",
      "latitude": "54.13398000",
      "longitude": "8.85756000"
   },
   {
      "name": "Dahme",
      "countryCode": "DE",
      "stateCode": "SH",
      "latitude": "54.21667000",
      "longitude": "11.08333000"
   },
   {
      "name": "Damp",
      "countryCode": "DE",
      "stateCode": "SH",
      "latitude": "54.58469000",
      "longitude": "10.01785000"
   },
   {
      "name": "Dannewerk",
      "countryCode": "DE",
      "stateCode": "SH",
      "latitude": "54.48333000",
      "longitude": "9.50000000"
   },
   {
      "name": "Dassendorf",
      "countryCode": "DE",
      "stateCode": "SH",
      "latitude": "53.49532000",
      "longitude": "10.35987000"
   },
   {
      "name": "Delingsdorf",
      "countryCode": "DE",
      "stateCode": "SH",
      "latitude": "53.70000000",
      "longitude": "10.25000000"
   },
   {
      "name": "Dobersdorf",
      "countryCode": "DE",
      "stateCode": "SH",
      "latitude": "54.31893000",
      "longitude": "10.28011000"
   },
   {
      "name": "Dollerup",
      "countryCode": "DE",
      "stateCode": "SH",
      "latitude": "54.77798000",
      "longitude": "9.67981000"
   },
   {
      "name": "Drelsdorf",
      "countryCode": "DE",
      "stateCode": "SH",
      "latitude": "54.60548000",
      "longitude": "9.04449000"
   },
   {
      "name": "Dägeling",
      "countryCode": "DE",
      "stateCode": "SH",
      "latitude": "53.88333000",
      "longitude": "9.53333000"
   },
   {
      "name": "Dänischenhagen",
      "countryCode": "DE",
      "stateCode": "SH",
      "latitude": "54.42775000",
      "longitude": "10.12596000"
   },
   {
      "name": "Eckernförde",
      "countryCode": "DE",
      "stateCode": "SH",
      "latitude": "54.46854000",
      "longitude": "9.83824000"
   },
   {
      "name": "Eddelak",
      "countryCode": "DE",
      "stateCode": "SH",
      "latitude": "53.95000000",
      "longitude": "9.15000000"
   },
   {
      "name": "Eggebek",
      "countryCode": "DE",
      "stateCode": "SH",
      "latitude": "54.61667000",
      "longitude": "9.36667000"
   },
   {
      "name": "Ellerau",
      "countryCode": "DE",
      "stateCode": "SH",
      "latitude": "53.75000000",
      "longitude": "9.91667000"
   },
   {
      "name": "Ellerbek",
      "countryCode": "DE",
      "stateCode": "SH",
      "latitude": "53.65817000",
      "longitude": "9.86991000"
   },
   {
      "name": "Ellerhoop",
      "countryCode": "DE",
      "stateCode": "SH",
      "latitude": "53.72603000",
      "longitude": "9.76933000"
   },
   {
      "name": "Elmenhorst",
      "countryCode": "DE",
      "stateCode": "SH",
      "latitude": "53.76667000",
      "longitude": "10.26667000"
   },
   {
      "name": "Elmshorn",
      "countryCode": "DE",
      "stateCode": "SH",
      "latitude": "53.75396000",
      "longitude": "9.65339000"
   },
   {
      "name": "Elsdorf-Westermühlen",
      "countryCode": "DE",
      "stateCode": "SH",
      "latitude": "54.26667000",
      "longitude": "9.51667000"
   },
   {
      "name": "Emkendorf",
      "countryCode": "DE",
      "stateCode": "SH",
      "latitude": "54.26667000",
      "longitude": "9.85000000"
   },
   {
      "name": "Emmelsbüll-Horsbüll",
      "countryCode": "DE",
      "stateCode": "SH",
      "latitude": "54.81667000",
      "longitude": "8.70000000"
   },
   {
      "name": "Erfde",
      "countryCode": "DE",
      "stateCode": "SH",
      "latitude": "54.30000000",
      "longitude": "9.31667000"
   },
   {
      "name": "Escheburg",
      "countryCode": "DE",
      "stateCode": "SH",
      "latitude": "53.46667000",
      "longitude": "10.31667000"
   },
   {
      "name": "Eutin",
      "countryCode": "DE",
      "stateCode": "SH",
      "latitude": "54.14054000",
      "longitude": "10.60751000"
   },
   {
      "name": "Fahrdorf",
      "countryCode": "DE",
      "stateCode": "SH",
      "latitude": "54.50000000",
      "longitude": "9.60000000"
   },
   {
      "name": "Fahrenkrug",
      "countryCode": "DE",
      "stateCode": "SH",
      "latitude": "53.95000000",
      "longitude": "10.25000000"
   },
   {
      "name": "Fehmarn",
      "countryCode": "DE",
      "stateCode": "SH",
      "latitude": "54.43780000",
      "longitude": "11.19352000"
   },
   {
      "name": "Felde",
      "countryCode": "DE",
      "stateCode": "SH",
      "latitude": "54.30000000",
      "longitude": "9.93333000"
   },
   {
      "name": "Felm",
      "countryCode": "DE",
      "stateCode": "SH",
      "latitude": "54.41667000",
      "longitude": "10.05000000"
   },
   {
      "name": "Fleckeby",
      "countryCode": "DE",
      "stateCode": "SH",
      "latitude": "54.48333000",
      "longitude": "9.70000000"
   },
   {
      "name": "Flensburg",
      "countryCode": "DE",
      "stateCode": "SH",
      "latitude": "54.78431000",
      "longitude": "9.43961000"
   },
   {
      "name": "Flintbek",
      "countryCode": "DE",
      "stateCode": "SH",
      "latitude": "54.25000000",
      "longitude": "10.06667000"
   },
   {
      "name": "Fockbek",
      "countryCode": "DE",
      "stateCode": "SH",
      "latitude": "54.30000000",
      "longitude": "9.60000000"
   },
   {
      "name": "Freienwill",
      "countryCode": "DE",
      "stateCode": "SH",
      "latitude": "54.72752000",
      "longitude": "9.49414000"
   },
   {
      "name": "Friedrichskoog",
      "countryCode": "DE",
      "stateCode": "SH",
      "latitude": "54.01667000",
      "longitude": "8.91667000"
   },
   {
      "name": "Friedrichstadt",
      "countryCode": "DE",
      "stateCode": "SH",
      "latitude": "54.37566000",
      "longitude": "9.08672000"
   },
   {
      "name": "Garding",
      "countryCode": "DE",
      "stateCode": "SH",
      "latitude": "54.33056000",
      "longitude": "8.78056000"
   },
   {
      "name": "Geesthacht",
      "countryCode": "DE",
      "stateCode": "SH",
      "latitude": "53.43575000",
      "longitude": "10.37790000"
   },
   {
      "name": "Gelting",
      "countryCode": "DE",
      "stateCode": "SH",
      "latitude": "54.75000000",
      "longitude": "9.90000000"
   },
   {
      "name": "Gettorf",
      "countryCode": "DE",
      "stateCode": "SH",
      "latitude": "54.40000000",
      "longitude": "9.98333000"
   },
   {
      "name": "Giekau",
      "countryCode": "DE",
      "stateCode": "SH",
      "latitude": "54.31667000",
      "longitude": "10.51667000"
   },
   {
      "name": "Glinde",
      "countryCode": "DE",
      "stateCode": "SH",
      "latitude": "53.54410000",
      "longitude": "10.20048000"
   },
   {
      "name": "Glücksburg",
      "countryCode": "DE",
      "stateCode": "SH",
      "latitude": "54.83522000",
      "longitude": "9.54853000"
   },
   {
      "name": "Glückstadt",
      "countryCode": "DE",
      "stateCode": "SH",
      "latitude": "53.78893000",
      "longitude": "9.42576000"
   },
   {
      "name": "Gnutz",
      "countryCode": "DE",
      "stateCode": "SH",
      "latitude": "54.13333000",
      "longitude": "9.81667000"
   },
   {
      "name": "Goel",
      "countryCode": "DE",
      "stateCode": "SH",
      "latitude": "54.28350000",
      "longitude": "10.94036000"
   },
   {
      "name": "Grebin",
      "countryCode": "DE",
      "stateCode": "SH",
      "latitude": "54.20000000",
      "longitude": "10.50000000"
   },
   {
      "name": "Gremersdorf",
      "countryCode": "DE",
      "stateCode": "SH",
      "latitude": "54.33333000",
      "longitude": "10.93333000"
   },
   {
      "name": "Grossenbrode",
      "countryCode": "DE",
      "stateCode": "SH",
      "latitude": "54.38333000",
      "longitude": "11.08333000"
   },
   {
      "name": "Groß Grönau",
      "countryCode": "DE",
      "stateCode": "SH",
      "latitude": "53.80000000",
      "longitude": "10.75000000"
   },
   {
      "name": "Groß Kummerfeld",
      "countryCode": "DE",
      "stateCode": "SH",
      "latitude": "54.05000000",
      "longitude": "10.08333000"
   },
   {
      "name": "Groß Rheide",
      "countryCode": "DE",
      "stateCode": "SH",
      "latitude": "54.44154000",
      "longitude": "9.43508000"
   },
   {
      "name": "Groß Wittensee",
      "countryCode": "DE",
      "stateCode": "SH",
      "latitude": "54.40000000",
      "longitude": "9.76667000"
   },
   {
      "name": "Großenaspe",
      "countryCode": "DE",
      "stateCode": "SH",
      "latitude": "53.98333000",
      "longitude": "9.96667000"
   },
   {
      "name": "Großensee",
      "countryCode": "DE",
      "stateCode": "SH",
      "latitude": "53.61263000",
      "longitude": "10.33961000"
   },
   {
      "name": "Großenwiehe",
      "countryCode": "DE",
      "stateCode": "SH",
      "latitude": "54.70000000",
      "longitude": "9.25000000"
   },
   {
      "name": "Großhansdorf",
      "countryCode": "DE",
      "stateCode": "SH",
      "latitude": "53.66667000",
      "longitude": "10.28333000"
   },
   {
      "name": "Großsolt",
      "countryCode": "DE",
      "stateCode": "SH",
      "latitude": "54.70000000",
      "longitude": "9.51667000"
   },
   {
      "name": "Grube",
      "countryCode": "DE",
      "stateCode": "SH",
      "latitude": "54.23333000",
      "longitude": "11.03333000"
   },
   {
      "name": "Grömitz",
      "countryCode": "DE",
      "stateCode": "SH",
      "latitude": "54.15000000",
      "longitude": "10.96667000"
   },
   {
      "name": "Grönwohld",
      "countryCode": "DE",
      "stateCode": "SH",
      "latitude": "53.64162000",
      "longitude": "10.40784000"
   },
   {
      "name": "Gudow",
      "countryCode": "DE",
      "stateCode": "SH",
      "latitude": "53.55556000",
      "longitude": "10.77021000"
   },
   {
      "name": "Gülzow",
      "countryCode": "DE",
      "stateCode": "SH",
      "latitude": "53.45000000",
      "longitude": "10.50000000"
   },
   {
      "name": "Güster",
      "countryCode": "DE",
      "stateCode": "SH",
      "latitude": "53.53851000",
      "longitude": "10.67607000"
   },
   {
      "name": "Halstenbek",
      "countryCode": "DE",
      "stateCode": "SH",
      "latitude": "53.63333000",
      "longitude": "9.85000000"
   },
   {
      "name": "Hamberge",
      "countryCode": "DE",
      "stateCode": "SH",
      "latitude": "53.83333000",
      "longitude": "10.58333000"
   },
   {
      "name": "Hamdorf",
      "countryCode": "DE",
      "stateCode": "SH",
      "latitude": "54.22522000",
      "longitude": "9.51866000"
   },
   {
      "name": "Hammoor",
      "countryCode": "DE",
      "stateCode": "SH",
      "latitude": "53.71378000",
      "longitude": "10.32200000"
   },
   {
      "name": "Handewitt",
      "countryCode": "DE",
      "stateCode": "SH",
      "latitude": "54.76667000",
      "longitude": "9.33333000"
   },
   {
      "name": "Hanerau-Hademarschen",
      "countryCode": "DE",
      "stateCode": "SH",
      "latitude": "54.13333000",
      "longitude": "9.41667000"
   },
   {
      "name": "Harrislee",
      "countryCode": "DE",
      "stateCode": "SH",
      "latitude": "54.80000000",
      "longitude": "9.38333000"
   },
   {
      "name": "Hartenholm",
      "countryCode": "DE",
      "stateCode": "SH",
      "latitude": "53.89856000",
      "longitude": "10.05953000"
   },
   {
      "name": "Haselau",
      "countryCode": "DE",
      "stateCode": "SH",
      "latitude": "53.66181000",
      "longitude": "9.62010000"
   },
   {
      "name": "Haseldorf",
      "countryCode": "DE",
      "stateCode": "SH",
      "latitude": "53.63780000",
      "longitude": "9.59151000"
   },
   {
      "name": "Hasloh",
      "countryCode": "DE",
      "stateCode": "SH",
      "latitude": "53.69471000",
      "longitude": "9.91682000"
   },
   {
      "name": "Hattstedt",
      "countryCode": "DE",
      "stateCode": "SH",
      "latitude": "54.53333000",
      "longitude": "9.03333000"
   },
   {
      "name": "Heide",
      "countryCode": "DE",
      "stateCode": "SH",
      "latitude": "54.19579000",
      "longitude": "9.09880000"
   },
   {
      "name": "Heidgraben",
      "countryCode": "DE",
      "stateCode": "SH",
      "latitude": "53.70787000",
      "longitude": "9.68099000"
   },
   {
      "name": "Heikendorf",
      "countryCode": "DE",
      "stateCode": "SH",
      "latitude": "54.36667000",
      "longitude": "10.20000000"
   },
   {
      "name": "Heiligenhafen",
      "countryCode": "DE",
      "stateCode": "SH",
      "latitude": "54.36964000",
      "longitude": "10.98022000"
   },
   {
      "name": "Heiligenstedten",
      "countryCode": "DE",
      "stateCode": "SH",
      "latitude": "53.93264000",
      "longitude": "9.47462000"
   },
   {
      "name": "Heist",
      "countryCode": "DE",
      "stateCode": "SH",
      "latitude": "53.65000000",
      "longitude": "9.65000000"
   },
   {
      "name": "Helgoland",
      "countryCode": "DE",
      "stateCode": "SH",
      "latitude": "54.18143000",
      "longitude": "7.88630000"
   },
   {
      "name": "Hemdingen",
      "countryCode": "DE",
      "stateCode": "SH",
      "latitude": "53.76667000",
      "longitude": "9.83333000"
   },
   {
      "name": "Hemmingstedt",
      "countryCode": "DE",
      "stateCode": "SH",
      "latitude": "54.15000000",
      "longitude": "9.06667000"
   },
   {
      "name": "Hennstedt",
      "countryCode": "DE",
      "stateCode": "SH",
      "latitude": "54.28333000",
      "longitude": "9.16667000"
   },
   {
      "name": "Henstedt-Ulzburg",
      "countryCode": "DE",
      "stateCode": "SH",
      "latitude": "53.80500000",
      "longitude": "9.97452000"
   },
   {
      "name": "Heringsdorf",
      "countryCode": "DE",
      "stateCode": "SH",
      "latitude": "54.30100000",
      "longitude": "11.00658000"
   },
   {
      "name": "Herzhorn",
      "countryCode": "DE",
      "stateCode": "SH",
      "latitude": "53.78333000",
      "longitude": "9.48333000"
   },
   {
      "name": "Hetlingen",
      "countryCode": "DE",
      "stateCode": "SH",
      "latitude": "53.60712000",
      "longitude": "9.63718000"
   },
   {
      "name": "Hitzhusen",
      "countryCode": "DE",
      "stateCode": "SH",
      "latitude": "53.92397000",
      "longitude": "9.85262000"
   },
   {
      "name": "Hochdonn",
      "countryCode": "DE",
      "stateCode": "SH",
      "latitude": "54.02663000",
      "longitude": "9.27624000"
   },
   {
      "name": "Hohenaspe",
      "countryCode": "DE",
      "stateCode": "SH",
      "latitude": "53.98898000",
      "longitude": "9.52774000"
   },
   {
      "name": "Hohenfelde",
      "countryCode": "DE",
      "stateCode": "SH",
      "latitude": "54.36667000",
      "longitude": "10.50000000"
   },
   {
      "name": "Hohenlockstedt",
      "countryCode": "DE",
      "stateCode": "SH",
      "latitude": "53.96667000",
      "longitude": "9.61667000"
   },
   {
      "name": "Hohenwestedt",
      "countryCode": "DE",
      "stateCode": "SH",
      "latitude": "54.08886000",
      "longitude": "9.65359000"
   },
   {
      "name": "Hohn",
      "countryCode": "DE",
      "stateCode": "SH",
      "latitude": "54.30000000",
      "longitude": "9.50000000"
   },
   {
      "name": "Hoisdorf",
      "countryCode": "DE",
      "stateCode": "SH",
      "latitude": "53.65000000",
      "longitude": "10.31667000"
   },
   {
      "name": "Hollingstedt",
      "countryCode": "DE",
      "stateCode": "SH",
      "latitude": "54.45934000",
      "longitude": "9.33695000"
   },
   {
      "name": "Holm",
      "countryCode": "DE",
      "stateCode": "SH",
      "latitude": "53.61667000",
      "longitude": "9.66667000"
   },
   {
      "name": "Holtsee",
      "countryCode": "DE",
      "stateCode": "SH",
      "latitude": "54.40000000",
      "longitude": "9.85000000"
   },
   {
      "name": "Horst",
      "countryCode": "DE",
      "stateCode": "SH",
      "latitude": "53.81195000",
      "longitude": "9.62307000"
   },
   {
      "name": "Husum",
      "countryCode": "DE",
      "stateCode": "SH",
      "latitude": "54.48580000",
      "longitude": "9.05239000"
   },
   {
      "name": "Hürup",
      "countryCode": "DE",
      "stateCode": "SH",
      "latitude": "54.75000000",
      "longitude": "9.53333000"
   },
   {
      "name": "Itzehoe",
      "countryCode": "DE",
      "stateCode": "SH",
      "latitude": "53.92099000",
      "longitude": "9.51529000"
   },
   {
      "name": "Itzstedt",
      "countryCode": "DE",
      "stateCode": "SH",
      "latitude": "53.80800000",
      "longitude": "10.15797000"
   },
   {
      "name": "Jarplund-Weding",
      "countryCode": "DE",
      "stateCode": "SH",
      "latitude": "54.73714000",
      "longitude": "9.41813000"
   },
   {
      "name": "Jerrishoe",
      "countryCode": "DE",
      "stateCode": "SH",
      "latitude": "54.65670000",
      "longitude": "9.36918000"
   },
   {
      "name": "Jersbek",
      "countryCode": "DE",
      "stateCode": "SH",
      "latitude": "53.73333000",
      "longitude": "10.21667000"
   },
   {
      "name": "Jevenstedt",
      "countryCode": "DE",
      "stateCode": "SH",
      "latitude": "54.23333000",
      "longitude": "9.66667000"
   },
   {
      "name": "Jübek",
      "countryCode": "DE",
      "stateCode": "SH",
      "latitude": "54.55709000",
      "longitude": "9.39773000"
   },
   {
      "name": "Kaltenkirchen",
      "countryCode": "DE",
      "stateCode": "SH",
      "latitude": "53.83292000",
      "longitude": "9.95810000"
   },
   {
      "name": "Kappeln",
      "countryCode": "DE",
      "stateCode": "SH",
      "latitude": "54.66122000",
      "longitude": "9.93130000"
   },
   {
      "name": "Kasseedorf",
      "countryCode": "DE",
      "stateCode": "SH",
      "latitude": "54.16667000",
      "longitude": "10.71667000"
   },
   {
      "name": "Kastorf",
      "countryCode": "DE",
      "stateCode": "SH",
      "latitude": "53.74569000",
      "longitude": "10.56723000"
   },
   {
      "name": "Kayhude",
      "countryCode": "DE",
      "stateCode": "SH",
      "latitude": "53.75629000",
      "longitude": "10.13232000"
   },
   {
      "name": "Keitum",
      "countryCode": "DE",
      "stateCode": "SH",
      "latitude": "54.89333000",
      "longitude": "8.37083000"
   },
   {
      "name": "Kellenhusen",
      "countryCode": "DE",
      "stateCode": "SH",
      "latitude": "54.19338000",
      "longitude": "11.06165000"
   },
   {
      "name": "Kellinghusen",
      "countryCode": "DE",
      "stateCode": "SH",
      "latitude": "53.95202000",
      "longitude": "9.71959000"
   },
   {
      "name": "Kiebitzreihe",
      "countryCode": "DE",
      "stateCode": "SH",
      "latitude": "53.78333000",
      "longitude": "9.61667000"
   },
   {
      "name": "Kiel",
      "countryCode": "DE",
      "stateCode": "SH",
      "latitude": "54.32133000",
      "longitude": "10.13489000"
   },
   {
      "name": "Kisdorf",
      "countryCode": "DE",
      "stateCode": "SH",
      "latitude": "53.81667000",
      "longitude": "10.01667000"
   },
   {
      "name": "Klausdorf",
      "countryCode": "DE",
      "stateCode": "SH",
      "latitude": "54.30899000",
      "longitude": "10.21372000"
   },
   {
      "name": "Klein Nordende",
      "countryCode": "DE",
      "stateCode": "SH",
      "latitude": "53.72219000",
      "longitude": "9.65424000"
   },
   {
      "name": "Klein Offenseth-Sparrieshoop",
      "countryCode": "DE",
      "stateCode": "SH",
      "latitude": "53.79748000",
      "longitude": "9.68653000"
   },
   {
      "name": "Klein Rönnau",
      "countryCode": "DE",
      "stateCode": "SH",
      "latitude": "53.96667000",
      "longitude": "10.31667000"
   },
   {
      "name": "Kollmar",
      "countryCode": "DE",
      "stateCode": "SH",
      "latitude": "53.72936000",
      "longitude": "9.47880000"
   },
   {
      "name": "Kosel",
      "countryCode": "DE",
      "stateCode": "SH",
      "latitude": "54.50580000",
      "longitude": "9.75653000"
   },
   {
      "name": "Krempe",
      "countryCode": "DE",
      "stateCode": "SH",
      "latitude": "53.83694000",
      "longitude": "9.48831000"
   },
   {
      "name": "Kremperheide",
      "countryCode": "DE",
      "stateCode": "SH",
      "latitude": "53.88721000",
      "longitude": "9.47809000"
   },
   {
      "name": "Kronshagen",
      "countryCode": "DE",
      "stateCode": "SH",
      "latitude": "54.33333000",
      "longitude": "10.08333000"
   },
   {
      "name": "Kropp",
      "countryCode": "DE",
      "stateCode": "SH",
      "latitude": "54.41667000",
      "longitude": "9.51667000"
   },
   {
      "name": "Krummesse",
      "countryCode": "DE",
      "stateCode": "SH",
      "latitude": "53.78333000",
      "longitude": "10.65000000"
   },
   {
      "name": "Kröppelshagen-Fahrendorf",
      "countryCode": "DE",
      "stateCode": "SH",
      "latitude": "53.48979000",
      "longitude": "10.31697000"
   },
   {
      "name": "Kuddewörde",
      "countryCode": "DE",
      "stateCode": "SH",
      "latitude": "53.58333000",
      "longitude": "10.40000000"
   },
   {
      "name": "Kummerfeld",
      "countryCode": "DE",
      "stateCode": "SH",
      "latitude": "53.69262000",
      "longitude": "9.79099000"
   },
   {
      "name": "Kölln-Reisiek",
      "countryCode": "DE",
      "stateCode": "SH",
      "latitude": "53.75748000",
      "longitude": "9.69772000"
   },
   {
      "name": "Laboe",
      "countryCode": "DE",
      "stateCode": "SH",
      "latitude": "54.40000000",
      "longitude": "10.21667000"
   },
   {
      "name": "Ladelund",
      "countryCode": "DE",
      "stateCode": "SH",
      "latitude": "54.84084000",
      "longitude": "9.02135000"
   },
   {
      "name": "Langballig",
      "countryCode": "DE",
      "stateCode": "SH",
      "latitude": "54.80000000",
      "longitude": "9.63333000"
   },
   {
      "name": "Langenhorn",
      "countryCode": "DE",
      "stateCode": "SH",
      "latitude": "54.66667000",
      "longitude": "8.91667000"
   },
   {
      "name": "Langstedt",
      "countryCode": "DE",
      "stateCode": "SH",
      "latitude": "54.61667000",
      "longitude": "9.38333000"
   },
   {
      "name": "Langwedel",
      "countryCode": "DE",
      "stateCode": "SH",
      "latitude": "54.21033000",
      "longitude": "9.92761000"
   },
   {
      "name": "Lasbek",
      "countryCode": "DE",
      "stateCode": "SH",
      "latitude": "53.73333000",
      "longitude": "10.36667000"
   },
   {
      "name": "Lauenburg",
      "countryCode": "DE",
      "stateCode": "SH",
      "latitude": "53.37199000",
      "longitude": "10.55654000"
   },
   {
      "name": "Leck",
      "countryCode": "DE",
      "stateCode": "SH",
      "latitude": "54.76667000",
      "longitude": "8.98333000"
   },
   {
      "name": "Leezen",
      "countryCode": "DE",
      "stateCode": "SH",
      "latitude": "53.86667000",
      "longitude": "10.25000000"
   },
   {
      "name": "Lehe",
      "countryCode": "DE",
      "stateCode": "SH",
      "latitude": "54.34143000",
      "longitude": "9.02374000"
   },
   {
      "name": "Lehmkuhlen",
      "countryCode": "DE",
      "stateCode": "SH",
      "latitude": "54.23333000",
      "longitude": "10.36667000"
   },
   {
      "name": "Lensahn",
      "countryCode": "DE",
      "stateCode": "SH",
      "latitude": "54.21652000",
      "longitude": "10.88326000"
   },
   {
      "name": "Lentföhrden",
      "countryCode": "DE",
      "stateCode": "SH",
      "latitude": "53.86667000",
      "longitude": "9.88333000"
   },
   {
      "name": "Linau",
      "countryCode": "DE",
      "stateCode": "SH",
      "latitude": "53.64446000",
      "longitude": "10.46853000"
   },
   {
      "name": "Lindau",
      "countryCode": "DE",
      "stateCode": "SH",
      "latitude": "54.38333000",
      "longitude": "9.90000000"
   },
   {
      "name": "Lindewitt",
      "countryCode": "DE",
      "stateCode": "SH",
      "latitude": "54.70000000",
      "longitude": "9.20000000"
   },
   {
      "name": "List",
      "countryCode": "DE",
      "stateCode": "SH",
      "latitude": "55.01917000",
      "longitude": "8.43132000"
   },
   {
      "name": "Lohe-Rickelshof",
      "countryCode": "DE",
      "stateCode": "SH",
      "latitude": "54.18803000",
      "longitude": "9.07066000"
   },
   {
      "name": "Lunden",
      "countryCode": "DE",
      "stateCode": "SH",
      "latitude": "54.33131000",
      "longitude": "9.02523000"
   },
   {
      "name": "Lägerdorf",
      "countryCode": "DE",
      "stateCode": "SH",
      "latitude": "53.88333000",
      "longitude": "9.58333000"
   },
   {
      "name": "Lübeck",
      "countryCode": "DE",
      "stateCode": "SH",
      "latitude": "53.86893000",
      "longitude": "10.68729000"
   },
   {
      "name": "Lürschau",
      "countryCode": "DE",
      "stateCode": "SH",
      "latitude": "54.55000000",
      "longitude": "9.50000000"
   },
   {
      "name": "Lütjenburg",
      "countryCode": "DE",
      "stateCode": "SH",
      "latitude": "54.29188000",
      "longitude": "10.58945000"
   },
   {
      "name": "Lütjensee",
      "countryCode": "DE",
      "stateCode": "SH",
      "latitude": "53.65000000",
      "longitude": "10.36667000"
   },
   {
      "name": "Malente",
      "countryCode": "DE",
      "stateCode": "SH",
      "latitude": "54.17226000",
      "longitude": "10.55968000"
   },
   {
      "name": "Martensrade",
      "countryCode": "DE",
      "stateCode": "SH",
      "latitude": "54.28333000",
      "longitude": "10.40000000"
   },
   {
      "name": "Meldorf",
      "countryCode": "DE",
      "stateCode": "SH",
      "latitude": "54.09182000",
      "longitude": "9.06870000"
   },
   {
      "name": "Melsdorf",
      "countryCode": "DE",
      "stateCode": "SH",
      "latitude": "54.31667000",
      "longitude": "10.03333000"
   },
   {
      "name": "Mielkendorf",
      "countryCode": "DE",
      "stateCode": "SH",
      "latitude": "54.28333000",
      "longitude": "10.05000000"
   },
   {
      "name": "Mildstedt",
      "countryCode": "DE",
      "stateCode": "SH",
      "latitude": "54.46667000",
      "longitude": "9.10000000"
   },
   {
      "name": "Mohrkirch",
      "countryCode": "DE",
      "stateCode": "SH",
      "latitude": "54.66667000",
      "longitude": "9.71667000"
   },
   {
      "name": "Molfsee",
      "countryCode": "DE",
      "stateCode": "SH",
      "latitude": "54.26667000",
      "longitude": "10.06667000"
   },
   {
      "name": "Moorrege",
      "countryCode": "DE",
      "stateCode": "SH",
      "latitude": "53.66667000",
      "longitude": "9.66667000"
   },
   {
      "name": "Munkbrarup",
      "countryCode": "DE",
      "stateCode": "SH",
      "latitude": "54.80000000",
      "longitude": "9.56667000"
   },
   {
      "name": "Mölln",
      "countryCode": "DE",
      "stateCode": "SH",
      "latitude": "53.61702000",
      "longitude": "10.68742000"
   },
   {
      "name": "Mönkeberg",
      "countryCode": "DE",
      "stateCode": "SH",
      "latitude": "54.35000000",
      "longitude": "10.18333000"
   },
   {
      "name": "Münsterdorf",
      "countryCode": "DE",
      "stateCode": "SH",
      "latitude": "53.90232000",
      "longitude": "9.54123000"
   },
   {
      "name": "Nahe",
      "countryCode": "DE",
      "stateCode": "SH",
      "latitude": "53.80000000",
      "longitude": "10.13333000"
   },
   {
      "name": "Negernbötel",
      "countryCode": "DE",
      "stateCode": "SH",
      "latitude": "53.98333000",
      "longitude": "10.25000000"
   },
   {
      "name": "Neuberend",
      "countryCode": "DE",
      "stateCode": "SH",
      "latitude": "54.55000000",
      "longitude": "9.53333000"
   },
   {
      "name": "Neudorf-Bornstein",
      "countryCode": "DE",
      "stateCode": "SH",
      "latitude": "54.43333000",
      "longitude": "9.95000000"
   },
   {
      "name": "Neukirchen",
      "countryCode": "DE",
      "stateCode": "SH",
      "latitude": "54.21465000",
      "longitude": "10.55381000"
   },
   {
      "name": "Neumünster",
      "countryCode": "DE",
      "stateCode": "SH",
      "latitude": "54.07477000",
      "longitude": "9.98195000"
   },
   {
      "name": "Neustadt in Holstein",
      "countryCode": "DE",
      "stateCode": "SH",
      "latitude": "54.10707000",
      "longitude": "10.81450000"
   },
   {
      "name": "Neuwittenbek",
      "countryCode": "DE",
      "stateCode": "SH",
      "latitude": "54.36667000",
      "longitude": "10.01667000"
   },
   {
      "name": "Niebüll",
      "countryCode": "DE",
      "stateCode": "SH",
      "latitude": "54.78663000",
      "longitude": "8.82854000"
   },
   {
      "name": "Nindorf",
      "countryCode": "DE",
      "stateCode": "SH",
      "latitude": "54.08333000",
      "longitude": "9.11667000"
   },
   {
      "name": "Norderstedt",
      "countryCode": "DE",
      "stateCode": "SH",
      "latitude": "53.68590000",
      "longitude": "9.98041000"
   },
   {
      "name": "Nordhastedt",
      "countryCode": "DE",
      "stateCode": "SH",
      "latitude": "54.16667000",
      "longitude": "9.18333000"
   },
   {
      "name": "Nortorf",
      "countryCode": "DE",
      "stateCode": "SH",
      "latitude": "54.16738000",
      "longitude": "9.85437000"
   },
   {
      "name": "Nusse",
      "countryCode": "DE",
      "stateCode": "SH",
      "latitude": "53.65654000",
      "longitude": "10.58391000"
   },
   {
      "name": "Nübbel",
      "countryCode": "DE",
      "stateCode": "SH",
      "latitude": "54.26667000",
      "longitude": "9.61667000"
   },
   {
      "name": "Nützen",
      "countryCode": "DE",
      "stateCode": "SH",
      "latitude": "53.86667000",
      "longitude": "9.91667000"
   },
   {
      "name": "Oelixdorf",
      "countryCode": "DE",
      "stateCode": "SH",
      "latitude": "53.92738000",
      "longitude": "9.56383000"
   },
   {
      "name": "Oeversee",
      "countryCode": "DE",
      "stateCode": "SH",
      "latitude": "54.70000000",
      "longitude": "9.43333000"
   },
   {
      "name": "Oldenburg in Holstein",
      "countryCode": "DE",
      "stateCode": "SH",
      "latitude": "54.29576000",
      "longitude": "10.90156000"
   },
   {
      "name": "Oldendorf",
      "countryCode": "DE",
      "stateCode": "SH",
      "latitude": "53.95341000",
      "longitude": "9.45858000"
   },
   {
      "name": "Oldenswort",
      "countryCode": "DE",
      "stateCode": "SH",
      "latitude": "54.37243000",
      "longitude": "8.93996000"
   },
   {
      "name": "Osdorf",
      "countryCode": "DE",
      "stateCode": "SH",
      "latitude": "54.43333000",
      "longitude": "10.01667000"
   },
   {
      "name": "Ostenfeld",
      "countryCode": "DE",
      "stateCode": "SH",
      "latitude": "54.46400000",
      "longitude": "9.23430000"
   },
   {
      "name": "Osterrönfeld",
      "countryCode": "DE",
      "stateCode": "SH",
      "latitude": "54.29013000",
      "longitude": "9.69900000"
   },
   {
      "name": "Oststeinbek",
      "countryCode": "DE",
      "stateCode": "SH",
      "latitude": "53.54321000",
      "longitude": "10.16939000"
   },
   {
      "name": "Owschlag",
      "countryCode": "DE",
      "stateCode": "SH",
      "latitude": "54.39336000",
      "longitude": "9.59243000"
   },
   {
      "name": "Padenstedt",
      "countryCode": "DE",
      "stateCode": "SH",
      "latitude": "54.05000000",
      "longitude": "9.91667000"
   },
   {
      "name": "Pahlen",
      "countryCode": "DE",
      "stateCode": "SH",
      "latitude": "54.26667000",
      "longitude": "9.30000000"
   },
   {
      "name": "Panker",
      "countryCode": "DE",
      "stateCode": "SH",
      "latitude": "54.33333000",
      "longitude": "10.56667000"
   },
   {
      "name": "Pellworm",
      "countryCode": "DE",
      "stateCode": "SH",
      "latitude": "54.51610000",
      "longitude": "8.64512000"
   },
   {
      "name": "Pinneberg",
      "countryCode": "DE",
      "stateCode": "SH",
      "latitude": "53.66732000",
      "longitude": "9.78936000"
   },
   {
      "name": "Plön",
      "countryCode": "DE",
      "stateCode": "SH",
      "latitude": "54.16241000",
      "longitude": "10.42333000"
   },
   {
      "name": "Preetz",
      "countryCode": "DE",
      "stateCode": "SH",
      "latitude": "54.23540000",
      "longitude": "10.27795000"
   },
   {
      "name": "Prisdorf",
      "countryCode": "DE",
      "stateCode": "SH",
      "latitude": "53.68333000",
      "longitude": "9.75000000"
   },
   {
      "name": "Probsteierhagen",
      "countryCode": "DE",
      "stateCode": "SH",
      "latitude": "54.36153000",
      "longitude": "10.28772000"
   },
   {
      "name": "Pronstorf",
      "countryCode": "DE",
      "stateCode": "SH",
      "latitude": "53.95000000",
      "longitude": "10.46667000"
   },
   {
      "name": "Pölitz",
      "countryCode": "DE",
      "stateCode": "SH",
      "latitude": "53.77303000",
      "longitude": "10.38276000"
   },
   {
      "name": "Quarnbek",
      "countryCode": "DE",
      "stateCode": "SH",
      "latitude": "54.33333000",
      "longitude": "9.98333000"
   },
   {
      "name": "Quern",
      "countryCode": "DE",
      "stateCode": "SH",
      "latitude": "54.75000000",
      "longitude": "9.71667000"
   },
   {
      "name": "Quickborn",
      "countryCode": "DE",
      "stateCode": "SH",
      "latitude": "53.72831000",
      "longitude": "9.90934000"
   },
   {
      "name": "Raisdorf",
      "countryCode": "DE",
      "stateCode": "SH",
      "latitude": "54.28127000",
      "longitude": "10.24915000"
   },
   {
      "name": "Rantrum",
      "countryCode": "DE",
      "stateCode": "SH",
      "latitude": "54.44062000",
      "longitude": "9.12872000"
   },
   {
      "name": "Ratekau",
      "countryCode": "DE",
      "stateCode": "SH",
      "latitude": "53.95000000",
      "longitude": "10.73333000"
   },
   {
      "name": "Ratzeburg",
      "countryCode": "DE",
      "stateCode": "SH",
      "latitude": "53.69965000",
      "longitude": "10.77256000"
   },
   {
      "name": "Reinbek",
      "countryCode": "DE",
      "stateCode": "SH",
      "latitude": "53.51703000",
      "longitude": "10.24880000"
   },
   {
      "name": "Reinfeld",
      "countryCode": "DE",
      "stateCode": "SH",
      "latitude": "53.83184000",
      "longitude": "10.49126000"
   },
   {
      "name": "Rellingen",
      "countryCode": "DE",
      "stateCode": "SH",
      "latitude": "53.65000000",
      "longitude": "9.81667000"
   },
   {
      "name": "Rendsburg",
      "countryCode": "DE",
      "stateCode": "SH",
      "latitude": "54.30663000",
      "longitude": "9.66313000"
   },
   {
      "name": "Rickert",
      "countryCode": "DE",
      "stateCode": "SH",
      "latitude": "54.33333000",
      "longitude": "9.66667000"
   },
   {
      "name": "Rickling",
      "countryCode": "DE",
      "stateCode": "SH",
      "latitude": "54.01667000",
      "longitude": "10.16667000"
   },
   {
      "name": "Riepsdorf",
      "countryCode": "DE",
      "stateCode": "SH",
      "latitude": "54.22611000",
      "longitude": "10.97242000"
   },
   {
      "name": "Rieseby",
      "countryCode": "DE",
      "stateCode": "SH",
      "latitude": "54.54140000",
      "longitude": "9.81689000"
   },
   {
      "name": "Risum-Lindholm",
      "countryCode": "DE",
      "stateCode": "SH",
      "latitude": "54.75802000",
      "longitude": "8.86906000"
   },
   {
      "name": "Ruhwinkel",
      "countryCode": "DE",
      "stateCode": "SH",
      "latitude": "54.10000000",
      "longitude": "10.21667000"
   },
   {
      "name": "Rümpel",
      "countryCode": "DE",
      "stateCode": "SH",
      "latitude": "53.78333000",
      "longitude": "10.35000000"
   },
   {
      "name": "Sandesneben",
      "countryCode": "DE",
      "stateCode": "SH",
      "latitude": "53.68333000",
      "longitude": "10.50000000"
   },
   {
      "name": "Sankelmark",
      "countryCode": "DE",
      "stateCode": "SH",
      "latitude": "54.71803000",
      "longitude": "9.42344000"
   },
   {
      "name": "Sankt Margarethen",
      "countryCode": "DE",
      "stateCode": "SH",
      "latitude": "53.89199000",
      "longitude": "9.25301000"
   },
   {
      "name": "Sankt Michaelisdonn",
      "countryCode": "DE",
      "stateCode": "SH",
      "latitude": "53.98333000",
      "longitude": "9.11667000"
   },
   {
      "name": "Sankt Peter-Ording",
      "countryCode": "DE",
      "stateCode": "SH",
      "latitude": "54.30363000",
      "longitude": "8.64138000"
   },
   {
      "name": "Satrup",
      "countryCode": "DE",
      "stateCode": "SH",
      "latitude": "54.69237000",
      "longitude": "9.60549000"
   },
   {
      "name": "Schaalby",
      "countryCode": "DE",
      "stateCode": "SH",
      "latitude": "54.55000000",
      "longitude": "9.63333000"
   },
   {
      "name": "Schacht-Audorf",
      "countryCode": "DE",
      "stateCode": "SH",
      "latitude": "54.31282000",
      "longitude": "9.71586000"
   },
   {
      "name": "Schafflund",
      "countryCode": "DE",
      "stateCode": "SH",
      "latitude": "54.75845000",
      "longitude": "9.18329000"
   },
   {
      "name": "Scharbeutz",
      "countryCode": "DE",
      "stateCode": "SH",
      "latitude": "54.03333000",
      "longitude": "10.75000000"
   },
   {
      "name": "Schashagen",
      "countryCode": "DE",
      "stateCode": "SH",
      "latitude": "54.13333000",
      "longitude": "10.88333000"
   },
   {
      "name": "Schellhorn",
      "countryCode": "DE",
      "stateCode": "SH",
      "latitude": "54.22952000",
      "longitude": "10.29402000"
   },
   {
      "name": "Schenefeld",
      "countryCode": "DE",
      "stateCode": "SH",
      "latitude": "54.05000000",
      "longitude": "9.48333000"
   },
   {
      "name": "Schleswig",
      "countryCode": "DE",
      "stateCode": "SH",
      "latitude": "54.52156000",
      "longitude": "9.55860000"
   },
   {
      "name": "Schmalfeld",
      "countryCode": "DE",
      "stateCode": "SH",
      "latitude": "53.88333000",
      "longitude": "9.96667000"
   },
   {
      "name": "Schobüll",
      "countryCode": "DE",
      "stateCode": "SH",
      "latitude": "54.50920000",
      "longitude": "9.00621000"
   },
   {
      "name": "Schuby",
      "countryCode": "DE",
      "stateCode": "SH",
      "latitude": "54.51667000",
      "longitude": "9.48333000"
   },
   {
      "name": "Schwabstedt",
      "countryCode": "DE",
      "stateCode": "SH",
      "latitude": "54.39705000",
      "longitude": "9.18646000"
   },
   {
      "name": "Schwarzenbek",
      "countryCode": "DE",
      "stateCode": "SH",
      "latitude": "53.50303000",
      "longitude": "10.48055000"
   },
   {
      "name": "Schönberg",
      "countryCode": "DE",
      "stateCode": "SH",
      "latitude": "53.68319000",
      "longitude": "10.42671000"
   },
   {
      "name": "Schönkirchen",
      "countryCode": "DE",
      "stateCode": "SH",
      "latitude": "54.33333000",
      "longitude": "10.23333000"
   },
   {
      "name": "Schönwalde am Bungsberg",
      "countryCode": "DE",
      "stateCode": "SH",
      "latitude": "54.18333000",
      "longitude": "10.75000000"
   },
   {
      "name": "Schülp",
      "countryCode": "DE",
      "stateCode": "SH",
      "latitude": "54.25896000",
      "longitude": "9.63034000"
   },
   {
      "name": "Seedorf",
      "countryCode": "DE",
      "stateCode": "SH",
      "latitude": "54.05000000",
      "longitude": "10.41667000"
   },
   {
      "name": "Selent",
      "countryCode": "DE",
      "stateCode": "SH",
      "latitude": "54.28893000",
      "longitude": "10.42702000"
   },
   {
      "name": "Seth",
      "countryCode": "DE",
      "stateCode": "SH",
      "latitude": "53.84718000",
      "longitude": "10.17421000"
   },
   {
      "name": "Siek",
      "countryCode": "DE",
      "stateCode": "SH",
      "latitude": "53.63333000",
      "longitude": "10.30000000"
   },
   {
      "name": "Sierksdorf",
      "countryCode": "DE",
      "stateCode": "SH",
      "latitude": "54.06667000",
      "longitude": "10.76667000"
   },
   {
      "name": "Sievershütten",
      "countryCode": "DE",
      "stateCode": "SH",
      "latitude": "53.84238000",
      "longitude": "10.11216000"
   },
   {
      "name": "Sieverstedt",
      "countryCode": "DE",
      "stateCode": "SH",
      "latitude": "54.64145000",
      "longitude": "9.46949000"
   },
   {
      "name": "Silberstedt",
      "countryCode": "DE",
      "stateCode": "SH",
      "latitude": "54.51667000",
      "longitude": "9.38333000"
   },
   {
      "name": "Stadum",
      "countryCode": "DE",
      "stateCode": "SH",
      "latitude": "54.73333000",
      "longitude": "9.05000000"
   },
   {
      "name": "Stapelfeld",
      "countryCode": "DE",
      "stateCode": "SH",
      "latitude": "53.60000000",
      "longitude": "10.21667000"
   },
   {
      "name": "Steinberg",
      "countryCode": "DE",
      "stateCode": "SH",
      "latitude": "54.76667000",
      "longitude": "9.78333000"
   },
   {
      "name": "Steinbergkirche",
      "countryCode": "DE",
      "stateCode": "SH",
      "latitude": "54.75463000",
      "longitude": "9.76069000"
   },
   {
      "name": "Sterup",
      "countryCode": "DE",
      "stateCode": "SH",
      "latitude": "54.72650000",
      "longitude": "9.73572000"
   },
   {
      "name": "Stockelsdorf",
      "countryCode": "DE",
      "stateCode": "SH",
      "latitude": "53.89220000",
      "longitude": "10.64713000"
   },
   {
      "name": "Stolpe",
      "countryCode": "DE",
      "stateCode": "SH",
      "latitude": "54.13333000",
      "longitude": "10.21667000"
   },
   {
      "name": "Strande",
      "countryCode": "DE",
      "stateCode": "SH",
      "latitude": "54.43333000",
      "longitude": "10.16667000"
   },
   {
      "name": "Struvenhütten",
      "countryCode": "DE",
      "stateCode": "SH",
      "latitude": "53.86667000",
      "longitude": "10.05000000"
   },
   {
      "name": "Sylt-Ost",
      "countryCode": "DE",
      "stateCode": "SH",
      "latitude": "54.86110000",
      "longitude": "8.41141000"
   },
   {
      "name": "Sörup",
      "countryCode": "DE",
      "stateCode": "SH",
      "latitude": "54.71667000",
      "longitude": "9.66667000"
   },
   {
      "name": "Süderbrarup",
      "countryCode": "DE",
      "stateCode": "SH",
      "latitude": "54.63333000",
      "longitude": "9.78333000"
   },
   {
      "name": "Süderlügum",
      "countryCode": "DE",
      "stateCode": "SH",
      "latitude": "54.87391000",
      "longitude": "8.91111000"
   },
   {
      "name": "Süderstapel",
      "countryCode": "DE",
      "stateCode": "SH",
      "latitude": "54.34967000",
      "longitude": "9.21907000"
   },
   {
      "name": "Sülfeld",
      "countryCode": "DE",
      "stateCode": "SH",
      "latitude": "53.80000000",
      "longitude": "10.23333000"
   },
   {
      "name": "Süsel",
      "countryCode": "DE",
      "stateCode": "SH",
      "latitude": "54.08135000",
      "longitude": "10.70172000"
   },
   {
      "name": "Tangstedt",
      "countryCode": "DE",
      "stateCode": "SH",
      "latitude": "53.73333000",
      "longitude": "10.08333000"
   },
   {
      "name": "Tarp",
      "countryCode": "DE",
      "stateCode": "SH",
      "latitude": "54.66667000",
      "longitude": "9.40000000"
   },
   {
      "name": "Tating",
      "countryCode": "DE",
      "stateCode": "SH",
      "latitude": "54.32607000",
      "longitude": "8.70802000"
   },
   {
      "name": "Tellingstedt",
      "countryCode": "DE",
      "stateCode": "SH",
      "latitude": "54.21667000",
      "longitude": "9.28333000"
   },
   {
      "name": "Timmaspe",
      "countryCode": "DE",
      "stateCode": "SH",
      "latitude": "54.13967000",
      "longitude": "9.89430000"
   },
   {
      "name": "Timmendorfer Strand",
      "countryCode": "DE",
      "stateCode": "SH",
      "latitude": "53.99530000",
      "longitude": "10.77676000"
   },
   {
      "name": "Tinnum",
      "countryCode": "DE",
      "stateCode": "SH",
      "latitude": "54.89932000",
      "longitude": "8.33476000"
   },
   {
      "name": "Todenbüttel",
      "countryCode": "DE",
      "stateCode": "SH",
      "latitude": "54.13333000",
      "longitude": "9.55000000"
   },
   {
      "name": "Todendorf",
      "countryCode": "DE",
      "stateCode": "SH",
      "latitude": "53.69461000",
      "longitude": "10.34781000"
   },
   {
      "name": "Todesfelde",
      "countryCode": "DE",
      "stateCode": "SH",
      "latitude": "53.90000000",
      "longitude": "10.18333000"
   },
   {
      "name": "Tolk",
      "countryCode": "DE",
      "stateCode": "SH",
      "latitude": "54.57987000",
      "longitude": "9.63844000"
   },
   {
      "name": "Tornesch",
      "countryCode": "DE",
      "stateCode": "SH",
      "latitude": "53.70000000",
      "longitude": "9.71667000"
   },
   {
      "name": "Trappenkamp",
      "countryCode": "DE",
      "stateCode": "SH",
      "latitude": "54.03988000",
      "longitude": "10.21496000"
   },
   {
      "name": "Travemünde",
      "countryCode": "DE",
      "stateCode": "SH",
      "latitude": "53.96304000",
      "longitude": "10.87090000"
   },
   {
      "name": "Treia",
      "countryCode": "DE",
      "stateCode": "SH",
      "latitude": "54.50000000",
      "longitude": "9.31667000"
   },
   {
      "name": "Tremsbüttel",
      "countryCode": "DE",
      "stateCode": "SH",
      "latitude": "53.74384000",
      "longitude": "10.31024000"
   },
   {
      "name": "Trittau",
      "countryCode": "DE",
      "stateCode": "SH",
      "latitude": "53.61667000",
      "longitude": "10.40000000"
   },
   {
      "name": "Tönning",
      "countryCode": "DE",
      "stateCode": "SH",
      "latitude": "54.31879000",
      "longitude": "8.94234000"
   },
   {
      "name": "Tüttendorf",
      "countryCode": "DE",
      "stateCode": "SH",
      "latitude": "54.40000000",
      "longitude": "10.00000000"
   },
   {
      "name": "Uetersen",
      "countryCode": "DE",
      "stateCode": "SH",
      "latitude": "53.68769000",
      "longitude": "9.66394000"
   },
   {
      "name": "Vaale",
      "countryCode": "DE",
      "stateCode": "SH",
      "latitude": "54.00000000",
      "longitude": "9.38333000"
   },
   {
      "name": "Viöl",
      "countryCode": "DE",
      "stateCode": "SH",
      "latitude": "54.56667000",
      "longitude": "9.18333000"
   },
   {
      "name": "Waabs",
      "countryCode": "DE",
      "stateCode": "SH",
      "latitude": "54.53333000",
      "longitude": "9.98333000"
   },
   {
      "name": "Wacken",
      "countryCode": "DE",
      "stateCode": "SH",
      "latitude": "54.02078000",
      "longitude": "9.37597000"
   },
   {
      "name": "Wahlstedt",
      "countryCode": "DE",
      "stateCode": "SH",
      "latitude": "53.95161000",
      "longitude": "10.20626000"
   },
   {
      "name": "Wanderup",
      "countryCode": "DE",
      "stateCode": "SH",
      "latitude": "54.68333000",
      "longitude": "9.33333000"
   },
   {
      "name": "Wangels",
      "countryCode": "DE",
      "stateCode": "SH",
      "latitude": "54.26667000",
      "longitude": "10.76667000"
   },
   {
      "name": "Wankendorf",
      "countryCode": "DE",
      "stateCode": "SH",
      "latitude": "54.11224000",
      "longitude": "10.20546000"
   },
   {
      "name": "Wasbek",
      "countryCode": "DE",
      "stateCode": "SH",
      "latitude": "54.07427000",
      "longitude": "9.89738000"
   },
   {
      "name": "Wattenbek",
      "countryCode": "DE",
      "stateCode": "SH",
      "latitude": "54.16667000",
      "longitude": "10.05000000"
   },
   {
      "name": "Weddelbrook",
      "countryCode": "DE",
      "stateCode": "SH",
      "latitude": "53.90000000",
      "longitude": "9.83333000"
   },
   {
      "name": "Weddingstedt",
      "countryCode": "DE",
      "stateCode": "SH",
      "latitude": "54.23428000",
      "longitude": "9.09103000"
   },
   {
      "name": "Wedel",
      "countryCode": "DE",
      "stateCode": "SH",
      "latitude": "53.58374000",
      "longitude": "9.69835000"
   },
   {
      "name": "Wees",
      "countryCode": "DE",
      "stateCode": "SH",
      "latitude": "54.80621000",
      "longitude": "9.51695000"
   },
   {
      "name": "Wendtorf",
      "countryCode": "DE",
      "stateCode": "SH",
      "latitude": "54.41212000",
      "longitude": "10.28952000"
   },
   {
      "name": "Wentorf bei Hamburg",
      "countryCode": "DE",
      "stateCode": "SH",
      "latitude": "53.50000000",
      "longitude": "10.25000000"
   },
   {
      "name": "Wesselburen",
      "countryCode": "DE",
      "stateCode": "SH",
      "latitude": "54.21217000",
      "longitude": "8.92419000"
   },
   {
      "name": "Wesseln",
      "countryCode": "DE",
      "stateCode": "SH",
      "latitude": "54.20985000",
      "longitude": "9.07644000"
   },
   {
      "name": "Westensee",
      "countryCode": "DE",
      "stateCode": "SH",
      "latitude": "54.27452000",
      "longitude": "9.89584000"
   },
   {
      "name": "Wester-Ohrstedt",
      "countryCode": "DE",
      "stateCode": "SH",
      "latitude": "54.50796000",
      "longitude": "9.18574000"
   },
   {
      "name": "Westerhorn",
      "countryCode": "DE",
      "stateCode": "SH",
      "latitude": "53.85711000",
      "longitude": "9.67959000"
   },
   {
      "name": "Westerland",
      "countryCode": "DE",
      "stateCode": "SH",
      "latitude": "54.90790000",
      "longitude": "8.30326000"
   },
   {
      "name": "Westerrönfeld",
      "countryCode": "DE",
      "stateCode": "SH",
      "latitude": "54.28333000",
      "longitude": "9.65000000"
   },
   {
      "name": "Wewelsfleth",
      "countryCode": "DE",
      "stateCode": "SH",
      "latitude": "53.85000000",
      "longitude": "9.40000000"
   },
   {
      "name": "Wiemersdorf",
      "countryCode": "DE",
      "stateCode": "SH",
      "latitude": "53.95815000",
      "longitude": "9.90297000"
   },
   {
      "name": "Wilster",
      "countryCode": "DE",
      "stateCode": "SH",
      "latitude": "53.92253000",
      "longitude": "9.37465000"
   },
   {
      "name": "Windeby",
      "countryCode": "DE",
      "stateCode": "SH",
      "latitude": "54.46667000",
      "longitude": "9.81667000"
   },
   {
      "name": "Witzhave",
      "countryCode": "DE",
      "stateCode": "SH",
      "latitude": "53.56667000",
      "longitude": "10.33333000"
   },
   {
      "name": "Wohltorf",
      "countryCode": "DE",
      "stateCode": "SH",
      "latitude": "53.51667000",
      "longitude": "10.28333000"
   },
   {
      "name": "Wrist",
      "countryCode": "DE",
      "stateCode": "SH",
      "latitude": "53.93333000",
      "longitude": "9.76667000"
   },
   {
      "name": "Wyk auf Föhr",
      "countryCode": "DE",
      "stateCode": "SH",
      "latitude": "54.69140000",
      "longitude": "8.56702000"
   },
   {
      "name": "Wöhrden",
      "countryCode": "DE",
      "stateCode": "SH",
      "latitude": "54.16667000",
      "longitude": "9.00000000"
   },
   {
      "name": "Zarpen",
      "countryCode": "DE",
      "stateCode": "SH",
      "latitude": "53.86667000",
      "longitude": "10.51667000"
   }
]