[
   {
      "name": "Adilcevaz",
      "countryCode": "TR",
      "stateCode": "13",
      "latitude": "38.79911000",
      "longitude": "42.73159000"
   },
   {
      "name": "Ahlat",
      "countryCode": "TR",
      "stateCode": "13",
      "latitude": "38.74890000",
      "longitude": "42.48007000"
   },
   {
      "name": "Beğendik",
      "countryCode": "TR",
      "stateCode": "13",
      "latitude": "37.97557000",
      "longitude": "42.64823000"
   },
   {
      "name": "Bitlis",
      "countryCode": "TR",
      "stateCode": "13",
      "latitude": "38.40115000",
      "longitude": "42.10784000"
   },
   {
      "name": "Güroymak",
      "countryCode": "TR",
      "stateCode": "13",
      "latitude": "38.57580000",
      "longitude": "42.01558000"
   },
   {
      "name": "Hizan",
      "countryCode": "TR",
      "stateCode": "13",
      "latitude": "38.22498000",
      "longitude": "42.41830000"
   },
   {
      "name": "Merkez",
      "countryCode": "TR",
      "stateCode": "13",
      "latitude": "38.31702000",
      "longitude": "42.10065000"
   },
   {
      "name": "Mutki",
      "countryCode": "TR",
      "stateCode": "13",
      "latitude": "38.40624000",
      "longitude": "41.92018000"
   },
   {
      "name": "Tatvan",
      "countryCode": "TR",
      "stateCode": "13",
      "latitude": "38.49221000",
      "longitude": "42.28269000"
   }
]