[
   {
      "name": "Amphoe Bueng Samakkhi",
      "countryCode": "TH",
      "stateCode": "62",
      "latitude": "16.21262000",
      "longitude": "99.96720000"
   },
   {
      "name": "Amphoe Khanu Woralaksaburi",
      "countryCode": "TH",
      "stateCode": "62",
      "latitude": "16.00233000",
      "longitude": "99.67618000"
   },
   {
      "name": "Amphoe Khlong Khlung",
      "countryCode": "TH",
      "stateCode": "62",
      "latitude": "16.22191000",
      "longitude": "99.67654000"
   },
   {
      "name": "Amphoe Khlong Lan",
      "countryCode": "TH",
      "stateCode": "62",
      "latitude": "16.25992000",
      "longitude": "99.21806000"
   },
   {
      "name": "Amphoe Kosamphi Nakhon",
      "countryCode": "TH",
      "stateCode": "62",
      "latitude": "16.60702000",
      "longitude": "99.34795000"
   },
   {
      "name": "Amphoe Lan Krabue",
      "countryCode": "TH",
      "stateCode": "62",
      "latitude": "16.60348000",
      "longitude": "99.86521000"
   },
   {
      "name": "Amphoe Mueang Kamphaeng Phet",
      "countryCode": "TH",
      "stateCode": "62",
      "latitude": "16.43254000",
      "longitude": "99.48831000"
   },
   {
      "name": "Amphoe Pang Sila Thong",
      "countryCode": "TH",
      "stateCode": "62",
      "latitude": "16.02525000",
      "longitude": "99.35593000"
   },
   {
      "name": "Amphoe Phran Kratai",
      "countryCode": "TH",
      "stateCode": "62",
      "latitude": "16.70541000",
      "longitude": "99.53704000"
   },
   {
      "name": "Amphoe Sai Ngam",
      "countryCode": "TH",
      "stateCode": "62",
      "latitude": "16.43956000",
      "longitude": "99.87457000"
   },
   {
      "name": "Amphoe Sai Thong Watthana",
      "countryCode": "TH",
      "stateCode": "62",
      "latitude": "16.30859000",
      "longitude": "99.87854000"
   },
   {
      "name": "Kamphaeng Phet",
      "countryCode": "TH",
      "stateCode": "62",
      "latitude": "16.48344000",
      "longitude": "99.52153000"
   },
   {
      "name": "Khanu Woralaksaburi",
      "countryCode": "TH",
      "stateCode": "62",
      "latitude": "16.06170000",
      "longitude": "99.86058000"
   },
   {
      "name": "Lan Krabue",
      "countryCode": "TH",
      "stateCode": "62",
      "latitude": "16.60003000",
      "longitude": "99.84889000"
   }
]