[
   {
      "name": "Amphoe Don Chan",
      "countryCode": "TH",
      "stateCode": "46",
      "latitude": "16.46667000",
      "longitude": "103.71667000"
   },
   {
      "name": "Amphoe Huai Mek",
      "countryCode": "TH",
      "stateCode": "46",
      "latitude": "16.58868000",
      "longitude": "103.24098000"
   },
   {
      "name": "Amphoe Huai Phueng",
      "countryCode": "TH",
      "stateCode": "46",
      "latitude": "16.66972000",
      "longitude": "103.87997000"
   },
   {
      "name": "Amphoe Kamalasai",
      "countryCode": "TH",
      "stateCode": "46",
      "latitude": "16.27999000",
      "longitude": "103.60010000"
   },
   {
      "name": "Amphoe Kham Muang",
      "countryCode": "TH",
      "stateCode": "46",
      "latitude": "16.93884000",
      "longitude": "103.63980000"
   },
   {
      "name": "Amphoe Khao Wong",
      "countryCode": "TH",
      "stateCode": "46",
      "latitude": "16.67959000",
      "longitude": "104.10030000"
   },
   {
      "name": "Amphoe Khong Chai",
      "countryCode": "TH",
      "stateCode": "46",
      "latitude": "16.25845000",
      "longitude": "103.48167000"
   },
   {
      "name": "Amphoe Kuchinarai",
      "countryCode": "TH",
      "stateCode": "46",
      "latitude": "16.51977000",
      "longitude": "104.05097000"
   },
   {
      "name": "Amphoe Mueang Kalasin",
      "countryCode": "TH",
      "stateCode": "46",
      "latitude": "16.50918000",
      "longitude": "103.54984000"
   },
   {
      "name": "Amphoe Na Khu",
      "countryCode": "TH",
      "stateCode": "46",
      "latitude": "16.75018000",
      "longitude": "104.00062000"
   },
   {
      "name": "Amphoe Na Mon",
      "countryCode": "TH",
      "stateCode": "46",
      "latitude": "16.56994000",
      "longitude": "103.78015000"
   },
   {
      "name": "Amphoe Nong Kung Si",
      "countryCode": "TH",
      "stateCode": "46",
      "latitude": "16.71932000",
      "longitude": "103.31922000"
   },
   {
      "name": "Amphoe Rong Kham",
      "countryCode": "TH",
      "stateCode": "46",
      "latitude": "16.27925000",
      "longitude": "103.71238000"
   },
   {
      "name": "Amphoe Sahatsakhan",
      "countryCode": "TH",
      "stateCode": "46",
      "latitude": "16.70987000",
      "longitude": "103.57909000"
   },
   {
      "name": "Amphoe Sam Chai",
      "countryCode": "TH",
      "stateCode": "46",
      "latitude": "16.86909000",
      "longitude": "103.52243000"
   },
   {
      "name": "Amphoe Somdet",
      "countryCode": "TH",
      "stateCode": "46",
      "latitude": "16.76973000",
      "longitude": "103.75012000"
   },
   {
      "name": "Amphoe Tha Khantho",
      "countryCode": "TH",
      "stateCode": "46",
      "latitude": "16.88333000",
      "longitude": "103.25000000"
   },
   {
      "name": "Amphoe Yang Talat",
      "countryCode": "TH",
      "stateCode": "46",
      "latitude": "16.43961000",
      "longitude": "103.34085000"
   },
   {
      "name": "Huai Mek",
      "countryCode": "TH",
      "stateCode": "46",
      "latitude": "16.58975000",
      "longitude": "103.23547000"
   },
   {
      "name": "Kalasin",
      "countryCode": "TH",
      "stateCode": "46",
      "latitude": "16.43281000",
      "longitude": "103.50658000"
   },
   {
      "name": "Kamalasai",
      "countryCode": "TH",
      "stateCode": "46",
      "latitude": "16.33839000",
      "longitude": "103.57564000"
   },
   {
      "name": "Khao Wong",
      "countryCode": "TH",
      "stateCode": "46",
      "latitude": "16.70008000",
      "longitude": "104.09019000"
   },
   {
      "name": "Kuchinarai",
      "countryCode": "TH",
      "stateCode": "46",
      "latitude": "16.54100000",
      "longitude": "104.05004000"
   },
   {
      "name": "Nong Kung Si",
      "countryCode": "TH",
      "stateCode": "46",
      "latitude": "16.65000000",
      "longitude": "103.30000000"
   },
   {
      "name": "Yang Talat",
      "countryCode": "TH",
      "stateCode": "46",
      "latitude": "16.39982000",
      "longitude": "103.36785000"
   }
]