[
   {
      "name": "Castillos",
      "countryCode": "UY",
      "stateCode": "RO",
      "latitude": "-34.19871000",
      "longitude": "-53.85919000"
   },
   {
      "name": "Cebollatí",
      "countryCode": "UY",
      "stateCode": "RO",
      "latitude": "-33.26703000",
      "longitude": "-53.79425000"
   },
   {
      "name": "Chui",
      "countryCode": "UY",
      "stateCode": "RO",
      "latitude": "-33.69792000",
      "longitude": "-53.45926000"
   },
   {
      "name": "Dieciocho de Julio",
      "countryCode": "UY",
      "stateCode": "RO",
      "latitude": "-33.68216000",
      "longitude": "-53.55325000"
   },
   {
      "name": "La Paloma",
      "countryCode": "UY",
      "stateCode": "RO",
      "latitude": "-34.66268000",
      "longitude": "-54.16452000"
   },
   {
      "name": "Lascano",
      "countryCode": "UY",
      "stateCode": "RO",
      "latitude": "-33.67235000",
      "longitude": "-54.20650000"
   },
   {
      "name": "Rocha",
      "countryCode": "UY",
      "stateCode": "RO",
      "latitude": "-34.48333000",
      "longitude": "-54.33333000"
   },
   {
      "name": "Velázquez",
      "countryCode": "UY",
      "stateCode": "RO",
      "latitude": "-34.03631000",
      "longitude": "-54.28054000"
   }
]