[
   {
      "name": "Agarak",
      "countryCode": "AM",
      "stateCode": "SU",
      "latitude": "39.20684000",
      "longitude": "46.54460000"
   },
   {
      "name": "Akner",
      "countryCode": "AM",
      "stateCode": "SU",
      "latitude": "39.53491000",
      "longitude": "46.30732000"
   },
   {
      "name": "Angeghakot’",
      "countryCode": "AM",
      "stateCode": "SU",
      "latitude": "39.56952000",
      "longitude": "45.94452000"
   },
   {
      "name": "Brrnakot’",
      "countryCode": "AM",
      "stateCode": "SU",
      "latitude": "39.49742000",
      "longitude": "45.97241000"
   },
   {
      "name": "Dzorastan",
      "countryCode": "AM",
      "stateCode": "SU",
      "latitude": "39.27059000",
      "longitude": "46.35720000"
   },
   {
      "name": "Goris",
      "countryCode": "AM",
      "stateCode": "SU",
      "latitude": "39.51111000",
      "longitude": "46.34168000"
   },
   {
      "name": "Hats’avan",
      "countryCode": "AM",
      "stateCode": "SU",
      "latitude": "39.46405000",
      "longitude": "45.97047000"
   },
   {
      "name": "Kapan",
      "countryCode": "AM",
      "stateCode": "SU",
      "latitude": "39.20755000",
      "longitude": "46.40576000"
   },
   {
      "name": "Khndzoresk",
      "countryCode": "AM",
      "stateCode": "SU",
      "latitude": "39.50568000",
      "longitude": "46.43610000"
   },
   {
      "name": "Meghri",
      "countryCode": "AM",
      "stateCode": "SU",
      "latitude": "38.90292000",
      "longitude": "46.24458000"
   },
   {
      "name": "Shaghat",
      "countryCode": "AM",
      "stateCode": "SU",
      "latitude": "39.55698000",
      "longitude": "45.90727000"
   },
   {
      "name": "Shinuhayr",
      "countryCode": "AM",
      "stateCode": "SU",
      "latitude": "39.43670000",
      "longitude": "46.31787000"
   },
   {
      "name": "Tegh",
      "countryCode": "AM",
      "stateCode": "SU",
      "latitude": "39.55826000",
      "longitude": "46.48054000"
   },
   {
      "name": "Verishen",
      "countryCode": "AM",
      "stateCode": "SU",
      "latitude": "39.53543000",
      "longitude": "46.32063000"
   }
]