[
   {
      "name": "Amphoe Mueang Nong Bua Lamphu",
      "countryCode": "TH",
      "stateCode": "39",
      "latitude": "17.15818000",
      "longitude": "102.39860000"
   },
   {
      "name": "Amphoe Na Klang",
      "countryCode": "TH",
      "stateCode": "39",
      "latitude": "17.32466000",
      "longitude": "102.21456000"
   },
   {
      "name": "Amphoe Na Wang",
      "countryCode": "TH",
      "stateCode": "39",
      "latitude": "17.34290000",
      "longitude": "102.07157000"
   },
   {
      "name": "Amphoe Non Sang",
      "countryCode": "TH",
      "stateCode": "39",
      "latitude": "16.90220000",
      "longitude": "102.53084000"
   },
   {
      "name": "Amphoe Si Bun Rueang",
      "countryCode": "TH",
      "stateCode": "39",
      "latitude": "16.99775000",
      "longitude": "102.22528000"
   },
   {
      "name": "Amphoe Suwannakhuha",
      "countryCode": "TH",
      "stateCode": "39",
      "latitude": "17.54605000",
      "longitude": "102.24852000"
   },
   {
      "name": "Na Klang",
      "countryCode": "TH",
      "stateCode": "39",
      "latitude": "17.30720000",
      "longitude": "102.18886000"
   },
   {
      "name": "Non Sang",
      "countryCode": "TH",
      "stateCode": "39",
      "latitude": "16.86870000",
      "longitude": "102.56642000"
   },
   {
      "name": "Nong Bua Lamphu",
      "countryCode": "TH",
      "stateCode": "39",
      "latitude": "17.20406000",
      "longitude": "102.44068000"
   },
   {
      "name": "Si Bun Rueang",
      "countryCode": "TH",
      "stateCode": "39",
      "latitude": "16.96705000",
      "longitude": "102.27607000"
   }
]