[
   {
      "name": "Stockholm County",
      "isoCode": "AB",
      "countryCode": "SE",
      "latitude": "59.60249580",
      "longitude": "18.13843830"
   },
   {
      "name": "Västerbotten County",
      "isoCode": "AC",
      "countryCode": "SE",
      "latitude": "65.33373110",
      "longitude": "16.51616940"
   },
   {
      "name": "Norrbotten County",
      "isoCode": "BD",
      "countryCode": "SE",
      "latitude": "66.83092160",
      "longitude": "20.39919660"
   },
   {
      "name": "Uppsala County",
      "isoCode": "C",
      "countryCode": "SE",
      "latitude": "60.00922620",
      "longitude": "17.27145880"
   },
   {
      "name": "Södermanland County",
      "isoCode": "D",
      "countryCode": "SE",
      "latitude": "59.03363490",
      "longitude": "16.75188990"
   },
   {
      "name": "Östergötland County",
      "isoCode": "E",
      "countryCode": "SE",
      "latitude": "58.34536350",
      "longitude": "15.51978440"
   },
   {
      "name": "Jönköping County",
      "isoCode": "F",
      "countryCode": "SE",
      "latitude": "57.37084340",
      "longitude": "14.34391740"
   },
   {
      "name": "Kronoberg County",
      "isoCode": "G",
      "countryCode": "SE",
      "latitude": "56.71834030",
      "longitude": "14.41146730"
   },
   {
      "name": "Kalmar County",
      "isoCode": "H",
      "countryCode": "SE",
      "latitude": "57.23501560",
      "longitude": "16.18493490"
   },
   {
      "name": "Gotland County",
      "isoCode": "I",
      "countryCode": "SE",
      "latitude": "57.46841210",
      "longitude": "18.48674470"
   },
   {
      "name": "Blekinge",
      "isoCode": "K",
      "countryCode": "SE",
      "latitude": "56.27838370",
      "longitude": "15.01800580"
   },
   {
      "name": "Skåne County",
      "isoCode": "M",
      "countryCode": "SE",
      "latitude": "55.99025720",
      "longitude": "13.59576920"
   },
   {
      "name": "Halland County",
      "isoCode": "N",
      "countryCode": "SE",
      "latitude": "56.89668050",
      "longitude": "12.80339930"
   },
   {
      "name": "Västra Götaland County",
      "isoCode": "O",
      "countryCode": "SE",
      "latitude": "58.25279260",
      "longitude": "13.05964250"
   },
   {
      "name": "Värmland County",
      "isoCode": "S",
      "countryCode": "SE",
      "latitude": "59.72940650",
      "longitude": "13.23540240"
   },
   {
      "name": "Örebro County",
      "isoCode": "T",
      "countryCode": "SE",
      "latitude": "59.53503600",
      "longitude": "15.00657310"
   },
   {
      "name": "Västmanland County",
      "isoCode": "U",
      "countryCode": "SE",
      "latitude": "59.67138790",
      "longitude": "16.21589530"
   },
   {
      "name": "Dalarna County",
      "isoCode": "W",
      "countryCode": "SE",
      "latitude": "61.09170120",
      "longitude": "14.66636530"
   },
   {
      "name": "Gävleborg County",
      "isoCode": "X",
      "countryCode": "SE",
      "latitude": "61.30119930",
      "longitude": "16.15342140"
   },
   {
      "name": "Västernorrland County",
      "isoCode": "Y",
      "countryCode": "SE",
      "latitude": "63.42764730",
      "longitude": "17.72924440"
   }
]