[
   {
      "name": "Amphoe Don Tan",
      "countryCode": "TH",
      "stateCode": "49",
      "latitude": "16.28796000",
      "longitude": "104.82231000"
   },
   {
      "name": "Amphoe Dong Luang",
      "countryCode": "TH",
      "stateCode": "49",
      "latitude": "16.79649000",
      "longitude": "104.35562000"
   },
   {
      "name": "Amphoe Khamcha-i",
      "countryCode": "TH",
      "stateCode": "49",
      "latitude": "16.61452000",
      "longitude": "104.35929000"
   },
   {
      "name": "Amphoe Mueang Mukdahan",
      "countryCode": "TH",
      "stateCode": "49",
      "latitude": "16.55110000",
      "longitude": "104.64605000"
   },
   {
      "name": "Amphoe Nikhom Kham Soi",
      "countryCode": "TH",
      "stateCode": "49",
      "latitude": "16.35375000",
      "longitude": "104.55864000"
   },
   {
      "name": "Amphoe Nong Sung",
      "countryCode": "TH",
      "stateCode": "49",
      "latitude": "16.44759000",
      "longitude": "104.33649000"
   },
   {
      "name": "Amphoe Wan Yai",
      "countryCode": "TH",
      "stateCode": "49",
      "latitude": "16.72030000",
      "longitude": "104.72865000"
   },
   {
      "name": "Mukdahan",
      "countryCode": "TH",
      "stateCode": "49",
      "latitude": "16.54531000",
      "longitude": "104.72351000"
   }
]