[
   {
      "name": "Abasha",
      "countryCode": "GE",
      "stateCode": "SZ",
      "latitude": "42.20000000",
      "longitude": "42.20000000"
   },
   {
      "name": "Jvari",
      "countryCode": "GE",
      "stateCode": "SZ",
      "latitude": "42.71693000",
      "longitude": "42.05200000"
   },
   {
      "name": "Khobi",
      "countryCode": "GE",
      "stateCode": "SZ",
      "latitude": "42.31558000",
      "longitude": "41.89871000"
   },
   {
      "name": "Kveda Chkhorots’q’u",
      "countryCode": "GE",
      "stateCode": "SZ",
      "latitude": "42.48103000",
      "longitude": "42.09661000"
   },
   {
      "name": "Mart’vili",
      "countryCode": "GE",
      "stateCode": "SZ",
      "latitude": "42.41436000",
      "longitude": "42.37924000"
   },
   {
      "name": "Mest’ia",
      "countryCode": "GE",
      "stateCode": "SZ",
      "latitude": "43.04581000",
      "longitude": "42.72780000"
   },
   {
      "name": "Mest’iis Munitsip’alit’et’i",
      "countryCode": "GE",
      "stateCode": "SZ",
      "latitude": "43.05000000",
      "longitude": "42.55000000"
   },
   {
      "name": "Orsant’ia",
      "countryCode": "GE",
      "stateCode": "SZ",
      "latitude": "42.46777000",
      "longitude": "41.67377000"
   },
   {
      "name": "P’ot’i",
      "countryCode": "GE",
      "stateCode": "SZ",
      "latitude": "42.14616000",
      "longitude": "41.67197000"
   },
   {
      "name": "Senak’i",
      "countryCode": "GE",
      "stateCode": "SZ",
      "latitude": "42.27042000",
      "longitude": "42.06750000"
   },
   {
      "name": "Tsalenjikha",
      "countryCode": "GE",
      "stateCode": "SZ",
      "latitude": "42.60444000",
      "longitude": "42.06825000"
   },
   {
      "name": "Zugdidi",
      "countryCode": "GE",
      "stateCode": "SZ",
      "latitude": "42.50880000",
      "longitude": "41.87088000"
   }
]