[
   {
      "name": "Abejorral",
      "countryCode": "CO",
      "stateCode": "ANT",
      "latitude": "5.78928000",
      "longitude": "-75.42725000"
   },
   {
      "name": "Abriaquí",
      "countryCode": "CO",
      "stateCode": "ANT",
      "latitude": "6.63148000",
      "longitude": "-76.06444000"
   },
   {
      "name": "Alejandría",
      "countryCode": "CO",
      "stateCode": "ANT",
      "latitude": "6.36667000",
      "longitude": "-75.08333000"
   },
   {
      "name": "Amagá",
      "countryCode": "CO",
      "stateCode": "ANT",
      "latitude": "6.04001000",
      "longitude": "-75.70315000"
   },
   {
      "name": "Amalfi",
      "countryCode": "CO",
      "stateCode": "ANT",
      "latitude": "6.91016000",
      "longitude": "-75.07764000"
   },
   {
      "name": "Andes",
      "countryCode": "CO",
      "stateCode": "ANT",
      "latitude": "5.66974000",
      "longitude": "-75.89905000"
   },
   {
      "name": "Angelópolis",
      "countryCode": "CO",
      "stateCode": "ANT",
      "latitude": "6.12228000",
      "longitude": "-75.71432000"
   },
   {
      "name": "Angostura",
      "countryCode": "CO",
      "stateCode": "ANT",
      "latitude": "6.87120000",
      "longitude": "-75.35947000"
   },
   {
      "name": "Anorí",
      "countryCode": "CO",
      "stateCode": "ANT",
      "latitude": "7.07361111",
      "longitude": "-75.14694444"
   },
   {
      "name": "Anza",
      "countryCode": "CO",
      "stateCode": "ANT",
      "latitude": "6.33333000",
      "longitude": "-75.91667000"
   },
   {
      "name": "Apartadó",
      "countryCode": "CO",
      "stateCode": "ANT",
      "latitude": "7.88299000",
      "longitude": "-76.62587000"
   },
   {
      "name": "Arboletes",
      "countryCode": "CO",
      "stateCode": "ANT",
      "latitude": "8.85051000",
      "longitude": "-76.42694000"
   },
   {
      "name": "Argelia",
      "countryCode": "CO",
      "stateCode": "ANT",
      "latitude": "5.73127000",
      "longitude": "-75.14257000"
   },
   {
      "name": "Armenia",
      "countryCode": "CO",
      "stateCode": "ANT",
      "latitude": "6.17554000",
      "longitude": "-75.81230000"
   },
   {
      "name": "Barbosa",
      "countryCode": "CO",
      "stateCode": "ANT",
      "latitude": "6.43809000",
      "longitude": "-75.33136000"
   },
   {
      "name": "Bello",
      "countryCode": "CO",
      "stateCode": "ANT",
      "latitude": "6.36160000",
      "longitude": "-75.58728000"
   },
   {
      "name": "Belmira",
      "countryCode": "CO",
      "stateCode": "ANT",
      "latitude": "6.60508000",
      "longitude": "-75.66619000"
   },
   {
      "name": "Betania",
      "countryCode": "CO",
      "stateCode": "ANT",
      "latitude": "5.73571000",
      "longitude": "-75.98964000"
   },
   {
      "name": "Betulia",
      "countryCode": "CO",
      "stateCode": "ANT",
      "latitude": "6.11284000",
      "longitude": "-75.98378000"
   },
   {
      "name": "Briceño",
      "countryCode": "CO",
      "stateCode": "ANT",
      "latitude": "7.05001000",
      "longitude": "-75.50903000"
   },
   {
      "name": "Buriticá",
      "countryCode": "CO",
      "stateCode": "ANT",
      "latitude": "6.80549000",
      "longitude": "-75.92093000"
   },
   {
      "name": "Caicedo",
      "countryCode": "CO",
      "stateCode": "ANT",
      "latitude": "6.42805000",
      "longitude": "-75.99715000"
   },
   {
      "name": "Caldas",
      "countryCode": "CO",
      "stateCode": "ANT",
      "latitude": "6.09106000",
      "longitude": "-75.63569000"
   },
   {
      "name": "Campamento",
      "countryCode": "CO",
      "stateCode": "ANT",
      "latitude": "7.03910000",
      "longitude": "-75.28938000"
   },
   {
      "name": "Caracolí",
      "countryCode": "CO",
      "stateCode": "ANT",
      "latitude": "6.40920000",
      "longitude": "-74.75715000"
   },
   {
      "name": "Caramanta",
      "countryCode": "CO",
      "stateCode": "ANT",
      "latitude": "5.54144000",
      "longitude": "-75.66961000"
   },
   {
      "name": "Carepa",
      "countryCode": "CO",
      "stateCode": "ANT",
      "latitude": "7.75849000",
      "longitude": "-76.65255000"
   },
   {
      "name": "Carolina",
      "countryCode": "CO",
      "stateCode": "ANT",
      "latitude": "6.74807000",
      "longitude": "-75.32131000"
   },
   {
      "name": "Caucasia",
      "countryCode": "CO",
      "stateCode": "ANT",
      "latitude": "7.98654000",
      "longitude": "-75.19349000"
   },
   {
      "name": "Cañasgordas",
      "countryCode": "CO",
      "stateCode": "ANT",
      "latitude": "6.80951000",
      "longitude": "-76.03954000"
   },
   {
      "name": "Chigorodó",
      "countryCode": "CO",
      "stateCode": "ANT",
      "latitude": "7.66638000",
      "longitude": "-76.68106000"
   },
   {
      "name": "Cisneros",
      "countryCode": "CO",
      "stateCode": "ANT",
      "latitude": "6.54507000",
      "longitude": "-75.09415000"
   },
   {
      "name": "Ciudad Bolívar",
      "countryCode": "CO",
      "stateCode": "ANT",
      "latitude": "5.85389000",
      "longitude": "-76.02528000"
   },
   {
      "name": "Cocorná",
      "countryCode": "CO",
      "stateCode": "ANT",
      "latitude": "6.00579000",
      "longitude": "-75.16984000"
   },
   {
      "name": "Concepción",
      "countryCode": "CO",
      "stateCode": "ANT",
      "latitude": "6.39408000",
      "longitude": "-75.25830000"
   },
   {
      "name": "Concordia",
      "countryCode": "CO",
      "stateCode": "ANT",
      "latitude": "6.04639000",
      "longitude": "-75.90705000"
   },
   {
      "name": "Copacabana",
      "countryCode": "CO",
      "stateCode": "ANT",
      "latitude": "6.36230000",
      "longitude": "-75.49922000"
   },
   {
      "name": "Cáceres",
      "countryCode": "CO",
      "stateCode": "ANT",
      "latitude": "7.68252000",
      "longitude": "-75.22481000"
   },
   {
      "name": "Dabeiba",
      "countryCode": "CO",
      "stateCode": "ANT",
      "latitude": "7.03367000",
      "longitude": "-76.34161000"
   },
   {
      "name": "Donmatías",
      "countryCode": "CO",
      "stateCode": "ANT",
      "latitude": "6.48569000",
      "longitude": "-75.39496000"
   },
   {
      "name": "Ebéjico",
      "countryCode": "CO",
      "stateCode": "ANT",
      "latitude": "6.32598000",
      "longitude": "-75.76835000"
   },
   {
      "name": "El Bagre",
      "countryCode": "CO",
      "stateCode": "ANT",
      "latitude": "7.60347000",
      "longitude": "-74.80951000"
   },
   {
      "name": "El Carmen de Viboral",
      "countryCode": "CO",
      "stateCode": "ANT",
      "latitude": "6.08236000",
      "longitude": "-75.33509000"
   },
   {
      "name": "El Santuario",
      "countryCode": "CO",
      "stateCode": "ANT",
      "latitude": "6.13833000",
      "longitude": "-75.26417000"
   },
   {
      "name": "Entrerrios",
      "countryCode": "CO",
      "stateCode": "ANT",
      "latitude": "6.58333000",
      "longitude": "-75.58333000"
   },
   {
      "name": "Envigado",
      "countryCode": "CO",
      "stateCode": "ANT",
      "latitude": "6.17591000",
      "longitude": "-75.59174000"
   },
   {
      "name": "Fredonia",
      "countryCode": "CO",
      "stateCode": "ANT",
      "latitude": "5.89239000",
      "longitude": "-75.68546000"
   },
   {
      "name": "Frontino",
      "countryCode": "CO",
      "stateCode": "ANT",
      "latitude": "6.77133000",
      "longitude": "-76.13324000"
   },
   {
      "name": "Giraldo",
      "countryCode": "CO",
      "stateCode": "ANT",
      "latitude": "6.66667000",
      "longitude": "-75.95346000"
   },
   {
      "name": "Girardota",
      "countryCode": "CO",
      "stateCode": "ANT",
      "latitude": "6.36789000",
      "longitude": "-75.46231000"
   },
   {
      "name": "Granada",
      "countryCode": "CO",
      "stateCode": "ANT",
      "latitude": "6.14353000",
      "longitude": "-75.18532000"
   },
   {
      "name": "Guadalupe",
      "countryCode": "CO",
      "stateCode": "ANT",
      "latitude": "6.81449000",
      "longitude": "-75.24063000"
   },
   {
      "name": "Guarne",
      "countryCode": "CO",
      "stateCode": "ANT",
      "latitude": "6.28345000",
      "longitude": "-75.44363000"
   },
   {
      "name": "Guatapé",
      "countryCode": "CO",
      "stateCode": "ANT",
      "latitude": "6.25548000",
      "longitude": "-75.16432000"
   },
   {
      "name": "Gómez Plata",
      "countryCode": "CO",
      "stateCode": "ANT",
      "latitude": "6.68178000",
      "longitude": "-75.21907000"
   },
   {
      "name": "Heliconia",
      "countryCode": "CO",
      "stateCode": "ANT",
      "latitude": "6.20831000",
      "longitude": "-75.73565000"
   },
   {
      "name": "Hispania",
      "countryCode": "CO",
      "stateCode": "ANT",
      "latitude": "5.79925000",
      "longitude": "-75.90718000"
   },
   {
      "name": "Itagui",
      "countryCode": "CO",
      "stateCode": "ANT",
      "latitude": "6.17874000",
      "longitude": "-75.63117000"
   },
   {
      "name": "Ituango",
      "countryCode": "CO",
      "stateCode": "ANT",
      "latitude": "7.17117000",
      "longitude": "-75.76404000"
   },
   {
      "name": "Jardín",
      "countryCode": "CO",
      "stateCode": "ANT",
      "latitude": "5.59038000",
      "longitude": "-75.81846000"
   },
   {
      "name": "Jericó",
      "countryCode": "CO",
      "stateCode": "ANT",
      "latitude": "5.79211000",
      "longitude": "-75.78601000"
   },
   {
      "name": "La Ceja",
      "countryCode": "CO",
      "stateCode": "ANT",
      "latitude": "6.00000000",
      "longitude": "-75.43311000"
   },
   {
      "name": "La Estrella",
      "countryCode": "CO",
      "stateCode": "ANT",
      "latitude": "6.14239000",
      "longitude": "-75.65257000"
   },
   {
      "name": "La Pintada",
      "countryCode": "CO",
      "stateCode": "ANT",
      "latitude": "5.74867000",
      "longitude": "-75.60626000"
   },
   {
      "name": "La Unión",
      "countryCode": "CO",
      "stateCode": "ANT",
      "latitude": "5.94642000",
      "longitude": "-75.35917000"
   },
   {
      "name": "Liborina",
      "countryCode": "CO",
      "stateCode": "ANT",
      "latitude": "6.67790000",
      "longitude": "-75.81218000"
   },
   {
      "name": "Maceo",
      "countryCode": "CO",
      "stateCode": "ANT",
      "latitude": "6.55196000",
      "longitude": "-74.78741000"
   },
   {
      "name": "Marinilla",
      "countryCode": "CO",
      "stateCode": "ANT",
      "latitude": "6.19609000",
      "longitude": "-75.30313000"
   },
   {
      "name": "Medellín",
      "countryCode": "CO",
      "stateCode": "ANT",
      "latitude": "6.25184000",
      "longitude": "-75.56359000"
   },
   {
      "name": "Montebello",
      "countryCode": "CO",
      "stateCode": "ANT",
      "latitude": "5.93703000",
      "longitude": "-75.52741000"
   },
   {
      "name": "Murindó",
      "countryCode": "CO",
      "stateCode": "ANT",
      "latitude": "6.84698000",
      "longitude": "-76.71544000"
   },
   {
      "name": "Mutatá",
      "countryCode": "CO",
      "stateCode": "ANT",
      "latitude": "7.24407000",
      "longitude": "-76.43564000"
   },
   {
      "name": "Nariño",
      "countryCode": "CO",
      "stateCode": "ANT",
      "latitude": "5.60893000",
      "longitude": "-75.17656000"
   },
   {
      "name": "Nechí",
      "countryCode": "CO",
      "stateCode": "ANT",
      "latitude": "8.09419000",
      "longitude": "-74.77573000"
   },
   {
      "name": "Necoclí",
      "countryCode": "CO",
      "stateCode": "ANT",
      "latitude": "8.42627000",
      "longitude": "-76.78926000"
   },
   {
      "name": "Olaya",
      "countryCode": "CO",
      "stateCode": "ANT",
      "latitude": "6.62773000",
      "longitude": "-75.81270000"
   },
   {
      "name": "Peque",
      "countryCode": "CO",
      "stateCode": "ANT",
      "latitude": "7.02123000",
      "longitude": "-75.90926000"
   },
   {
      "name": "Peñol",
      "countryCode": "CO",
      "stateCode": "ANT",
      "latitude": "6.23434000",
      "longitude": "-75.22573000"
   },
   {
      "name": "Pueblorrico",
      "countryCode": "CO",
      "stateCode": "ANT",
      "latitude": "5.80000000",
      "longitude": "-75.85000000"
   },
   {
      "name": "Puerto Berrío",
      "countryCode": "CO",
      "stateCode": "ANT",
      "latitude": "6.50749000",
      "longitude": "-74.52271000"
   },
   {
      "name": "Puerto Nare",
      "countryCode": "CO",
      "stateCode": "ANT",
      "latitude": "6.19167000",
      "longitude": "-74.58670000"
   },
   {
      "name": "Puerto Triunfo",
      "countryCode": "CO",
      "stateCode": "ANT",
      "latitude": "5.87259000",
      "longitude": "-74.64050000"
   },
   {
      "name": "Remedios",
      "countryCode": "CO",
      "stateCode": "ANT",
      "latitude": "7.02835000",
      "longitude": "-74.69379000"
   },
   {
      "name": "Retiro",
      "countryCode": "CO",
      "stateCode": "ANT",
      "latitude": "6.05906000",
      "longitude": "-75.51488000"
   },
   {
      "name": "Rionegro",
      "countryCode": "CO",
      "stateCode": "ANT",
      "latitude": "6.16667000",
      "longitude": "-75.41667000"
   },
   {
      "name": "Sabanalarga",
      "countryCode": "CO",
      "stateCode": "ANT",
      "latitude": "6.84893000",
      "longitude": "-75.81711000"
   },
   {
      "name": "Sabaneta",
      "countryCode": "CO",
      "stateCode": "ANT",
      "latitude": "6.15153000",
      "longitude": "-75.61657000"
   },
   {
      "name": "Salgar",
      "countryCode": "CO",
      "stateCode": "ANT",
      "latitude": "5.96711000",
      "longitude": "-75.98747000"
   },
   {
      "name": "San Andrés de Cuerquía",
      "countryCode": "CO",
      "stateCode": "ANT",
      "latitude": "6.90333000",
      "longitude": "-75.68250000"
   },
   {
      "name": "San Carlos",
      "countryCode": "CO",
      "stateCode": "ANT",
      "latitude": "7.79177000",
      "longitude": "-74.77316000"
   },
   {
      "name": "San Francisco",
      "countryCode": "CO",
      "stateCode": "ANT",
      "latitude": "6.11667000",
      "longitude": "-75.98333000"
   },
   {
      "name": "San Jerónimo",
      "countryCode": "CO",
      "stateCode": "ANT",
      "latitude": "6.44139000",
      "longitude": "-75.70783000"
   },
   {
      "name": "San José de la Montaña",
      "countryCode": "CO",
      "stateCode": "ANT",
      "latitude": "6.82205000",
      "longitude": "-75.69757000"
   },
   {
      "name": "San Juan de Urabá",
      "countryCode": "CO",
      "stateCode": "ANT",
      "latitude": "8.75924000",
      "longitude": "-76.52969000"
   },
   {
      "name": "San Luis",
      "countryCode": "CO",
      "stateCode": "ANT",
      "latitude": "6.04222222",
      "longitude": "-74.99333333"
   },
   {
      "name": "San Pedro de Uraba",
      "countryCode": "CO",
      "stateCode": "ANT",
      "latitude": "8.42291000",
      "longitude": "-76.31747000"
   },
   {
      "name": "San Pedro de los Milagros",
      "countryCode": "CO",
      "stateCode": "ANT",
      "latitude": "6.45944444",
      "longitude": "-75.55777888"
   },
   {
      "name": "San Rafael",
      "countryCode": "CO",
      "stateCode": "ANT",
      "latitude": "6.31234000",
      "longitude": "-75.02426000"
   },
   {
      "name": "San Roque",
      "countryCode": "CO",
      "stateCode": "ANT",
      "latitude": "6.48511000",
      "longitude": "-75.01960000"
   },
   {
      "name": "San Vicente Ferrer",
      "countryCode": "CO",
      "stateCode": "ANT",
      "latitude": "6.32237000",
      "longitude": "-75.33020000"
   },
   {
      "name": "Santa Bárbara",
      "countryCode": "CO",
      "stateCode": "ANT",
      "latitude": "5.88937000",
      "longitude": "-75.58255000"
   },
   {
      "name": "Santa Fe de Antioquia",
      "countryCode": "CO",
      "stateCode": "ANT",
      "latitude": "6.55687000",
      "longitude": "-75.82806000"
   },
   {
      "name": "Santa Rosa de Osos",
      "countryCode": "CO",
      "stateCode": "ANT",
      "latitude": "6.64738000",
      "longitude": "-75.46031000"
   },
   {
      "name": "Santo Domingo",
      "countryCode": "CO",
      "stateCode": "ANT",
      "latitude": "6.47282000",
      "longitude": "-75.16547000"
   },
   {
      "name": "Segovia",
      "countryCode": "CO",
      "stateCode": "ANT",
      "latitude": "7.28132000",
      "longitude": "-74.64273000"
   },
   {
      "name": "Sonson",
      "countryCode": "CO",
      "stateCode": "ANT",
      "latitude": "5.75000000",
      "longitude": "-75.00000000"
   },
   {
      "name": "Sopetrán",
      "countryCode": "CO",
      "stateCode": "ANT",
      "latitude": "6.52271000",
      "longitude": "-75.74608000"
   },
   {
      "name": "Tarazá",
      "countryCode": "CO",
      "stateCode": "ANT",
      "latitude": "7.58358000",
      "longitude": "-75.40068000"
   },
   {
      "name": "Tarso",
      "countryCode": "CO",
      "stateCode": "ANT",
      "latitude": "5.86467000",
      "longitude": "-75.82192000"
   },
   {
      "name": "Titiribí",
      "countryCode": "CO",
      "stateCode": "ANT",
      "latitude": "6.06276000",
      "longitude": "-75.79370000"
   },
   {
      "name": "Toledo",
      "countryCode": "CO",
      "stateCode": "ANT",
      "latitude": "7.01306000",
      "longitude": "-75.69528000"
   },
   {
      "name": "Turbo",
      "countryCode": "CO",
      "stateCode": "ANT",
      "latitude": "8.09263000",
      "longitude": "-76.72822000"
   },
   {
      "name": "Támesis",
      "countryCode": "CO",
      "stateCode": "ANT",
      "latitude": "5.66462000",
      "longitude": "-75.71339000"
   },
   {
      "name": "Uramita",
      "countryCode": "CO",
      "stateCode": "ANT",
      "latitude": "6.89944000",
      "longitude": "-76.17417000"
   },
   {
      "name": "Urrao",
      "countryCode": "CO",
      "stateCode": "ANT",
      "latitude": "6.31696000",
      "longitude": "-76.13420000"
   },
   {
      "name": "Valdivia",
      "countryCode": "CO",
      "stateCode": "ANT",
      "latitude": "7.29382000",
      "longitude": "-75.39190000"
   },
   {
      "name": "Valparaíso",
      "countryCode": "CO",
      "stateCode": "ANT",
      "latitude": "5.61500000",
      "longitude": "-75.62422000"
   },
   {
      "name": "Vegachí",
      "countryCode": "CO",
      "stateCode": "ANT",
      "latitude": "6.76141000",
      "longitude": "-74.79473000"
   },
   {
      "name": "Venecia",
      "countryCode": "CO",
      "stateCode": "ANT",
      "latitude": "5.95417000",
      "longitude": "-75.79904000"
   },
   {
      "name": "Vigía del Fuerte",
      "countryCode": "CO",
      "stateCode": "ANT",
      "latitude": "6.58933000",
      "longitude": "-76.89599000"
   },
   {
      "name": "Yalí",
      "countryCode": "CO",
      "stateCode": "ANT",
      "latitude": "6.70257000",
      "longitude": "-74.79018000"
   },
   {
      "name": "Yarumal",
      "countryCode": "CO",
      "stateCode": "ANT",
      "latitude": "6.98532000",
      "longitude": "-75.45402000"
   },
   {
      "name": "Yolombó",
      "countryCode": "CO",
      "stateCode": "ANT",
      "latitude": "6.66569000",
      "longitude": "-74.99120000"
   },
   {
      "name": "Yondó",
      "countryCode": "CO",
      "stateCode": "ANT",
      "latitude": "6.90738000",
      "longitude": "-74.17686000"
   },
   {
      "name": "Zaragoza",
      "countryCode": "CO",
      "stateCode": "ANT",
      "latitude": "7.48971000",
      "longitude": "-74.86919000"
   }
]