[
   {
      "name": "Estación Porvenir",
      "countryCode": "UY",
      "stateCode": "PA",
      "latitude": "-32.37085000",
      "longitude": "-57.85371000"
   },
   {
      "name": "Guichón",
      "countryCode": "UY",
      "stateCode": "PA",
      "latitude": "-32.35846000",
      "longitude": "-57.19778000"
   },
   {
      "name": "Paysandú",
      "countryCode": "UY",
      "stateCode": "PA",
      "latitude": "-32.31710000",
      "longitude": "-58.08072000"
   },
   {
      "name": "Piedras Coloradas",
      "countryCode": "UY",
      "stateCode": "PA",
      "latitude": "-32.37183000",
      "longitude": "-57.60901000"
   },
   {
      "name": "Quebracho",
      "countryCode": "UY",
      "stateCode": "PA",
      "latitude": "-31.93526000",
      "longitude": "-57.90140000"
   },
   {
      "name": "San Félix",
      "countryCode": "UY",
      "stateCode": "PA",
      "latitude": "-32.34631000",
      "longitude": "-58.10094000"
   }
]