[
   {
      "name": "Bukittinggi",
      "countryCode": "ID",
      "stateCode": "SB",
      "latitude": "-0.30907000",
      "longitude": "100.37055000"
   },
   {
      "name": "Kabupaten Agam",
      "countryCode": "ID",
      "stateCode": "SB",
      "latitude": "-0.25000000",
      "longitude": "100.16667000"
   },
   {
      "name": "Kabupaten Dharmasraya",
      "countryCode": "ID",
      "stateCode": "SB",
      "latitude": "-1.05000000",
      "longitude": "101.36700000"
   },
   {
      "name": "Kabupaten Kepulauan Mentawai",
      "countryCode": "ID",
      "stateCode": "SB",
      "latitude": "1.98917000",
      "longitude": "99.51889000"
   },
   {
      "name": "Kabupaten Lima Puluh Kota",
      "countryCode": "ID",
      "stateCode": "SB",
      "latitude": "-0.01680000",
      "longitude": "100.58720000"
   },
   {
      "name": "Kabupaten Padang Pariaman",
      "countryCode": "ID",
      "stateCode": "SB",
      "latitude": "-0.60000000",
      "longitude": "100.28333000"
   },
   {
      "name": "Kabupaten Pasaman",
      "countryCode": "ID",
      "stateCode": "SB",
      "latitude": "0.42503000",
      "longitude": "99.94606000"
   },
   {
      "name": "Kabupaten Pasaman Barat",
      "countryCode": "ID",
      "stateCode": "SB",
      "latitude": "0.28152000",
      "longitude": "99.51965000"
   },
   {
      "name": "Kabupaten Pesisir Selatan",
      "countryCode": "ID",
      "stateCode": "SB",
      "latitude": "-1.58333000",
      "longitude": "100.85000000"
   },
   {
      "name": "Kabupaten Sijunjung",
      "countryCode": "ID",
      "stateCode": "SB",
      "latitude": "-1.18270000",
      "longitude": "101.60560000"
   },
   {
      "name": "Kabupaten Solok",
      "countryCode": "ID",
      "stateCode": "SB",
      "latitude": "-0.96667000",
      "longitude": "100.81667000"
   },
   {
      "name": "Kabupaten Solok Selatan",
      "countryCode": "ID",
      "stateCode": "SB",
      "latitude": "-1.23333000",
      "longitude": "101.41700000"
   },
   {
      "name": "Kabupaten Tanah Datar",
      "countryCode": "ID",
      "stateCode": "SB",
      "latitude": "-0.45550000",
      "longitude": "100.57710000"
   },
   {
      "name": "Kota Bukittinggi",
      "countryCode": "ID",
      "stateCode": "SB",
      "latitude": "-0.27500000",
      "longitude": "100.37500000"
   },
   {
      "name": "Kota Padang",
      "countryCode": "ID",
      "stateCode": "SB",
      "latitude": "-0.98333000",
      "longitude": "100.45000000"
   },
   {
      "name": "Kota Padang Panjang",
      "countryCode": "ID",
      "stateCode": "SB",
      "latitude": "-0.45000000",
      "longitude": "100.43333000"
   },
   {
      "name": "Kota Pariaman",
      "countryCode": "ID",
      "stateCode": "SB",
      "latitude": "-0.62682000",
      "longitude": "100.12047000"
   },
   {
      "name": "Kota Payakumbuh",
      "countryCode": "ID",
      "stateCode": "SB",
      "latitude": "-0.23333000",
      "longitude": "100.63333000"
   },
   {
      "name": "Kota Sawah Lunto",
      "countryCode": "ID",
      "stateCode": "SB",
      "latitude": "-0.60000000",
      "longitude": "100.75000000"
   },
   {
      "name": "Kota Solok",
      "countryCode": "ID",
      "stateCode": "SB",
      "latitude": "-0.76667000",
      "longitude": "100.61667000"
   },
   {
      "name": "Padang",
      "countryCode": "ID",
      "stateCode": "SB",
      "latitude": "-0.94924000",
      "longitude": "100.35427000"
   },
   {
      "name": "Pariaman",
      "countryCode": "ID",
      "stateCode": "SB",
      "latitude": "-0.61898000",
      "longitude": "100.11997000"
   },
   {
      "name": "Payakumbuh",
      "countryCode": "ID",
      "stateCode": "SB",
      "latitude": "-0.21590000",
      "longitude": "100.63340000"
   },
   {
      "name": "Sijunjung",
      "countryCode": "ID",
      "stateCode": "SB",
      "latitude": "-0.70050000",
      "longitude": "100.97740000"
   },
   {
      "name": "Solok",
      "countryCode": "ID",
      "stateCode": "SB",
      "latitude": "-0.80060000",
      "longitude": "100.65710000"
   }
]