[
   {
      "name": "Addison",
      "countryCode": "US",
      "stateCode": "VT",
      "latitude": "44.08867000",
      "longitude": "-73.30262000"
   },
   {
      "name": "Addison County",
      "countryCode": "US",
      "stateCode": "VT",
      "latitude": "44.03091000",
      "longitude": "-73.14094000"
   },
   {
      "name": "Arlington",
      "countryCode": "US",
      "stateCode": "VT",
      "latitude": "43.07480000",
      "longitude": "-73.15400000"
   },
   {
      "name": "Barre",
      "countryCode": "US",
      "stateCode": "VT",
      "latitude": "44.19701000",
      "longitude": "-72.50205000"
   },
   {
      "name": "Bellows Falls",
      "countryCode": "US",
      "stateCode": "VT",
      "latitude": "43.13341000",
      "longitude": "-72.44398000"
   },
   {
      "name": "Bennington",
      "countryCode": "US",
      "stateCode": "VT",
      "latitude": "42.87813000",
      "longitude": "-73.19677000"
   },
   {
      "name": "Bennington County",
      "countryCode": "US",
      "stateCode": "VT",
      "latitude": "43.03546000",
      "longitude": "-73.09295000"
   },
   {
      "name": "Brandon",
      "countryCode": "US",
      "stateCode": "VT",
      "latitude": "43.79812000",
      "longitude": "-73.08761000"
   },
   {
      "name": "Brattleboro",
      "countryCode": "US",
      "stateCode": "VT",
      "latitude": "42.85092000",
      "longitude": "-72.55787000"
   },
   {
      "name": "Bridport",
      "countryCode": "US",
      "stateCode": "VT",
      "latitude": "43.98506000",
      "longitude": "-73.31262000"
   },
   {
      "name": "Bristol",
      "countryCode": "US",
      "stateCode": "VT",
      "latitude": "44.13339000",
      "longitude": "-73.07901000"
   },
   {
      "name": "Burlington",
      "countryCode": "US",
      "stateCode": "VT",
      "latitude": "44.47588000",
      "longitude": "-73.21207000"
   },
   {
      "name": "Caledonia County",
      "countryCode": "US",
      "stateCode": "VT",
      "latitude": "44.46472000",
      "longitude": "-72.10219000"
   },
   {
      "name": "Castleton",
      "countryCode": "US",
      "stateCode": "VT",
      "latitude": "43.61062000",
      "longitude": "-73.17983000"
   },
   {
      "name": "Charlotte",
      "countryCode": "US",
      "stateCode": "VT",
      "latitude": "44.30977000",
      "longitude": "-73.26096000"
   },
   {
      "name": "Chelsea",
      "countryCode": "US",
      "stateCode": "VT",
      "latitude": "43.98979000",
      "longitude": "-72.44760000"
   },
   {
      "name": "Chester",
      "countryCode": "US",
      "stateCode": "VT",
      "latitude": "43.26285000",
      "longitude": "-72.59509000"
   },
   {
      "name": "Chittenden",
      "countryCode": "US",
      "stateCode": "VT",
      "latitude": "43.70784000",
      "longitude": "-72.94816000"
   },
   {
      "name": "Chittenden County",
      "countryCode": "US",
      "stateCode": "VT",
      "latitude": "44.46098000",
      "longitude": "-73.08092000"
   },
   {
      "name": "Clarendon",
      "countryCode": "US",
      "stateCode": "VT",
      "latitude": "43.51618000",
      "longitude": "-72.96983000"
   },
   {
      "name": "Colchester",
      "countryCode": "US",
      "stateCode": "VT",
      "latitude": "44.54394000",
      "longitude": "-73.14791000"
   },
   {
      "name": "Danby",
      "countryCode": "US",
      "stateCode": "VT",
      "latitude": "43.34618000",
      "longitude": "-72.99538000"
   },
   {
      "name": "Dover",
      "countryCode": "US",
      "stateCode": "VT",
      "latitude": "42.94369000",
      "longitude": "-72.80399000"
   },
   {
      "name": "Enosburg Falls",
      "countryCode": "US",
      "stateCode": "VT",
      "latitude": "44.90699000",
      "longitude": "-72.80652000"
   },
   {
      "name": "Essex County",
      "countryCode": "US",
      "stateCode": "VT",
      "latitude": "44.72779000",
      "longitude": "-71.73605000"
   },
   {
      "name": "Essex Junction",
      "countryCode": "US",
      "stateCode": "VT",
      "latitude": "44.49061000",
      "longitude": "-73.11096000"
   },
   {
      "name": "Fair Haven",
      "countryCode": "US",
      "stateCode": "VT",
      "latitude": "43.59479000",
      "longitude": "-73.26567000"
   },
   {
      "name": "Ferrisburgh",
      "countryCode": "US",
      "stateCode": "VT",
      "latitude": "44.20561000",
      "longitude": "-73.24623000"
   },
   {
      "name": "Franklin County",
      "countryCode": "US",
      "stateCode": "VT",
      "latitude": "44.85748000",
      "longitude": "-72.91200000"
   },
   {
      "name": "Grand Isle County",
      "countryCode": "US",
      "stateCode": "VT",
      "latitude": "44.79683000",
      "longitude": "-73.29483000"
   },
   {
      "name": "Guildhall",
      "countryCode": "US",
      "stateCode": "VT",
      "latitude": "44.56506000",
      "longitude": "-71.55981000"
   },
   {
      "name": "Hardwick",
      "countryCode": "US",
      "stateCode": "VT",
      "latitude": "44.50478000",
      "longitude": "-72.36816000"
   },
   {
      "name": "Hartford",
      "countryCode": "US",
      "stateCode": "VT",
      "latitude": "43.66063000",
      "longitude": "-72.33842000"
   },
   {
      "name": "Hinesburg",
      "countryCode": "US",
      "stateCode": "VT",
      "latitude": "44.32922000",
      "longitude": "-73.11068000"
   },
   {
      "name": "Hyde Park",
      "countryCode": "US",
      "stateCode": "VT",
      "latitude": "44.59394000",
      "longitude": "-72.61651000"
   },
   {
      "name": "Jamaica",
      "countryCode": "US",
      "stateCode": "VT",
      "latitude": "43.10036000",
      "longitude": "-72.77843000"
   },
   {
      "name": "Jericho",
      "countryCode": "US",
      "stateCode": "VT",
      "latitude": "44.50394000",
      "longitude": "-72.99763000"
   },
   {
      "name": "Johnson",
      "countryCode": "US",
      "stateCode": "VT",
      "latitude": "44.63561000",
      "longitude": "-72.68040000"
   },
   {
      "name": "Lamoille County",
      "countryCode": "US",
      "stateCode": "VT",
      "latitude": "44.60576000",
      "longitude": "-72.64145000"
   },
   {
      "name": "Leicester",
      "countryCode": "US",
      "stateCode": "VT",
      "latitude": "43.86673000",
      "longitude": "-73.10789000"
   },
   {
      "name": "Lincoln",
      "countryCode": "US",
      "stateCode": "VT",
      "latitude": "44.10589000",
      "longitude": "-72.99706000"
   },
   {
      "name": "Londonderry",
      "countryCode": "US",
      "stateCode": "VT",
      "latitude": "43.22646000",
      "longitude": "-72.80649000"
   },
   {
      "name": "Lunenburg",
      "countryCode": "US",
      "stateCode": "VT",
      "latitude": "44.46311000",
      "longitude": "-71.68203000"
   },
   {
      "name": "Lyndon",
      "countryCode": "US",
      "stateCode": "VT",
      "latitude": "44.51422000",
      "longitude": "-72.01093000"
   },
   {
      "name": "Lyndonville",
      "countryCode": "US",
      "stateCode": "VT",
      "latitude": "44.53367000",
      "longitude": "-72.00315000"
   },
   {
      "name": "Manchester Center",
      "countryCode": "US",
      "stateCode": "VT",
      "latitude": "43.17702000",
      "longitude": "-73.05705000"
   },
   {
      "name": "Mendon",
      "countryCode": "US",
      "stateCode": "VT",
      "latitude": "43.65198000",
      "longitude": "-72.92780000"
   },
   {
      "name": "Middlebury (village)",
      "countryCode": "US",
      "stateCode": "VT",
      "latitude": "44.01553000",
      "longitude": "-73.16937000"
   },
   {
      "name": "Milton",
      "countryCode": "US",
      "stateCode": "VT",
      "latitude": "44.63977000",
      "longitude": "-73.11041000"
   },
   {
      "name": "Montgomery",
      "countryCode": "US",
      "stateCode": "VT",
      "latitude": "44.90255000",
      "longitude": "-72.63818000"
   },
   {
      "name": "Montpelier",
      "countryCode": "US",
      "stateCode": "VT",
      "latitude": "44.26006000",
      "longitude": "-72.57539000"
   },
   {
      "name": "Moretown",
      "countryCode": "US",
      "stateCode": "VT",
      "latitude": "44.25089000",
      "longitude": "-72.76095000"
   },
   {
      "name": "Morristown",
      "countryCode": "US",
      "stateCode": "VT",
      "latitude": "44.55727000",
      "longitude": "-72.62373000"
   },
   {
      "name": "Morrisville",
      "countryCode": "US",
      "stateCode": "VT",
      "latitude": "44.56172000",
      "longitude": "-72.59845000"
   },
   {
      "name": "Mount Holly",
      "countryCode": "US",
      "stateCode": "VT",
      "latitude": "43.45229000",
      "longitude": "-72.82482000"
   },
   {
      "name": "Newfane",
      "countryCode": "US",
      "stateCode": "VT",
      "latitude": "42.98564000",
      "longitude": "-72.65593000"
   },
   {
      "name": "Newport",
      "countryCode": "US",
      "stateCode": "VT",
      "latitude": "44.93644000",
      "longitude": "-72.20510000"
   },
   {
      "name": "North Bennington",
      "countryCode": "US",
      "stateCode": "VT",
      "latitude": "42.93036000",
      "longitude": "-73.24261000"
   },
   {
      "name": "North Hero",
      "countryCode": "US",
      "stateCode": "VT",
      "latitude": "44.83125000",
      "longitude": "-73.27323000"
   },
   {
      "name": "Northfield",
      "countryCode": "US",
      "stateCode": "VT",
      "latitude": "44.15117000",
      "longitude": "-72.65650000"
   },
   {
      "name": "Orange County",
      "countryCode": "US",
      "stateCode": "VT",
      "latitude": "44.00560000",
      "longitude": "-72.37661000"
   },
   {
      "name": "Orleans County",
      "countryCode": "US",
      "stateCode": "VT",
      "latitude": "44.82881000",
      "longitude": "-72.24381000"
   },
   {
      "name": "Pawlet",
      "countryCode": "US",
      "stateCode": "VT",
      "latitude": "43.34674000",
      "longitude": "-73.17622000"
   },
   {
      "name": "Poultney",
      "countryCode": "US",
      "stateCode": "VT",
      "latitude": "43.51701000",
      "longitude": "-73.23622000"
   },
   {
      "name": "Pownal",
      "countryCode": "US",
      "stateCode": "VT",
      "latitude": "42.76564000",
      "longitude": "-73.23594000"
   },
   {
      "name": "Randolph",
      "countryCode": "US",
      "stateCode": "VT",
      "latitude": "43.92507000",
      "longitude": "-72.66594000"
   },
   {
      "name": "Richford",
      "countryCode": "US",
      "stateCode": "VT",
      "latitude": "44.99699000",
      "longitude": "-72.67124000"
   },
   {
      "name": "Rockingham",
      "countryCode": "US",
      "stateCode": "VT",
      "latitude": "43.18758000",
      "longitude": "-72.48898000"
   },
   {
      "name": "Rutland",
      "countryCode": "US",
      "stateCode": "VT",
      "latitude": "43.61062000",
      "longitude": "-72.97261000"
   },
   {
      "name": "Rutland County",
      "countryCode": "US",
      "stateCode": "VT",
      "latitude": "43.58009000",
      "longitude": "-73.03661000"
   },
   {
      "name": "Saint Albans",
      "countryCode": "US",
      "stateCode": "VT",
      "latitude": "44.81088000",
      "longitude": "-73.08319000"
   },
   {
      "name": "Saint Johnsbury",
      "countryCode": "US",
      "stateCode": "VT",
      "latitude": "44.41922000",
      "longitude": "-72.01509000"
   },
   {
      "name": "Salisbury",
      "countryCode": "US",
      "stateCode": "VT",
      "latitude": "43.89645000",
      "longitude": "-73.09984000"
   },
   {
      "name": "South Barre",
      "countryCode": "US",
      "stateCode": "VT",
      "latitude": "44.17701000",
      "longitude": "-72.50566000"
   },
   {
      "name": "South Burlington",
      "countryCode": "US",
      "stateCode": "VT",
      "latitude": "44.46699000",
      "longitude": "-73.17096000"
   },
   {
      "name": "Springfield",
      "countryCode": "US",
      "stateCode": "VT",
      "latitude": "43.29841000",
      "longitude": "-72.48231000"
   },
   {
      "name": "St Johnsbury",
      "countryCode": "US",
      "stateCode": "VT",
      "latitude": "44.42526000",
      "longitude": "-72.01512000"
   },
   {
      "name": "Starksboro",
      "countryCode": "US",
      "stateCode": "VT",
      "latitude": "44.22728000",
      "longitude": "-73.05734000"
   },
   {
      "name": "Stowe",
      "countryCode": "US",
      "stateCode": "VT",
      "latitude": "44.46533000",
      "longitude": "-72.68456000"
   },
   {
      "name": "Swanton",
      "countryCode": "US",
      "stateCode": "VT",
      "latitude": "44.91810000",
      "longitude": "-73.12430000"
   },
   {
      "name": "Townshend",
      "countryCode": "US",
      "stateCode": "VT",
      "latitude": "43.04730000",
      "longitude": "-72.66759000"
   },
   {
      "name": "Vergennes",
      "countryCode": "US",
      "stateCode": "VT",
      "latitude": "44.16728000",
      "longitude": "-73.25401000"
   },
   {
      "name": "Washington",
      "countryCode": "US",
      "stateCode": "VT",
      "latitude": "44.10562000",
      "longitude": "-72.43260000"
   },
   {
      "name": "Washington County",
      "countryCode": "US",
      "stateCode": "VT",
      "latitude": "44.27342000",
      "longitude": "-72.61490000"
   },
   {
      "name": "Waterbury",
      "countryCode": "US",
      "stateCode": "VT",
      "latitude": "44.33783000",
      "longitude": "-72.75623000"
   },
   {
      "name": "West Brattleboro",
      "countryCode": "US",
      "stateCode": "VT",
      "latitude": "42.85592000",
      "longitude": "-72.60315000"
   },
   {
      "name": "West Rutland",
      "countryCode": "US",
      "stateCode": "VT",
      "latitude": "43.59312000",
      "longitude": "-73.04511000"
   },
   {
      "name": "White River Junction",
      "countryCode": "US",
      "stateCode": "VT",
      "latitude": "43.64896000",
      "longitude": "-72.31926000"
   },
   {
      "name": "Wilder",
      "countryCode": "US",
      "stateCode": "VT",
      "latitude": "43.67285000",
      "longitude": "-72.30870000"
   },
   {
      "name": "Williamstown",
      "countryCode": "US",
      "stateCode": "VT",
      "latitude": "44.12173000",
      "longitude": "-72.54149000"
   },
   {
      "name": "Williston",
      "countryCode": "US",
      "stateCode": "VT",
      "latitude": "44.43755000",
      "longitude": "-73.06818000"
   },
   {
      "name": "Windham County",
      "countryCode": "US",
      "stateCode": "VT",
      "latitude": "42.99059000",
      "longitude": "-72.71384000"
   },
   {
      "name": "Windsor",
      "countryCode": "US",
      "stateCode": "VT",
      "latitude": "43.48035000",
      "longitude": "-72.38481000"
   },
   {
      "name": "Windsor County",
      "countryCode": "US",
      "stateCode": "VT",
      "latitude": "43.58000000",
      "longitude": "-72.58624000"
   },
   {
      "name": "Winooski",
      "countryCode": "US",
      "stateCode": "VT",
      "latitude": "44.49144000",
      "longitude": "-73.18568000"
   },
   {
      "name": "Woodstock",
      "countryCode": "US",
      "stateCode": "VT",
      "latitude": "43.62424000",
      "longitude": "-72.51843000"
   }
]