[
   {
      "name": "Anadia",
      "countryCode": "BR",
      "stateCode": "AL",
      "latitude": "-9.67495000",
      "longitude": "-36.33790000"
   },
   {
      "name": "Arapiraca",
      "countryCode": "BR",
      "stateCode": "AL",
      "latitude": "-9.74380000",
      "longitude": "-36.59315000"
   },
   {
      "name": "Atalaia",
      "countryCode": "BR",
      "stateCode": "AL",
      "latitude": "-9.50194000",
      "longitude": "-36.02278000"
   },
   {
      "name": "Barra de Santo Antônio",
      "countryCode": "BR",
      "stateCode": "AL",
      "latitude": "-9.40472000",
      "longitude": "-35.50722000"
   },
   {
      "name": "Barra de São Miguel",
      "countryCode": "BR",
      "stateCode": "AL",
      "latitude": "-9.81230000",
      "longitude": "-35.96087000"
   },
   {
      "name": "Batalha",
      "countryCode": "BR",
      "stateCode": "AL",
      "latitude": "-9.73256000",
      "longitude": "-37.08877000"
   },
   {
      "name": "Belo Monte",
      "countryCode": "BR",
      "stateCode": "AL",
      "latitude": "-9.80521000",
      "longitude": "-37.19157000"
   },
   {
      "name": "Belém",
      "countryCode": "BR",
      "stateCode": "AL",
      "latitude": "-9.54424000",
      "longitude": "-36.50196000"
   },
   {
      "name": "Boca da Mata",
      "countryCode": "BR",
      "stateCode": "AL",
      "latitude": "-9.64651000",
      "longitude": "-36.14134000"
   },
   {
      "name": "Branquinha",
      "countryCode": "BR",
      "stateCode": "AL",
      "latitude": "-9.21168000",
      "longitude": "-36.08956000"
   },
   {
      "name": "Cacimbinhas",
      "countryCode": "BR",
      "stateCode": "AL",
      "latitude": "-9.40028000",
      "longitude": "-36.99028000"
   },
   {
      "name": "Cajueiro",
      "countryCode": "BR",
      "stateCode": "AL",
      "latitude": "-9.71667000",
      "longitude": "-36.45000000"
   },
   {
      "name": "Campestre",
      "countryCode": "BR",
      "stateCode": "AL",
      "latitude": "-8.89393000",
      "longitude": "-35.53237000"
   },
   {
      "name": "Campo Alegre",
      "countryCode": "BR",
      "stateCode": "AL",
      "latitude": "-9.78194000",
      "longitude": "-36.35083000"
   },
   {
      "name": "Campo Grande",
      "countryCode": "BR",
      "stateCode": "AL",
      "latitude": "-9.94997000",
      "longitude": "-36.75593000"
   },
   {
      "name": "Canapi",
      "countryCode": "BR",
      "stateCode": "AL",
      "latitude": "-9.17327000",
      "longitude": "-37.51985000"
   },
   {
      "name": "Capela",
      "countryCode": "BR",
      "stateCode": "AL",
      "latitude": "-9.39342000",
      "longitude": "-36.12390000"
   },
   {
      "name": "Carneiros",
      "countryCode": "BR",
      "stateCode": "AL",
      "latitude": "-9.46467000",
      "longitude": "-37.35559000"
   },
   {
      "name": "Chã Preta",
      "countryCode": "BR",
      "stateCode": "AL",
      "latitude": "-9.22921000",
      "longitude": "-36.33049000"
   },
   {
      "name": "Coité do Nóia",
      "countryCode": "BR",
      "stateCode": "AL",
      "latitude": "-9.62616000",
      "longitude": "-36.60044000"
   },
   {
      "name": "Colônia Leopoldina",
      "countryCode": "BR",
      "stateCode": "AL",
      "latitude": "-8.94183000",
      "longitude": "-35.76005000"
   },
   {
      "name": "Coqueiro Seco",
      "countryCode": "BR",
      "stateCode": "AL",
      "latitude": "-9.64656000",
      "longitude": "-35.80938000"
   },
   {
      "name": "Coruripe",
      "countryCode": "BR",
      "stateCode": "AL",
      "latitude": "-10.12556000",
      "longitude": "-36.17556000"
   },
   {
      "name": "Craíbas",
      "countryCode": "BR",
      "stateCode": "AL",
      "latitude": "-9.60115000",
      "longitude": "-36.80273000"
   },
   {
      "name": "Delmiro Gouveia",
      "countryCode": "BR",
      "stateCode": "AL",
      "latitude": "-9.38861000",
      "longitude": "-37.99917000"
   },
   {
      "name": "Dois Riachos",
      "countryCode": "BR",
      "stateCode": "AL",
      "latitude": "-9.39250000",
      "longitude": "-37.10056000"
   },
   {
      "name": "Estrela de Alagoas",
      "countryCode": "BR",
      "stateCode": "AL",
      "latitude": "-9.39858000",
      "longitude": "-36.76219000"
   },
   {
      "name": "Feira Grande",
      "countryCode": "BR",
      "stateCode": "AL",
      "latitude": "-9.92470000",
      "longitude": "-36.66953000"
   },
   {
      "name": "Feliz Deserto",
      "countryCode": "BR",
      "stateCode": "AL",
      "latitude": "-10.29080000",
      "longitude": "-36.35367000"
   },
   {
      "name": "Flexeiras",
      "countryCode": "BR",
      "stateCode": "AL",
      "latitude": "-9.20061000",
      "longitude": "-35.78000000"
   },
   {
      "name": "Girau do Ponciano",
      "countryCode": "BR",
      "stateCode": "AL",
      "latitude": "-9.88417000",
      "longitude": "-36.82889000"
   },
   {
      "name": "Ibateguara",
      "countryCode": "BR",
      "stateCode": "AL",
      "latitude": "-8.97250000",
      "longitude": "-35.93944000"
   },
   {
      "name": "Igaci",
      "countryCode": "BR",
      "stateCode": "AL",
      "latitude": "-9.53694000",
      "longitude": "-36.63361000"
   },
   {
      "name": "Igreja Nova",
      "countryCode": "BR",
      "stateCode": "AL",
      "latitude": "-10.16660000",
      "longitude": "-36.61724000"
   },
   {
      "name": "Inhapi",
      "countryCode": "BR",
      "stateCode": "AL",
      "latitude": "-9.22139000",
      "longitude": "-37.74861000"
   },
   {
      "name": "Jacaré dos Homens",
      "countryCode": "BR",
      "stateCode": "AL",
      "latitude": "-9.67278000",
      "longitude": "-37.22275000"
   },
   {
      "name": "Jacuípe",
      "countryCode": "BR",
      "stateCode": "AL",
      "latitude": "-8.87722000",
      "longitude": "-35.45885000"
   },
   {
      "name": "Japaratinga",
      "countryCode": "BR",
      "stateCode": "AL",
      "latitude": "-9.09900000",
      "longitude": "-35.29631000"
   },
   {
      "name": "Jaramataia",
      "countryCode": "BR",
      "stateCode": "AL",
      "latitude": "-9.65053000",
      "longitude": "-36.96036000"
   },
   {
      "name": "Jequiá da Praia",
      "countryCode": "BR",
      "stateCode": "AL",
      "latitude": "-9.91151000",
      "longitude": "-36.09896000"
   },
   {
      "name": "Joaquim Gomes",
      "countryCode": "BR",
      "stateCode": "AL",
      "latitude": "-9.10352000",
      "longitude": "-35.73739000"
   },
   {
      "name": "Jundiá",
      "countryCode": "BR",
      "stateCode": "AL",
      "latitude": "-8.93472000",
      "longitude": "-35.57361000"
   },
   {
      "name": "Junqueiro",
      "countryCode": "BR",
      "stateCode": "AL",
      "latitude": "-9.88524000",
      "longitude": "-36.45640000"
   },
   {
      "name": "Lagoa da Canoa",
      "countryCode": "BR",
      "stateCode": "AL",
      "latitude": "-9.82972000",
      "longitude": "-36.73778000"
   },
   {
      "name": "Limoeiro de Anadia",
      "countryCode": "BR",
      "stateCode": "AL",
      "latitude": "-9.72685000",
      "longitude": "-36.45407000"
   },
   {
      "name": "Maceió",
      "countryCode": "BR",
      "stateCode": "AL",
      "latitude": "-9.66583000",
      "longitude": "-35.73528000"
   },
   {
      "name": "Major Isidoro",
      "countryCode": "BR",
      "stateCode": "AL",
      "latitude": "-9.53222000",
      "longitude": "-36.98500000"
   },
   {
      "name": "Mar Vermelho",
      "countryCode": "BR",
      "stateCode": "AL",
      "latitude": "-9.49247000",
      "longitude": "-36.35042000"
   },
   {
      "name": "Maragogi",
      "countryCode": "BR",
      "stateCode": "AL",
      "latitude": "-9.01222000",
      "longitude": "-35.22250000"
   },
   {
      "name": "Maravilha",
      "countryCode": "BR",
      "stateCode": "AL",
      "latitude": "-9.22305000",
      "longitude": "-37.37936000"
   },
   {
      "name": "Marechal Deodoro",
      "countryCode": "BR",
      "stateCode": "AL",
      "latitude": "-9.71028000",
      "longitude": "-35.89500000"
   },
   {
      "name": "Maribondo",
      "countryCode": "BR",
      "stateCode": "AL",
      "latitude": "-9.57722000",
      "longitude": "-36.30528000"
   },
   {
      "name": "Mata Grande",
      "countryCode": "BR",
      "stateCode": "AL",
      "latitude": "-8.98543000",
      "longitude": "-37.76150000"
   },
   {
      "name": "Matriz de Camaragibe",
      "countryCode": "BR",
      "stateCode": "AL",
      "latitude": "-9.15167000",
      "longitude": "-35.53333000"
   },
   {
      "name": "Messias",
      "countryCode": "BR",
      "stateCode": "AL",
      "latitude": "-9.38333000",
      "longitude": "-35.84167000"
   },
   {
      "name": "Minador do Negrão",
      "countryCode": "BR",
      "stateCode": "AL",
      "latitude": "-9.30528000",
      "longitude": "-36.86472000"
   },
   {
      "name": "Monteirópolis",
      "countryCode": "BR",
      "stateCode": "AL",
      "latitude": "-9.62019000",
      "longitude": "-37.29350000"
   },
   {
      "name": "Murici",
      "countryCode": "BR",
      "stateCode": "AL",
      "latitude": "-9.29835000",
      "longitude": "-35.89999000"
   },
   {
      "name": "Novo Lino",
      "countryCode": "BR",
      "stateCode": "AL",
      "latitude": "-8.88091000",
      "longitude": "-35.61948000"
   },
   {
      "name": "Olho d'Água Grande",
      "countryCode": "BR",
      "stateCode": "AL",
      "latitude": "-10.05622000",
      "longitude": "-36.79522000"
   },
   {
      "name": "Olho d'Água das Flores",
      "countryCode": "BR",
      "stateCode": "AL",
      "latitude": "-9.54034000",
      "longitude": "-37.25214000"
   },
   {
      "name": "Olho d'Água do Casado",
      "countryCode": "BR",
      "stateCode": "AL",
      "latitude": "-9.45648000",
      "longitude": "-37.83496000"
   },
   {
      "name": "Olivença",
      "countryCode": "BR",
      "stateCode": "AL",
      "latitude": "-9.51861000",
      "longitude": "-37.19056000"
   },
   {
      "name": "Ouro Branco",
      "countryCode": "BR",
      "stateCode": "AL",
      "latitude": "-9.12895000",
      "longitude": "-37.37367000"
   },
   {
      "name": "Palestina",
      "countryCode": "BR",
      "stateCode": "AL",
      "latitude": "-9.67504000",
      "longitude": "-37.33100000"
   },
   {
      "name": "Palmeira dos Índios",
      "countryCode": "BR",
      "stateCode": "AL",
      "latitude": "-9.40902000",
      "longitude": "-36.60651000"
   },
   {
      "name": "Pariconha",
      "countryCode": "BR",
      "stateCode": "AL",
      "latitude": "-9.22039000",
      "longitude": "-38.01670000"
   },
   {
      "name": "Paripueira",
      "countryCode": "BR",
      "stateCode": "AL",
      "latitude": "-9.42940000",
      "longitude": "-35.58979000"
   },
   {
      "name": "Passo de Camaragibe",
      "countryCode": "BR",
      "stateCode": "AL",
      "latitude": "-9.29865000",
      "longitude": "-35.42788000"
   },
   {
      "name": "Paulo Jacinto",
      "countryCode": "BR",
      "stateCode": "AL",
      "latitude": "-9.36843000",
      "longitude": "-36.39294000"
   },
   {
      "name": "Penedo",
      "countryCode": "BR",
      "stateCode": "AL",
      "latitude": "-10.24448000",
      "longitude": "-36.46992000"
   },
   {
      "name": "Piaçabuçu",
      "countryCode": "BR",
      "stateCode": "AL",
      "latitude": "-10.40556000",
      "longitude": "-36.43444000"
   },
   {
      "name": "Pilar",
      "countryCode": "BR",
      "stateCode": "AL",
      "latitude": "-9.61752000",
      "longitude": "-36.06323000"
   },
   {
      "name": "Pindoba",
      "countryCode": "BR",
      "stateCode": "AL",
      "latitude": "-9.47492000",
      "longitude": "-36.30343000"
   },
   {
      "name": "Piranhas",
      "countryCode": "BR",
      "stateCode": "AL",
      "latitude": "-9.54806000",
      "longitude": "-37.74529000"
   },
   {
      "name": "Porto Calvo",
      "countryCode": "BR",
      "stateCode": "AL",
      "latitude": "-9.04500000",
      "longitude": "-35.39833000"
   },
   {
      "name": "Porto Real do Colégio",
      "countryCode": "BR",
      "stateCode": "AL",
      "latitude": "-10.10538000",
      "longitude": "-36.72695000"
   },
   {
      "name": "Porto de Pedras",
      "countryCode": "BR",
      "stateCode": "AL",
      "latitude": "-9.11562000",
      "longitude": "-35.39158000"
   },
   {
      "name": "Poço das Trincheiras",
      "countryCode": "BR",
      "stateCode": "AL",
      "latitude": "-9.31250000",
      "longitude": "-37.28556000"
   },
   {
      "name": "Pão de Açúcar",
      "countryCode": "BR",
      "stateCode": "AL",
      "latitude": "-9.68353000",
      "longitude": "-37.45431000"
   },
   {
      "name": "Quebrangulo",
      "countryCode": "BR",
      "stateCode": "AL",
      "latitude": "-9.31889000",
      "longitude": "-36.47111000"
   },
   {
      "name": "Rio Largo",
      "countryCode": "BR",
      "stateCode": "AL",
      "latitude": "-9.47833000",
      "longitude": "-35.85333000"
   },
   {
      "name": "Roteiro",
      "countryCode": "BR",
      "stateCode": "AL",
      "latitude": "-9.85906000",
      "longitude": "-35.98311000"
   },
   {
      "name": "Santa Luzia do Norte",
      "countryCode": "BR",
      "stateCode": "AL",
      "latitude": "-9.61082000",
      "longitude": "-35.82917000"
   },
   {
      "name": "Santana do Ipanema",
      "countryCode": "BR",
      "stateCode": "AL",
      "latitude": "-9.37833000",
      "longitude": "-37.24528000"
   },
   {
      "name": "Santana do Mundaú",
      "countryCode": "BR",
      "stateCode": "AL",
      "latitude": "-9.16806000",
      "longitude": "-36.22222000"
   },
   {
      "name": "Satuba",
      "countryCode": "BR",
      "stateCode": "AL",
      "latitude": "-9.56333000",
      "longitude": "-35.82444000"
   },
   {
      "name": "Senador Rui Palmeira",
      "countryCode": "BR",
      "stateCode": "AL",
      "latitude": "-9.33827000",
      "longitude": "-37.55968000"
   },
   {
      "name": "São Brás",
      "countryCode": "BR",
      "stateCode": "AL",
      "latitude": "-10.12409000",
      "longitude": "-36.85043000"
   },
   {
      "name": "São José da Laje",
      "countryCode": "BR",
      "stateCode": "AL",
      "latitude": "-9.00972000",
      "longitude": "-36.05833000"
   },
   {
      "name": "São José da Tapera",
      "countryCode": "BR",
      "stateCode": "AL",
      "latitude": "-9.55833000",
      "longitude": "-37.38111000"
   },
   {
      "name": "São Luís do Quitunde",
      "countryCode": "BR",
      "stateCode": "AL",
      "latitude": "-9.31833000",
      "longitude": "-35.56111000"
   },
   {
      "name": "São Miguel dos Campos",
      "countryCode": "BR",
      "stateCode": "AL",
      "latitude": "-9.78111000",
      "longitude": "-36.09361000"
   },
   {
      "name": "São Miguel dos Milagres",
      "countryCode": "BR",
      "stateCode": "AL",
      "latitude": "-9.25423000",
      "longitude": "-35.38419000"
   },
   {
      "name": "São Sebastião",
      "countryCode": "BR",
      "stateCode": "AL",
      "latitude": "-9.96698000",
      "longitude": "-36.55280000"
   },
   {
      "name": "Tanque d'Arca",
      "countryCode": "BR",
      "stateCode": "AL",
      "latitude": "-9.56069000",
      "longitude": "-36.40824000"
   },
   {
      "name": "Taquarana",
      "countryCode": "BR",
      "stateCode": "AL",
      "latitude": "-9.64342000",
      "longitude": "-36.49419000"
   },
   {
      "name": "Teotônio Vilela",
      "countryCode": "BR",
      "stateCode": "AL",
      "latitude": "-9.99012000",
      "longitude": "-36.43273000"
   },
   {
      "name": "Traipu",
      "countryCode": "BR",
      "stateCode": "AL",
      "latitude": "-9.89240000",
      "longitude": "-36.97849000"
   },
   {
      "name": "União dos Palmares",
      "countryCode": "BR",
      "stateCode": "AL",
      "latitude": "-9.13251000",
      "longitude": "-36.08182000"
   },
   {
      "name": "Viçosa",
      "countryCode": "BR",
      "stateCode": "AL",
      "latitude": "-9.36022000",
      "longitude": "-36.32095000"
   },
   {
      "name": "Água Branca",
      "countryCode": "BR",
      "stateCode": "AL",
      "latitude": "-9.26988000",
      "longitude": "-37.91917000"
   }
]