[
   {
      "name": "Baiima",
      "countryCode": "SL",
      "stateCode": "S",
      "latitude": "8.10826000",
      "longitude": "-11.84772000"
   },
   {
      "name": "Baoma",
      "countryCode": "SL",
      "stateCode": "S",
      "latitude": "7.99344000",
      "longitude": "-11.71468000"
   },
   {
      "name": "Bo",
      "countryCode": "SL",
      "stateCode": "S",
      "latitude": "7.96472000",
      "longitude": "-11.73833000"
   },
   {
      "name": "Bo District",
      "countryCode": "SL",
      "stateCode": "S",
      "latitude": "7.98877000",
      "longitude": "-11.67340000"
   },
   {
      "name": "Bomi",
      "countryCode": "SL",
      "stateCode": "S",
      "latitude": "7.24611000",
      "longitude": "-11.52583000"
   },
   {
      "name": "Bonthe",
      "countryCode": "SL",
      "stateCode": "S",
      "latitude": "7.52639000",
      "longitude": "-12.50500000"
   },
   {
      "name": "Bonthe District",
      "countryCode": "SL",
      "stateCode": "S",
      "latitude": "7.51622000",
      "longitude": "-12.33591000"
   },
   {
      "name": "Bumpe",
      "countryCode": "SL",
      "stateCode": "S",
      "latitude": "7.89209000",
      "longitude": "-11.90541000"
   },
   {
      "name": "Foindu",
      "countryCode": "SL",
      "stateCode": "S",
      "latitude": "7.40906000",
      "longitude": "-11.54328000"
   },
   {
      "name": "Gandorhun",
      "countryCode": "SL",
      "stateCode": "S",
      "latitude": "7.55502000",
      "longitude": "-11.69260000"
   },
   {
      "name": "Gbewebu",
      "countryCode": "SL",
      "stateCode": "S",
      "latitude": "7.55091000",
      "longitude": "-11.60750000"
   },
   {
      "name": "Koribundu",
      "countryCode": "SL",
      "stateCode": "S",
      "latitude": "7.70952000",
      "longitude": "-11.69354000"
   },
   {
      "name": "Largo",
      "countryCode": "SL",
      "stateCode": "S",
      "latitude": "8.27903000",
      "longitude": "-12.15780000"
   },
   {
      "name": "Mamboma",
      "countryCode": "SL",
      "stateCode": "S",
      "latitude": "8.08742000",
      "longitude": "-11.68841000"
   },
   {
      "name": "Mogbwemo",
      "countryCode": "SL",
      "stateCode": "S",
      "latitude": "7.76237000",
      "longitude": "-12.30864000"
   },
   {
      "name": "Moyamba",
      "countryCode": "SL",
      "stateCode": "S",
      "latitude": "8.15898000",
      "longitude": "-12.43168000"
   },
   {
      "name": "Moyamba District",
      "countryCode": "SL",
      "stateCode": "S",
      "latitude": "8.06290000",
      "longitude": "-12.44401000"
   },
   {
      "name": "Palima",
      "countryCode": "SL",
      "stateCode": "S",
      "latitude": "8.11996000",
      "longitude": "-11.50702000"
   },
   {
      "name": "Potoru",
      "countryCode": "SL",
      "stateCode": "S",
      "latitude": "7.50596000",
      "longitude": "-11.47897000"
   },
   {
      "name": "Pujehun",
      "countryCode": "SL",
      "stateCode": "S",
      "latitude": "7.35806000",
      "longitude": "-11.72083000"
   },
   {
      "name": "Pujehun District",
      "countryCode": "SL",
      "stateCode": "S",
      "latitude": "7.31855000",
      "longitude": "-11.57920000"
   },
   {
      "name": "Rotifunk",
      "countryCode": "SL",
      "stateCode": "S",
      "latitude": "8.22591000",
      "longitude": "-12.67760000"
   },
   {
      "name": "Serabu",
      "countryCode": "SL",
      "stateCode": "S",
      "latitude": "7.79311000",
      "longitude": "-12.05294000"
   },
   {
      "name": "Sumbuya",
      "countryCode": "SL",
      "stateCode": "S",
      "latitude": "7.64789000",
      "longitude": "-11.96060000"
   },
   {
      "name": "Tongole",
      "countryCode": "SL",
      "stateCode": "S",
      "latitude": "7.45092000",
      "longitude": "-11.90071000"
   },
   {
      "name": "Zimmi",
      "countryCode": "SL",
      "stateCode": "S",
      "latitude": "7.31356000",
      "longitude": "-11.30818000"
   }
]