[
   {
      "name": "Aiseau",
      "countryCode": "BE",
      "stateCode": "WAL",
      "latitude": "50.41158000",
      "longitude": "4.58671000"
   },
   {
      "name": "Amay",
      "countryCode": "BE",
      "stateCode": "WAL",
      "latitude": "50.54829000",
      "longitude": "5.30974000"
   },
   {
      "name": "Amblève",
      "countryCode": "BE",
      "stateCode": "WAL",
      "latitude": "50.35357000",
      "longitude": "6.17002000"
   },
   {
      "name": "Andenne",
      "countryCode": "BE",
      "stateCode": "WAL",
      "latitude": "50.48941000",
      "longitude": "5.09513000"
   },
   {
      "name": "Anderlues",
      "countryCode": "BE",
      "stateCode": "WAL",
      "latitude": "50.40704000",
      "longitude": "4.27136000"
   },
   {
      "name": "Anhée",
      "countryCode": "BE",
      "stateCode": "WAL",
      "latitude": "50.31039000",
      "longitude": "4.87827000"
   },
   {
      "name": "Ans",
      "countryCode": "BE",
      "stateCode": "WAL",
      "latitude": "50.66230000",
      "longitude": "5.52029000"
   },
   {
      "name": "Anthisnes",
      "countryCode": "BE",
      "stateCode": "WAL",
      "latitude": "50.48323000",
      "longitude": "5.51900000"
   },
   {
      "name": "Antoing",
      "countryCode": "BE",
      "stateCode": "WAL",
      "latitude": "50.56765000",
      "longitude": "3.44920000"
   },
   {
      "name": "Arlon",
      "countryCode": "BE",
      "stateCode": "WAL",
      "latitude": "49.68333000",
      "longitude": "5.81667000"
   },
   {
      "name": "Assesse",
      "countryCode": "BE",
      "stateCode": "WAL",
      "latitude": "50.36934000",
      "longitude": "5.02204000"
   },
   {
      "name": "Ath",
      "countryCode": "BE",
      "stateCode": "WAL",
      "latitude": "50.62937000",
      "longitude": "3.77801000"
   },
   {
      "name": "Attert",
      "countryCode": "BE",
      "stateCode": "WAL",
      "latitude": "49.75035000",
      "longitude": "5.78634000"
   },
   {
      "name": "Aubange",
      "countryCode": "BE",
      "stateCode": "WAL",
      "latitude": "49.56652000",
      "longitude": "5.80492000"
   },
   {
      "name": "Aubel",
      "countryCode": "BE",
      "stateCode": "WAL",
      "latitude": "50.70189000",
      "longitude": "5.85812000"
   },
   {
      "name": "Awans",
      "countryCode": "BE",
      "stateCode": "WAL",
      "latitude": "50.66774000",
      "longitude": "5.46329000"
   },
   {
      "name": "Aywaille",
      "countryCode": "BE",
      "stateCode": "WAL",
      "latitude": "50.47411000",
      "longitude": "5.67684000"
   },
   {
      "name": "Baelen",
      "countryCode": "BE",
      "stateCode": "WAL",
      "latitude": "50.63131000",
      "longitude": "5.97433000"
   },
   {
      "name": "Basse Lasne",
      "countryCode": "BE",
      "stateCode": "WAL",
      "latitude": "50.69503000",
      "longitude": "4.49218000"
   },
   {
      "name": "Bassenge",
      "countryCode": "BE",
      "stateCode": "WAL",
      "latitude": "50.75883000",
      "longitude": "5.60989000"
   },
   {
      "name": "Bastogne",
      "countryCode": "BE",
      "stateCode": "WAL",
      "latitude": "50.00347000",
      "longitude": "5.71844000"
   },
   {
      "name": "Beaumont",
      "countryCode": "BE",
      "stateCode": "WAL",
      "latitude": "50.23699000",
      "longitude": "4.23926000"
   },
   {
      "name": "Beauraing",
      "countryCode": "BE",
      "stateCode": "WAL",
      "latitude": "50.11042000",
      "longitude": "4.95554000"
   },
   {
      "name": "Beauvechain",
      "countryCode": "BE",
      "stateCode": "WAL",
      "latitude": "50.78195000",
      "longitude": "4.77180000"
   },
   {
      "name": "Beloeil",
      "countryCode": "BE",
      "stateCode": "WAL",
      "latitude": "50.55047000",
      "longitude": "3.73484000"
   },
   {
      "name": "Berloz",
      "countryCode": "BE",
      "stateCode": "WAL",
      "latitude": "50.69829000",
      "longitude": "5.21236000"
   },
   {
      "name": "Bernissart",
      "countryCode": "BE",
      "stateCode": "WAL",
      "latitude": "50.47460000",
      "longitude": "3.64961000"
   },
   {
      "name": "Bertogne",
      "countryCode": "BE",
      "stateCode": "WAL",
      "latitude": "50.08364000",
      "longitude": "5.66689000"
   },
   {
      "name": "Bertrix",
      "countryCode": "BE",
      "stateCode": "WAL",
      "latitude": "49.85596000",
      "longitude": "5.25539000"
   },
   {
      "name": "Beyne-Heusay",
      "countryCode": "BE",
      "stateCode": "WAL",
      "latitude": "50.62251000",
      "longitude": "5.66508000"
   },
   {
      "name": "Binche",
      "countryCode": "BE",
      "stateCode": "WAL",
      "latitude": "50.41155000",
      "longitude": "4.16469000"
   },
   {
      "name": "Bièvre",
      "countryCode": "BE",
      "stateCode": "WAL",
      "latitude": "49.94085000",
      "longitude": "5.01591000"
   },
   {
      "name": "Blégny",
      "countryCode": "BE",
      "stateCode": "WAL",
      "latitude": "50.67255000",
      "longitude": "5.72508000"
   },
   {
      "name": "Bouillon",
      "countryCode": "BE",
      "stateCode": "WAL",
      "latitude": "49.79324000",
      "longitude": "5.06703000"
   },
   {
      "name": "Boussu",
      "countryCode": "BE",
      "stateCode": "WAL",
      "latitude": "50.43417000",
      "longitude": "3.79440000"
   },
   {
      "name": "Braine-l'Alleud",
      "countryCode": "BE",
      "stateCode": "WAL",
      "latitude": "50.68363000",
      "longitude": "4.36784000"
   },
   {
      "name": "Braine-le-Château",
      "countryCode": "BE",
      "stateCode": "WAL",
      "latitude": "50.67990000",
      "longitude": "4.27385000"
   },
   {
      "name": "Braine-le-Comte",
      "countryCode": "BE",
      "stateCode": "WAL",
      "latitude": "50.60979000",
      "longitude": "4.14658000"
   },
   {
      "name": "Braives",
      "countryCode": "BE",
      "stateCode": "WAL",
      "latitude": "50.61745000",
      "longitude": "5.13302000"
   },
   {
      "name": "Brugelette",
      "countryCode": "BE",
      "stateCode": "WAL",
      "latitude": "50.59577000",
      "longitude": "3.85363000"
   },
   {
      "name": "Brunehault",
      "countryCode": "BE",
      "stateCode": "WAL",
      "latitude": "50.50524000",
      "longitude": "4.43209000"
   },
   {
      "name": "Bullange",
      "countryCode": "BE",
      "stateCode": "WAL",
      "latitude": "50.40731000",
      "longitude": "6.25749000"
   },
   {
      "name": "Burdinne",
      "countryCode": "BE",
      "stateCode": "WAL",
      "latitude": "50.58454000",
      "longitude": "5.07663000"
   },
   {
      "name": "Butgenbach",
      "countryCode": "BE",
      "stateCode": "WAL",
      "latitude": "50.42689000",
      "longitude": "6.20504000"
   },
   {
      "name": "Celles",
      "countryCode": "BE",
      "stateCode": "WAL",
      "latitude": "50.71229000",
      "longitude": "3.45733000"
   },
   {
      "name": "Cerfontaine",
      "countryCode": "BE",
      "stateCode": "WAL",
      "latitude": "50.17047000",
      "longitude": "4.41028000"
   },
   {
      "name": "Chapelle-lez-Herlaimont",
      "countryCode": "BE",
      "stateCode": "WAL",
      "latitude": "50.47130000",
      "longitude": "4.28227000"
   },
   {
      "name": "Charleroi",
      "countryCode": "BE",
      "stateCode": "WAL",
      "latitude": "50.41136000",
      "longitude": "4.44448000"
   },
   {
      "name": "Chastre-Villeroux-Blanmont",
      "countryCode": "BE",
      "stateCode": "WAL",
      "latitude": "50.60857000",
      "longitude": "4.64198000"
   },
   {
      "name": "Chaudfontaine",
      "countryCode": "BE",
      "stateCode": "WAL",
      "latitude": "50.58280000",
      "longitude": "5.63410000"
   },
   {
      "name": "Chaumont-Gistoux",
      "countryCode": "BE",
      "stateCode": "WAL",
      "latitude": "50.67753000",
      "longitude": "4.72120000"
   },
   {
      "name": "Chimay",
      "countryCode": "BE",
      "stateCode": "WAL",
      "latitude": "50.04856000",
      "longitude": "4.31712000"
   },
   {
      "name": "Chiny",
      "countryCode": "BE",
      "stateCode": "WAL",
      "latitude": "49.73833000",
      "longitude": "5.34104000"
   },
   {
      "name": "Chièvres",
      "countryCode": "BE",
      "stateCode": "WAL",
      "latitude": "50.58787000",
      "longitude": "3.80711000"
   },
   {
      "name": "Châtelet",
      "countryCode": "BE",
      "stateCode": "WAL",
      "latitude": "50.40338000",
      "longitude": "4.52826000"
   },
   {
      "name": "Ciney",
      "countryCode": "BE",
      "stateCode": "WAL",
      "latitude": "50.29449000",
      "longitude": "5.10015000"
   },
   {
      "name": "Clavier",
      "countryCode": "BE",
      "stateCode": "WAL",
      "latitude": "50.40069000",
      "longitude": "5.35154000"
   },
   {
      "name": "Colfontaine",
      "countryCode": "BE",
      "stateCode": "WAL",
      "latitude": "50.41410000",
      "longitude": "3.85569000"
   },
   {
      "name": "Comblain-au-Pont",
      "countryCode": "BE",
      "stateCode": "WAL",
      "latitude": "50.47488000",
      "longitude": "5.57711000"
   },
   {
      "name": "Courcelles",
      "countryCode": "BE",
      "stateCode": "WAL",
      "latitude": "50.46379000",
      "longitude": "4.37470000"
   },
   {
      "name": "Court-Saint-Étienne",
      "countryCode": "BE",
      "stateCode": "WAL",
      "latitude": "50.63378000",
      "longitude": "4.56851000"
   },
   {
      "name": "Couvin",
      "countryCode": "BE",
      "stateCode": "WAL",
      "latitude": "50.05284000",
      "longitude": "4.49495000"
   },
   {
      "name": "Crisnée",
      "countryCode": "BE",
      "stateCode": "WAL",
      "latitude": "50.71703000",
      "longitude": "5.39802000"
   },
   {
      "name": "Dalhem",
      "countryCode": "BE",
      "stateCode": "WAL",
      "latitude": "50.71315000",
      "longitude": "5.72774000"
   },
   {
      "name": "Daverdisse",
      "countryCode": "BE",
      "stateCode": "WAL",
      "latitude": "50.02161000",
      "longitude": "5.11811000"
   },
   {
      "name": "Dinant",
      "countryCode": "BE",
      "stateCode": "WAL",
      "latitude": "50.25807000",
      "longitude": "4.91166000"
   },
   {
      "name": "Dison",
      "countryCode": "BE",
      "stateCode": "WAL",
      "latitude": "50.61004000",
      "longitude": "5.85340000"
   },
   {
      "name": "Doische",
      "countryCode": "BE",
      "stateCode": "WAL",
      "latitude": "50.13356000",
      "longitude": "4.73545000"
   },
   {
      "name": "Donceel",
      "countryCode": "BE",
      "stateCode": "WAL",
      "latitude": "50.64827000",
      "longitude": "5.32000000"
   },
   {
      "name": "Dour",
      "countryCode": "BE",
      "stateCode": "WAL",
      "latitude": "50.39583000",
      "longitude": "3.77792000"
   },
   {
      "name": "Durbuy",
      "countryCode": "BE",
      "stateCode": "WAL",
      "latitude": "50.35291000",
      "longitude": "5.45631000"
   },
   {
      "name": "Ellezelles",
      "countryCode": "BE",
      "stateCode": "WAL",
      "latitude": "50.73512000",
      "longitude": "3.67985000"
   },
   {
      "name": "Enghien",
      "countryCode": "BE",
      "stateCode": "WAL",
      "latitude": "50.68373000",
      "longitude": "4.03284000"
   },
   {
      "name": "Engis",
      "countryCode": "BE",
      "stateCode": "WAL",
      "latitude": "50.58156000",
      "longitude": "5.39916000"
   },
   {
      "name": "Erquelinnes",
      "countryCode": "BE",
      "stateCode": "WAL",
      "latitude": "50.30688000",
      "longitude": "4.11129000"
   },
   {
      "name": "Esneux",
      "countryCode": "BE",
      "stateCode": "WAL",
      "latitude": "50.53596000",
      "longitude": "5.56775000"
   },
   {
      "name": "Estaimpuis",
      "countryCode": "BE",
      "stateCode": "WAL",
      "latitude": "50.70485000",
      "longitude": "3.26785000"
   },
   {
      "name": "Estinnes-au-Val",
      "countryCode": "BE",
      "stateCode": "WAL",
      "latitude": "50.41016000",
      "longitude": "4.10477000"
   },
   {
      "name": "Eupen",
      "countryCode": "BE",
      "stateCode": "WAL",
      "latitude": "50.62790000",
      "longitude": "6.03647000"
   },
   {
      "name": "Faimes",
      "countryCode": "BE",
      "stateCode": "WAL",
      "latitude": "50.66252000",
      "longitude": "5.26005000"
   },
   {
      "name": "Farciennes",
      "countryCode": "BE",
      "stateCode": "WAL",
      "latitude": "50.43006000",
      "longitude": "4.54152000"
   },
   {
      "name": "Fauvillers",
      "countryCode": "BE",
      "stateCode": "WAL",
      "latitude": "49.85116000",
      "longitude": "5.66405000"
   },
   {
      "name": "Ferrières",
      "countryCode": "BE",
      "stateCode": "WAL",
      "latitude": "50.40157000",
      "longitude": "5.61092000"
   },
   {
      "name": "Fexhe-le-Haut-Clocher",
      "countryCode": "BE",
      "stateCode": "WAL",
      "latitude": "50.66540000",
      "longitude": "5.39978000"
   },
   {
      "name": "Fleurus",
      "countryCode": "BE",
      "stateCode": "WAL",
      "latitude": "50.48351000",
      "longitude": "4.55006000"
   },
   {
      "name": "Flobecq",
      "countryCode": "BE",
      "stateCode": "WAL",
      "latitude": "50.73733000",
      "longitude": "3.73876000"
   },
   {
      "name": "Floreffe",
      "countryCode": "BE",
      "stateCode": "WAL",
      "latitude": "50.43452000",
      "longitude": "4.75960000"
   },
   {
      "name": "Florennes",
      "countryCode": "BE",
      "stateCode": "WAL",
      "latitude": "50.25127000",
      "longitude": "4.60636000"
   },
   {
      "name": "Florenville",
      "countryCode": "BE",
      "stateCode": "WAL",
      "latitude": "49.69983000",
      "longitude": "5.30740000"
   },
   {
      "name": "Flémalle-Haute",
      "countryCode": "BE",
      "stateCode": "WAL",
      "latitude": "50.59994000",
      "longitude": "5.44471000"
   },
   {
      "name": "Fléron",
      "countryCode": "BE",
      "stateCode": "WAL",
      "latitude": "50.61516000",
      "longitude": "5.68062000"
   },
   {
      "name": "Forville",
      "countryCode": "BE",
      "stateCode": "WAL",
      "latitude": "50.57424000",
      "longitude": "4.99861000"
   },
   {
      "name": "Fosses-la-Ville",
      "countryCode": "BE",
      "stateCode": "WAL",
      "latitude": "50.39517000",
      "longitude": "4.69623000"
   },
   {
      "name": "Frameries",
      "countryCode": "BE",
      "stateCode": "WAL",
      "latitude": "50.40578000",
      "longitude": "3.89603000"
   },
   {
      "name": "Frasnes-lez-Buissenal",
      "countryCode": "BE",
      "stateCode": "WAL",
      "latitude": "50.66783000",
      "longitude": "3.62047000"
   },
   {
      "name": "Froidchapelle",
      "countryCode": "BE",
      "stateCode": "WAL",
      "latitude": "50.15106000",
      "longitude": "4.32742000"
   },
   {
      "name": "Gedinne",
      "countryCode": "BE",
      "stateCode": "WAL",
      "latitude": "49.98037000",
      "longitude": "4.93674000"
   },
   {
      "name": "Geer",
      "countryCode": "BE",
      "stateCode": "WAL",
      "latitude": "50.66990000",
      "longitude": "5.17364000"
   },
   {
      "name": "Gembloux",
      "countryCode": "BE",
      "stateCode": "WAL",
      "latitude": "50.56149000",
      "longitude": "4.69889000"
   },
   {
      "name": "Genappe",
      "countryCode": "BE",
      "stateCode": "WAL",
      "latitude": "50.61173000",
      "longitude": "4.45152000"
   },
   {
      "name": "Gerpinnes",
      "countryCode": "BE",
      "stateCode": "WAL",
      "latitude": "50.33789000",
      "longitude": "4.52731000"
   },
   {
      "name": "Gesves",
      "countryCode": "BE",
      "stateCode": "WAL",
      "latitude": "50.40146000",
      "longitude": "5.07457000"
   },
   {
      "name": "Gouvy",
      "countryCode": "BE",
      "stateCode": "WAL",
      "latitude": "50.18600000",
      "longitude": "5.93917000"
   },
   {
      "name": "Grez-Doiceau",
      "countryCode": "BE",
      "stateCode": "WAL",
      "latitude": "50.73901000",
      "longitude": "4.69829000"
   },
   {
      "name": "Habay-la-Vieille",
      "countryCode": "BE",
      "stateCode": "WAL",
      "latitude": "49.72329000",
      "longitude": "5.61999000"
   },
   {
      "name": "Hamoir",
      "countryCode": "BE",
      "stateCode": "WAL",
      "latitude": "50.42675000",
      "longitude": "5.53304000"
   },
   {
      "name": "Hamois",
      "countryCode": "BE",
      "stateCode": "WAL",
      "latitude": "50.34020000",
      "longitude": "5.15619000"
   },
   {
      "name": "Hannut",
      "countryCode": "BE",
      "stateCode": "WAL",
      "latitude": "50.67142000",
      "longitude": "5.07898000"
   },
   {
      "name": "Hastière-Lavaux",
      "countryCode": "BE",
      "stateCode": "WAL",
      "latitude": "50.21849000",
      "longitude": "4.82446000"
   },
   {
      "name": "Havelange",
      "countryCode": "BE",
      "stateCode": "WAL",
      "latitude": "50.38931000",
      "longitude": "5.23816000"
   },
   {
      "name": "Hensies",
      "countryCode": "BE",
      "stateCode": "WAL",
      "latitude": "50.43263000",
      "longitude": "3.68411000"
   },
   {
      "name": "Herbeumont",
      "countryCode": "BE",
      "stateCode": "WAL",
      "latitude": "49.78086000",
      "longitude": "5.23580000"
   },
   {
      "name": "Herstal",
      "countryCode": "BE",
      "stateCode": "WAL",
      "latitude": "50.66415000",
      "longitude": "5.62346000"
   },
   {
      "name": "Herve",
      "countryCode": "BE",
      "stateCode": "WAL",
      "latitude": "50.64083000",
      "longitude": "5.79353000"
   },
   {
      "name": "Hotton",
      "countryCode": "BE",
      "stateCode": "WAL",
      "latitude": "50.26742000",
      "longitude": "5.44609000"
   },
   {
      "name": "Houffalize",
      "countryCode": "BE",
      "stateCode": "WAL",
      "latitude": "50.13235000",
      "longitude": "5.78962000"
   },
   {
      "name": "Houyet",
      "countryCode": "BE",
      "stateCode": "WAL",
      "latitude": "50.18619000",
      "longitude": "5.00762000"
   },
   {
      "name": "Huy",
      "countryCode": "BE",
      "stateCode": "WAL",
      "latitude": "50.51894000",
      "longitude": "5.23284000"
   },
   {
      "name": "Héron",
      "countryCode": "BE",
      "stateCode": "WAL",
      "latitude": "50.54731000",
      "longitude": "5.09774000"
   },
   {
      "name": "Incourt",
      "countryCode": "BE",
      "stateCode": "WAL",
      "latitude": "50.69151000",
      "longitude": "4.79816000"
   },
   {
      "name": "Ittre",
      "countryCode": "BE",
      "stateCode": "WAL",
      "latitude": "50.64396000",
      "longitude": "4.26476000"
   },
   {
      "name": "Jalhay",
      "countryCode": "BE",
      "stateCode": "WAL",
      "latitude": "50.55876000",
      "longitude": "5.96764000"
   },
   {
      "name": "Jodoigne",
      "countryCode": "BE",
      "stateCode": "WAL",
      "latitude": "50.72357000",
      "longitude": "4.86914000"
   },
   {
      "name": "Juprelle",
      "countryCode": "BE",
      "stateCode": "WAL",
      "latitude": "50.70760000",
      "longitude": "5.53127000"
   },
   {
      "name": "Jurbise",
      "countryCode": "BE",
      "stateCode": "WAL",
      "latitude": "50.53100000",
      "longitude": "3.90942000"
   },
   {
      "name": "La Bruyère",
      "countryCode": "BE",
      "stateCode": "WAL",
      "latitude": "50.39478000",
      "longitude": "4.61444000"
   },
   {
      "name": "La Calamine",
      "countryCode": "BE",
      "stateCode": "WAL",
      "latitude": "50.71809000",
      "longitude": "6.01107000"
   },
   {
      "name": "La Hulpe",
      "countryCode": "BE",
      "stateCode": "WAL",
      "latitude": "50.73091000",
      "longitude": "4.48577000"
   },
   {
      "name": "La Louvière",
      "countryCode": "BE",
      "stateCode": "WAL",
      "latitude": "50.48657000",
      "longitude": "4.18785000"
   },
   {
      "name": "La Roche-en-Ardenne",
      "countryCode": "BE",
      "stateCode": "WAL",
      "latitude": "50.18361000",
      "longitude": "5.57547000"
   },
   {
      "name": "Lens",
      "countryCode": "BE",
      "stateCode": "WAL",
      "latitude": "50.55696000",
      "longitude": "3.89946000"
   },
   {
      "name": "Lessines",
      "countryCode": "BE",
      "stateCode": "WAL",
      "latitude": "50.71104000",
      "longitude": "3.83579000"
   },
   {
      "name": "Libin",
      "countryCode": "BE",
      "stateCode": "WAL",
      "latitude": "49.98107000",
      "longitude": "5.25612000"
   },
   {
      "name": "Lierneux",
      "countryCode": "BE",
      "stateCode": "WAL",
      "latitude": "50.28477000",
      "longitude": "5.79236000"
   },
   {
      "name": "Limbourg",
      "countryCode": "BE",
      "stateCode": "WAL",
      "latitude": "50.61222000",
      "longitude": "5.94120000"
   },
   {
      "name": "Lincent",
      "countryCode": "BE",
      "stateCode": "WAL",
      "latitude": "50.71222000",
      "longitude": "5.03654000"
   },
   {
      "name": "Liège",
      "countryCode": "BE",
      "stateCode": "WAL",
      "latitude": "50.63373000",
      "longitude": "5.56749000"
   },
   {
      "name": "Lobbes",
      "countryCode": "BE",
      "stateCode": "WAL",
      "latitude": "50.35258000",
      "longitude": "4.26716000"
   },
   {
      "name": "Lontzen",
      "countryCode": "BE",
      "stateCode": "WAL",
      "latitude": "50.68126000",
      "longitude": "6.00712000"
   },
   {
      "name": "Louvain-la-Neuve",
      "countryCode": "BE",
      "stateCode": "WAL",
      "latitude": "50.66829000",
      "longitude": "4.61443000"
   },
   {
      "name": "Léglise",
      "countryCode": "BE",
      "stateCode": "WAL",
      "latitude": "49.79985000",
      "longitude": "5.53652000"
   },
   {
      "name": "Malmédy",
      "countryCode": "BE",
      "stateCode": "WAL",
      "latitude": "50.42686000",
      "longitude": "6.02794000"
   },
   {
      "name": "Manage",
      "countryCode": "BE",
      "stateCode": "WAL",
      "latitude": "50.50312000",
      "longitude": "4.23589000"
   },
   {
      "name": "Manhay",
      "countryCode": "BE",
      "stateCode": "WAL",
      "latitude": "50.29219000",
      "longitude": "5.67562000"
   },
   {
      "name": "Marche-en-Famenne",
      "countryCode": "BE",
      "stateCode": "WAL",
      "latitude": "50.22678000",
      "longitude": "5.34416000"
   },
   {
      "name": "Marchin",
      "countryCode": "BE",
      "stateCode": "WAL",
      "latitude": "50.46707000",
      "longitude": "5.24280000"
   },
   {
      "name": "Martelange",
      "countryCode": "BE",
      "stateCode": "WAL",
      "latitude": "49.83195000",
      "longitude": "5.73655000"
   },
   {
      "name": "Meix-devant-Virton",
      "countryCode": "BE",
      "stateCode": "WAL",
      "latitude": "49.60581000",
      "longitude": "5.48045000"
   },
   {
      "name": "Merbes-le-Château",
      "countryCode": "BE",
      "stateCode": "WAL",
      "latitude": "50.32449000",
      "longitude": "4.16489000"
   },
   {
      "name": "Messancy",
      "countryCode": "BE",
      "stateCode": "WAL",
      "latitude": "49.59201000",
      "longitude": "5.81879000"
   },
   {
      "name": "Mettet",
      "countryCode": "BE",
      "stateCode": "WAL",
      "latitude": "50.32119000",
      "longitude": "4.66232000"
   },
   {
      "name": "Modave",
      "countryCode": "BE",
      "stateCode": "WAL",
      "latitude": "50.44614000",
      "longitude": "5.29532000"
   },
   {
      "name": "Momignies",
      "countryCode": "BE",
      "stateCode": "WAL",
      "latitude": "50.02710000",
      "longitude": "4.16519000"
   },
   {
      "name": "Mons",
      "countryCode": "BE",
      "stateCode": "WAL",
      "latitude": "50.45413000",
      "longitude": "3.95229000"
   },
   {
      "name": "Mons-lez-Liège",
      "countryCode": "BE",
      "stateCode": "WAL",
      "latitude": "50.61667000",
      "longitude": "5.46667000"
   },
   {
      "name": "Mont-Saint-Guibert",
      "countryCode": "BE",
      "stateCode": "WAL",
      "latitude": "50.63427000",
      "longitude": "4.61061000"
   },
   {
      "name": "Morlanwelz-Mariemont",
      "countryCode": "BE",
      "stateCode": "WAL",
      "latitude": "50.45502000",
      "longitude": "4.24519000"
   },
   {
      "name": "Mouscron",
      "countryCode": "BE",
      "stateCode": "WAL",
      "latitude": "50.74497000",
      "longitude": "3.20639000"
   },
   {
      "name": "Musson",
      "countryCode": "BE",
      "stateCode": "WAL",
      "latitude": "49.55835000",
      "longitude": "5.70525000"
   },
   {
      "name": "Namur",
      "countryCode": "BE",
      "stateCode": "WAL",
      "latitude": "50.46690000",
      "longitude": "4.86746000"
   },
   {
      "name": "Nandrin",
      "countryCode": "BE",
      "stateCode": "WAL",
      "latitude": "50.50675000",
      "longitude": "5.41905000"
   },
   {
      "name": "Nassogne",
      "countryCode": "BE",
      "stateCode": "WAL",
      "latitude": "50.12849000",
      "longitude": "5.34274000"
   },
   {
      "name": "Neufchâteau",
      "countryCode": "BE",
      "stateCode": "WAL",
      "latitude": "49.84074000",
      "longitude": "5.43535000"
   },
   {
      "name": "Nivelles",
      "countryCode": "BE",
      "stateCode": "WAL",
      "latitude": "50.59833000",
      "longitude": "4.32848000"
   },
   {
      "name": "Noville-les-Bois",
      "countryCode": "BE",
      "stateCode": "WAL",
      "latitude": "50.55702000",
      "longitude": "4.98466000"
   },
   {
      "name": "Ohey",
      "countryCode": "BE",
      "stateCode": "WAL",
      "latitude": "50.43570000",
      "longitude": "5.12375000"
   },
   {
      "name": "Olne",
      "countryCode": "BE",
      "stateCode": "WAL",
      "latitude": "50.58994000",
      "longitude": "5.74662000"
   },
   {
      "name": "Onhaye",
      "countryCode": "BE",
      "stateCode": "WAL",
      "latitude": "50.24148000",
      "longitude": "4.84069000"
   },
   {
      "name": "Oreye",
      "countryCode": "BE",
      "stateCode": "WAL",
      "latitude": "50.71749000",
      "longitude": "5.34880000"
   },
   {
      "name": "Ottignies",
      "countryCode": "BE",
      "stateCode": "WAL",
      "latitude": "50.66535000",
      "longitude": "4.56679000"
   },
   {
      "name": "Ouffet",
      "countryCode": "BE",
      "stateCode": "WAL",
      "latitude": "50.43870000",
      "longitude": "5.46570000"
   },
   {
      "name": "Oupeye",
      "countryCode": "BE",
      "stateCode": "WAL",
      "latitude": "50.71184000",
      "longitude": "5.64680000"
   },
   {
      "name": "Paliseul",
      "countryCode": "BE",
      "stateCode": "WAL",
      "latitude": "49.90395000",
      "longitude": "5.13537000"
   },
   {
      "name": "Pecq",
      "countryCode": "BE",
      "stateCode": "WAL",
      "latitude": "50.68619000",
      "longitude": "3.33789000"
   },
   {
      "name": "Pepinster",
      "countryCode": "BE",
      "stateCode": "WAL",
      "latitude": "50.57375000",
      "longitude": "5.80490000"
   },
   {
      "name": "Perwez",
      "countryCode": "BE",
      "stateCode": "WAL",
      "latitude": "50.62426000",
      "longitude": "4.81354000"
   },
   {
      "name": "Philippeville",
      "countryCode": "BE",
      "stateCode": "WAL",
      "latitude": "50.19612000",
      "longitude": "4.54374000"
   },
   {
      "name": "Plombières",
      "countryCode": "BE",
      "stateCode": "WAL",
      "latitude": "50.73656000",
      "longitude": "5.95922000"
   },
   {
      "name": "Pont-à-Celles",
      "countryCode": "BE",
      "stateCode": "WAL",
      "latitude": "50.50518000",
      "longitude": "4.36887000"
   },
   {
      "name": "Profondeville",
      "countryCode": "BE",
      "stateCode": "WAL",
      "latitude": "50.37581000",
      "longitude": "4.86506000"
   },
   {
      "name": "Province de Liège",
      "countryCode": "BE",
      "stateCode": "WAL",
      "latitude": "50.63427000",
      "longitude": "5.56543000"
   },
   {
      "name": "Province de Namur",
      "countryCode": "BE",
      "stateCode": "WAL",
      "latitude": "50.33333000",
      "longitude": "4.83333000"
   },
   {
      "name": "Province du Brabant Wallon",
      "countryCode": "BE",
      "stateCode": "WAL",
      "latitude": "50.75000000",
      "longitude": "4.58333000"
   },
   {
      "name": "Province du Hainaut",
      "countryCode": "BE",
      "stateCode": "WAL",
      "latitude": "50.50000000",
      "longitude": "3.83333000"
   },
   {
      "name": "Province du Luxembourg",
      "countryCode": "BE",
      "stateCode": "WAL",
      "latitude": "50.00000000",
      "longitude": "5.50000000"
   },
   {
      "name": "Péruwelz",
      "countryCode": "BE",
      "stateCode": "WAL",
      "latitude": "50.50819000",
      "longitude": "3.59373000"
   },
   {
      "name": "Quaregnon",
      "countryCode": "BE",
      "stateCode": "WAL",
      "latitude": "50.44067000",
      "longitude": "3.86530000"
   },
   {
      "name": "Quiévrain",
      "countryCode": "BE",
      "stateCode": "WAL",
      "latitude": "50.40737000",
      "longitude": "3.68351000"
   },
   {
      "name": "Quévy-le-Petit",
      "countryCode": "BE",
      "stateCode": "WAL",
      "latitude": "50.36879000",
      "longitude": "3.93602000"
   },
   {
      "name": "Raeren",
      "countryCode": "BE",
      "stateCode": "WAL",
      "latitude": "50.66720000",
      "longitude": "6.11535000"
   },
   {
      "name": "Ramillies",
      "countryCode": "BE",
      "stateCode": "WAL",
      "latitude": "50.63395000",
      "longitude": "4.90119000"
   },
   {
      "name": "Rebecq-Rognon",
      "countryCode": "BE",
      "stateCode": "WAL",
      "latitude": "50.65147000",
      "longitude": "4.10683000"
   },
   {
      "name": "Remicourt",
      "countryCode": "BE",
      "stateCode": "WAL",
      "latitude": "50.68069000",
      "longitude": "5.32785000"
   },
   {
      "name": "Rendeux",
      "countryCode": "BE",
      "stateCode": "WAL",
      "latitude": "50.23423000",
      "longitude": "5.50414000"
   },
   {
      "name": "Rixensart",
      "countryCode": "BE",
      "stateCode": "WAL",
      "latitude": "50.71229000",
      "longitude": "4.52529000"
   },
   {
      "name": "Rochefort",
      "countryCode": "BE",
      "stateCode": "WAL",
      "latitude": "50.16310000",
      "longitude": "5.22160000"
   },
   {
      "name": "Roeulx",
      "countryCode": "BE",
      "stateCode": "WAL",
      "latitude": "50.50365000",
      "longitude": "4.11163000"
   },
   {
      "name": "Rouvroy",
      "countryCode": "BE",
      "stateCode": "WAL",
      "latitude": "49.53771000",
      "longitude": "5.49031000"
   },
   {
      "name": "Rumes",
      "countryCode": "BE",
      "stateCode": "WAL",
      "latitude": "50.55450000",
      "longitude": "3.30535000"
   },
   {
      "name": "Saint-Ghislain",
      "countryCode": "BE",
      "stateCode": "WAL",
      "latitude": "50.44816000",
      "longitude": "3.81886000"
   },
   {
      "name": "Saint-Hubert",
      "countryCode": "BE",
      "stateCode": "WAL",
      "latitude": "50.02668000",
      "longitude": "5.37401000"
   },
   {
      "name": "Saint-Léger",
      "countryCode": "BE",
      "stateCode": "WAL",
      "latitude": "49.61196000",
      "longitude": "5.65688000"
   },
   {
      "name": "Saint-Nicolas",
      "countryCode": "BE",
      "stateCode": "WAL",
      "latitude": "50.62837000",
      "longitude": "5.53243000"
   },
   {
      "name": "Saint-Vith",
      "countryCode": "BE",
      "stateCode": "WAL",
      "latitude": "50.28146000",
      "longitude": "6.12724000"
   },
   {
      "name": "Sainte-Ode",
      "countryCode": "BE",
      "stateCode": "WAL",
      "latitude": "50.01723000",
      "longitude": "5.51926000"
   },
   {
      "name": "Seneffe",
      "countryCode": "BE",
      "stateCode": "WAL",
      "latitude": "50.53135000",
      "longitude": "4.26301000"
   },
   {
      "name": "Seraing",
      "countryCode": "BE",
      "stateCode": "WAL",
      "latitude": "50.58362000",
      "longitude": "5.50115000"
   },
   {
      "name": "Silly",
      "countryCode": "BE",
      "stateCode": "WAL",
      "latitude": "50.64877000",
      "longitude": "3.92363000"
   },
   {
      "name": "Soignies",
      "countryCode": "BE",
      "stateCode": "WAL",
      "latitude": "50.57904000",
      "longitude": "4.07129000"
   },
   {
      "name": "Sombreffe",
      "countryCode": "BE",
      "stateCode": "WAL",
      "latitude": "50.52865000",
      "longitude": "4.60087000"
   },
   {
      "name": "Somme-Leuze",
      "countryCode": "BE",
      "stateCode": "WAL",
      "latitude": "50.33699000",
      "longitude": "5.36705000"
   },
   {
      "name": "Soumagne",
      "countryCode": "BE",
      "stateCode": "WAL",
      "latitude": "50.61385000",
      "longitude": "5.74679000"
   },
   {
      "name": "Spa",
      "countryCode": "BE",
      "stateCode": "WAL",
      "latitude": "50.48375000",
      "longitude": "5.86674000"
   },
   {
      "name": "Sprimont",
      "countryCode": "BE",
      "stateCode": "WAL",
      "latitude": "50.50922000",
      "longitude": "5.65950000"
   },
   {
      "name": "Stavelot",
      "countryCode": "BE",
      "stateCode": "WAL",
      "latitude": "50.39500000",
      "longitude": "5.93124000"
   },
   {
      "name": "Stoumont",
      "countryCode": "BE",
      "stateCode": "WAL",
      "latitude": "50.40667000",
      "longitude": "5.80838000"
   },
   {
      "name": "Tellin",
      "countryCode": "BE",
      "stateCode": "WAL",
      "latitude": "50.08038000",
      "longitude": "5.21638000"
   },
   {
      "name": "Tenneville",
      "countryCode": "BE",
      "stateCode": "WAL",
      "latitude": "50.09501000",
      "longitude": "5.52895000"
   },
   {
      "name": "Theux",
      "countryCode": "BE",
      "stateCode": "WAL",
      "latitude": "50.53323000",
      "longitude": "5.81245000"
   },
   {
      "name": "Thuin",
      "countryCode": "BE",
      "stateCode": "WAL",
      "latitude": "50.33933000",
      "longitude": "4.28604000"
   },
   {
      "name": "Tinlot",
      "countryCode": "BE",
      "stateCode": "WAL",
      "latitude": "50.47493000",
      "longitude": "5.37755000"
   },
   {
      "name": "Tintigny",
      "countryCode": "BE",
      "stateCode": "WAL",
      "latitude": "49.68326000",
      "longitude": "5.51349000"
   },
   {
      "name": "Tournai",
      "countryCode": "BE",
      "stateCode": "WAL",
      "latitude": "50.60715000",
      "longitude": "3.38932000"
   },
   {
      "name": "Trois-Ponts",
      "countryCode": "BE",
      "stateCode": "WAL",
      "latitude": "50.37128000",
      "longitude": "5.87146000"
   },
   {
      "name": "Trooz",
      "countryCode": "BE",
      "stateCode": "WAL",
      "latitude": "50.57026000",
      "longitude": "5.69521000"
   },
   {
      "name": "Tubize",
      "countryCode": "BE",
      "stateCode": "WAL",
      "latitude": "50.69059000",
      "longitude": "4.20090000"
   },
   {
      "name": "Vaux-sur-Sûre",
      "countryCode": "BE",
      "stateCode": "WAL",
      "latitude": "49.91100000",
      "longitude": "5.57848000"
   },
   {
      "name": "Verlaine",
      "countryCode": "BE",
      "stateCode": "WAL",
      "latitude": "50.60743000",
      "longitude": "5.31740000"
   },
   {
      "name": "Verviers",
      "countryCode": "BE",
      "stateCode": "WAL",
      "latitude": "50.58907000",
      "longitude": "5.86241000"
   },
   {
      "name": "Vielsalm",
      "countryCode": "BE",
      "stateCode": "WAL",
      "latitude": "50.28407000",
      "longitude": "5.91502000"
   },
   {
      "name": "Villers-la-Ville",
      "countryCode": "BE",
      "stateCode": "WAL",
      "latitude": "50.56667000",
      "longitude": "4.51667000"
   },
   {
      "name": "Villers-le-Bouillet",
      "countryCode": "BE",
      "stateCode": "WAL",
      "latitude": "50.57708000",
      "longitude": "5.25945000"
   },
   {
      "name": "Virton",
      "countryCode": "BE",
      "stateCode": "WAL",
      "latitude": "49.56824000",
      "longitude": "5.53259000"
   },
   {
      "name": "Visé",
      "countryCode": "BE",
      "stateCode": "WAL",
      "latitude": "50.73760000",
      "longitude": "5.69907000"
   },
   {
      "name": "Waimes",
      "countryCode": "BE",
      "stateCode": "WAL",
      "latitude": "50.41488000",
      "longitude": "6.11207000"
   },
   {
      "name": "Walcourt",
      "countryCode": "BE",
      "stateCode": "WAL",
      "latitude": "50.25401000",
      "longitude": "4.43796000"
   },
   {
      "name": "Walhain-Saint-Paul",
      "countryCode": "BE",
      "stateCode": "WAL",
      "latitude": "50.62627000",
      "longitude": "4.69837000"
   },
   {
      "name": "Wanze",
      "countryCode": "BE",
      "stateCode": "WAL",
      "latitude": "50.53907000",
      "longitude": "5.20846000"
   },
   {
      "name": "Waremme",
      "countryCode": "BE",
      "stateCode": "WAL",
      "latitude": "50.69760000",
      "longitude": "5.25524000"
   },
   {
      "name": "Wasseiges",
      "countryCode": "BE",
      "stateCode": "WAL",
      "latitude": "50.62186000",
      "longitude": "5.00528000"
   },
   {
      "name": "Waterloo",
      "countryCode": "BE",
      "stateCode": "WAL",
      "latitude": "50.71469000",
      "longitude": "4.39910000"
   },
   {
      "name": "Wavre",
      "countryCode": "BE",
      "stateCode": "WAL",
      "latitude": "50.71717000",
      "longitude": "4.60138000"
   },
   {
      "name": "Welkenraedt",
      "countryCode": "BE",
      "stateCode": "WAL",
      "latitude": "50.66050000",
      "longitude": "5.97034000"
   },
   {
      "name": "Wellin",
      "countryCode": "BE",
      "stateCode": "WAL",
      "latitude": "50.08133000",
      "longitude": "5.11413000"
   },
   {
      "name": "Yvoir",
      "countryCode": "BE",
      "stateCode": "WAL",
      "latitude": "50.32790000",
      "longitude": "4.88059000"
   },
   {
      "name": "Écaussinnes-d’Enghien",
      "countryCode": "BE",
      "stateCode": "WAL",
      "latitude": "50.56822000",
      "longitude": "4.16580000"
   },
   {
      "name": "Éghezée",
      "countryCode": "BE",
      "stateCode": "WAL",
      "latitude": "50.59076000",
      "longitude": "4.91175000"
   },
   {
      "name": "Érezée",
      "countryCode": "BE",
      "stateCode": "WAL",
      "latitude": "50.29292000",
      "longitude": "5.55815000"
   },
   {
      "name": "Étalle",
      "countryCode": "BE",
      "stateCode": "WAL",
      "latitude": "49.67385000",
      "longitude": "5.60019000"
   }
]