[
   {
      "name": "Antoniny",
      "countryCode": "UA",
      "stateCode": "68",
      "latitude": "49.80974000",
      "longitude": "26.87714000"
   },
   {
      "name": "Bazaliya",
      "countryCode": "UA",
      "stateCode": "68",
      "latitude": "49.71267000",
      "longitude": "26.47331000"
   },
   {
      "name": "Derazhnya",
      "countryCode": "UA",
      "stateCode": "68",
      "latitude": "49.26920000",
      "longitude": "27.43382000"
   },
   {
      "name": "Derazhnyans’kyy Rayon",
      "countryCode": "UA",
      "stateCode": "68",
      "latitude": "49.22676000",
      "longitude": "27.46603000"
   },
   {
      "name": "Dunaivtsi",
      "countryCode": "UA",
      "stateCode": "68",
      "latitude": "48.88909000",
      "longitude": "26.85636000"
   },
   {
      "name": "Horodok",
      "countryCode": "UA",
      "stateCode": "68",
      "latitude": "49.16374000",
      "longitude": "26.58394000"
   },
   {
      "name": "Izyaslav",
      "countryCode": "UA",
      "stateCode": "68",
      "latitude": "50.11947000",
      "longitude": "26.82125000"
   },
   {
      "name": "Kamianets-Podilskyi",
      "countryCode": "UA",
      "stateCode": "68",
      "latitude": "48.68450000",
      "longitude": "26.58559000"
   },
   {
      "name": "Khmelnytskyi",
      "countryCode": "UA",
      "stateCode": "68",
      "latitude": "49.42161000",
      "longitude": "26.99653000"
   },
   {
      "name": "Khmel’nyts’kyy Rayon",
      "countryCode": "UA",
      "stateCode": "68",
      "latitude": "49.44511000",
      "longitude": "26.93268000"
   },
   {
      "name": "Krasyliv",
      "countryCode": "UA",
      "stateCode": "68",
      "latitude": "49.65186000",
      "longitude": "26.97253000"
   },
   {
      "name": "Letychiv",
      "countryCode": "UA",
      "stateCode": "68",
      "latitude": "49.38263000",
      "longitude": "27.63051000"
   },
   {
      "name": "Makiv",
      "countryCode": "UA",
      "stateCode": "68",
      "latitude": "48.79487000",
      "longitude": "26.69188000"
   },
   {
      "name": "Medzhybizh",
      "countryCode": "UA",
      "stateCode": "68",
      "latitude": "49.43748000",
      "longitude": "27.40487000"
   },
   {
      "name": "Narkevychi",
      "countryCode": "UA",
      "stateCode": "68",
      "latitude": "49.51717000",
      "longitude": "26.64178000"
   },
   {
      "name": "Netishyn",
      "countryCode": "UA",
      "stateCode": "68",
      "latitude": "50.34004000",
      "longitude": "26.64171000"
   },
   {
      "name": "Nova Ushytsya",
      "countryCode": "UA",
      "stateCode": "68",
      "latitude": "48.83716000",
      "longitude": "27.27434000"
   },
   {
      "name": "Novoselytsya",
      "countryCode": "UA",
      "stateCode": "68",
      "latitude": "50.07030000",
      "longitude": "27.51955000"
   },
   {
      "name": "Polonne",
      "countryCode": "UA",
      "stateCode": "68",
      "latitude": "50.12424000",
      "longitude": "27.51087000"
   },
   {
      "name": "Poninka",
      "countryCode": "UA",
      "stateCode": "68",
      "latitude": "50.18492000",
      "longitude": "27.53629000"
   },
   {
      "name": "Shepetivka",
      "countryCode": "UA",
      "stateCode": "68",
      "latitude": "50.18545000",
      "longitude": "27.06365000"
   },
   {
      "name": "Slavuta",
      "countryCode": "UA",
      "stateCode": "68",
      "latitude": "50.30155000",
      "longitude": "26.86506000"
   },
   {
      "name": "Smotrych",
      "countryCode": "UA",
      "stateCode": "68",
      "latitude": "48.66149000",
      "longitude": "26.56031000"
   },
   {
      "name": "Smyga",
      "countryCode": "UA",
      "stateCode": "68",
      "latitude": "50.23910000",
      "longitude": "25.76575000"
   },
   {
      "name": "Stara Syniava",
      "countryCode": "UA",
      "stateCode": "68",
      "latitude": "49.60318000",
      "longitude": "27.61909000"
   },
   {
      "name": "Starokostiantyniv",
      "countryCode": "UA",
      "stateCode": "68",
      "latitude": "49.75764000",
      "longitude": "27.20342000"
   },
   {
      "name": "Yarmolyntsi",
      "countryCode": "UA",
      "stateCode": "68",
      "latitude": "49.19236000",
      "longitude": "26.83725000"
   },
   {
      "name": "Zakupne",
      "countryCode": "UA",
      "stateCode": "68",
      "latitude": "49.11944000",
      "longitude": "26.33756000"
   },
   {
      "name": "Zhvanets",
      "countryCode": "UA",
      "stateCode": "68",
      "latitude": "48.54968000",
      "longitude": "26.48744000"
   }
]