[
   {
      "name": "Acre",
      "isoCode": "AC",
      "countryCode": "BR",
      "latitude": "-9.02379600",
      "longitude": "-70.81199500"
   },
   {
      "name": "Alagoas",
      "isoCode": "AL",
      "countryCode": "BR",
      "latitude": "-9.57130580",
      "longitude": "-36.78195050"
   },
   {
      "name": "Amazonas",
      "isoCode": "AM",
      "countryCode": "BR",
      "latitude": "-3.07000000",
      "longitude": "-61.66000000"
   },
   {
      "name": "Amapá",
      "isoCode": "AP",
      "countryCode": "BR",
      "latitude": "0.90199250",
      "longitude": "-52.00295650"
   },
   {
      "name": "Bahia",
      "isoCode": "BA",
      "countryCode": "BR",
      "latitude": "-11.40987400",
      "longitude": "-41.28085700"
   },
   {
      "name": "Ceará",
      "isoCode": "CE",
      "countryCode": "BR",
      "latitude": "-5.49839770",
      "longitude": "-39.32062410"
   },
   {
      "name": "Distrito Federal",
      "isoCode": "DF",
      "countryCode": "BR",
      "latitude": "-15.79976540",
      "longitude": "-47.86447150"
   },
   {
      "name": "Espírito Santo",
      "isoCode": "ES",
      "countryCode": "BR",
      "latitude": "-19.18342290",
      "longitude": "-40.30886260"
   },
   {
      "name": "Goiás",
      "isoCode": "GO",
      "countryCode": "BR",
      "latitude": "-15.82703690",
      "longitude": "-49.83622370"
   },
   {
      "name": "Maranhão",
      "isoCode": "MA",
      "countryCode": "BR",
      "latitude": "-4.96094980",
      "longitude": "-45.27441590"
   },
   {
      "name": "Minas Gerais",
      "isoCode": "MG",
      "countryCode": "BR",
      "latitude": "-18.51217800",
      "longitude": "-44.55503080"
   },
   {
      "name": "Mato Grosso do Sul",
      "isoCode": "MS",
      "countryCode": "BR",
      "latitude": "-20.77222950",
      "longitude": "-54.78515310"
   },
   {
      "name": "Mato Grosso",
      "isoCode": "MT",
      "countryCode": "BR",
      "latitude": "-12.68187120",
      "longitude": "-56.92109900"
   },
   {
      "name": "Pará",
      "isoCode": "PA",
      "countryCode": "BR",
      "latitude": "-1.99812710",
      "longitude": "-54.93061520"
   },
   {
      "name": "Paraíba",
      "isoCode": "PB",
      "countryCode": "BR",
      "latitude": "-7.23996090",
      "longitude": "-36.78195050"
   },
   {
      "name": "Pernambuco",
      "isoCode": "PE",
      "countryCode": "BR",
      "latitude": "-8.81371730",
      "longitude": "-36.95410700"
   },
   {
      "name": "Piauí",
      "isoCode": "PI",
      "countryCode": "BR",
      "latitude": "-7.71834010",
      "longitude": "-42.72892360"
   },
   {
      "name": "Paraná",
      "isoCode": "PR",
      "countryCode": "BR",
      "latitude": "-25.25208880",
      "longitude": "-52.02154150"
   },
   {
      "name": "Rio de Janeiro",
      "isoCode": "RJ",
      "countryCode": "BR",
      "latitude": "-22.90684670",
      "longitude": "-43.17289650"
   },
   {
      "name": "Rio Grande do Norte",
      "isoCode": "RN",
      "countryCode": "BR",
      "latitude": "-5.40258030",
      "longitude": "-36.95410700"
   },
   {
      "name": "Rondônia",
      "isoCode": "RO",
      "countryCode": "BR",
      "latitude": "-11.50573410",
      "longitude": "-63.58061100"
   },
   {
      "name": "Roraima",
      "isoCode": "RR",
      "countryCode": "BR",
      "latitude": "2.73759710",
      "longitude": "-62.07509980"
   },
   {
      "name": "Rio Grande do Sul",
      "isoCode": "RS",
      "countryCode": "BR",
      "latitude": "-30.03463160",
      "longitude": "-51.21769860"
   },
   {
      "name": "Santa Catarina",
      "isoCode": "SC",
      "countryCode": "BR",
      "latitude": "-27.33000000",
      "longitude": "-49.44000000"
   },
   {
      "name": "Sergipe",
      "isoCode": "SE",
      "countryCode": "BR",
      "latitude": "-10.57409340",
      "longitude": "-37.38565810"
   },
   {
      "name": "São Paulo",
      "isoCode": "SP",
      "countryCode": "BR",
      "latitude": "-23.55051990",
      "longitude": "-46.63330940"
   },
   {
      "name": "Tocantins",
      "isoCode": "TO",
      "countryCode": "BR",
      "latitude": "-10.17528000",
      "longitude": "-48.29824740"
   }
]