[
   {
      "name": "Almora",
      "countryCode": "IN",
      "stateCode": "UT",
      "latitude": "29.69223000",
      "longitude": "79.49789000"
   },
   {
      "name": "Bageshwar",
      "countryCode": "IN",
      "stateCode": "UT",
      "latitude": "29.97315000",
      "longitude": "79.83224000"
   },
   {
      "name": "Barkot",
      "countryCode": "IN",
      "stateCode": "UT",
      "latitude": "30.80861000",
      "longitude": "78.20596000"
   },
   {
      "name": "Bazpur",
      "countryCode": "IN",
      "stateCode": "UT",
      "latitude": "29.15299000",
      "longitude": "79.10814000"
   },
   {
      "name": "Bhim Tal",
      "countryCode": "IN",
      "stateCode": "UT",
      "latitude": "29.34447000",
      "longitude": "79.56336000"
   },
   {
      "name": "Bhowali",
      "countryCode": "IN",
      "stateCode": "UT",
      "latitude": "29.38985000",
      "longitude": "79.50481000"
   },
   {
      "name": "Birbhaddar",
      "countryCode": "IN",
      "stateCode": "UT",
      "latitude": "30.07120000",
      "longitude": "78.28189000"
   },
   {
      "name": "Chakrata",
      "countryCode": "IN",
      "stateCode": "UT",
      "latitude": "30.70369000",
      "longitude": "77.86386000"
   },
   {
      "name": "Chamoli",
      "countryCode": "IN",
      "stateCode": "UT",
      "latitude": "30.50000000",
      "longitude": "79.50000000"
   },
   {
      "name": "Champawat",
      "countryCode": "IN",
      "stateCode": "UT",
      "latitude": "29.28756000",
      "longitude": "80.03737000"
   },
   {
      "name": "Clement Town",
      "countryCode": "IN",
      "stateCode": "UT",
      "latitude": "30.26361000",
      "longitude": "78.00862000"
   },
   {
      "name": "Dehradun",
      "countryCode": "IN",
      "stateCode": "UT",
      "latitude": "30.33000000",
      "longitude": "78.06000000"
   },
   {
      "name": "Devaprayag",
      "countryCode": "IN",
      "stateCode": "UT",
      "latitude": "30.14603000",
      "longitude": "78.60272000"
   },
   {
      "name": "Dharchula",
      "countryCode": "IN",
      "stateCode": "UT",
      "latitude": "29.84707000",
      "longitude": "80.51951000"
   },
   {
      "name": "Doiwala",
      "countryCode": "IN",
      "stateCode": "UT",
      "latitude": "30.17667000",
      "longitude": "78.11659000"
   },
   {
      "name": "Dugadda",
      "countryCode": "IN",
      "stateCode": "UT",
      "latitude": "29.80673000",
      "longitude": "78.61109000"
   },
   {
      "name": "Dwarahat",
      "countryCode": "IN",
      "stateCode": "UT",
      "latitude": "29.77785000",
      "longitude": "79.42731000"
   },
   {
      "name": "Garhwal",
      "countryCode": "IN",
      "stateCode": "UT",
      "latitude": "29.96366000",
      "longitude": "78.92853000"
   },
   {
      "name": "Haldwani",
      "countryCode": "IN",
      "stateCode": "UT",
      "latitude": "29.22254000",
      "longitude": "79.52860000"
   },
   {
      "name": "Harbatpur",
      "countryCode": "IN",
      "stateCode": "UT",
      "latitude": "30.43863000",
      "longitude": "77.74058000"
   },
   {
      "name": "Haridwar",
      "countryCode": "IN",
      "stateCode": "UT",
      "latitude": "29.94791000",
      "longitude": "78.16025000"
   },
   {
      "name": "Jaspur",
      "countryCode": "IN",
      "stateCode": "UT",
      "latitude": "29.27919000",
      "longitude": "78.82798000"
   },
   {
      "name": "Joshimath",
      "countryCode": "IN",
      "stateCode": "UT",
      "latitude": "30.55543000",
      "longitude": "79.56436000"
   },
   {
      "name": "Kaladhungi",
      "countryCode": "IN",
      "stateCode": "UT",
      "latitude": "29.28351000",
      "longitude": "79.35100000"
   },
   {
      "name": "Kalagarh Project Colony",
      "countryCode": "IN",
      "stateCode": "UT",
      "latitude": "29.47780000",
      "longitude": "78.78449000"
   },
   {
      "name": "Kashipur",
      "countryCode": "IN",
      "stateCode": "UT",
      "latitude": "29.21399000",
      "longitude": "78.95693000"
   },
   {
      "name": "Khatima",
      "countryCode": "IN",
      "stateCode": "UT",
      "latitude": "28.92134000",
      "longitude": "79.97075000"
   },
   {
      "name": "Kichha",
      "countryCode": "IN",
      "stateCode": "UT",
      "latitude": "28.91154000",
      "longitude": "79.52009000"
   },
   {
      "name": "Kotdwara",
      "countryCode": "IN",
      "stateCode": "UT",
      "latitude": "29.74612000",
      "longitude": "78.52219000"
   },
   {
      "name": "Laksar",
      "countryCode": "IN",
      "stateCode": "UT",
      "latitude": "29.75870000",
      "longitude": "78.04148000"
   },
   {
      "name": "Lansdowne",
      "countryCode": "IN",
      "stateCode": "UT",
      "latitude": "29.84183000",
      "longitude": "78.68014000"
   },
   {
      "name": "Lohaghat",
      "countryCode": "IN",
      "stateCode": "UT",
      "latitude": "29.40356000",
      "longitude": "80.08965000"
   },
   {
      "name": "Manglaur",
      "countryCode": "IN",
      "stateCode": "UT",
      "latitude": "29.79094000",
      "longitude": "77.87836000"
   },
   {
      "name": "Mussoorie",
      "countryCode": "IN",
      "stateCode": "UT",
      "latitude": "30.45498000",
      "longitude": "78.07068000"
   },
   {
      "name": "Naini Tal",
      "countryCode": "IN",
      "stateCode": "UT",
      "latitude": "29.39743000",
      "longitude": "79.44686000"
   },
   {
      "name": "Narendranagar",
      "countryCode": "IN",
      "stateCode": "UT",
      "latitude": "30.16173000",
      "longitude": "78.28712000"
   },
   {
      "name": "Pauri",
      "countryCode": "IN",
      "stateCode": "UT",
      "latitude": "30.15286000",
      "longitude": "78.77710000"
   },
   {
      "name": "Pipalkoti",
      "countryCode": "IN",
      "stateCode": "UT",
      "latitude": "30.42553000",
      "longitude": "79.43066000"
   },
   {
      "name": "Pithoragarh",
      "countryCode": "IN",
      "stateCode": "UT",
      "latitude": "30.00000000",
      "longitude": "80.25000000"
   },
   {
      "name": "Raipur",
      "countryCode": "IN",
      "stateCode": "UT",
      "latitude": "30.31097000",
      "longitude": "78.08979000"
   },
   {
      "name": "Raiwala Bara",
      "countryCode": "IN",
      "stateCode": "UT",
      "latitude": "30.01864000",
      "longitude": "78.22930000"
   },
   {
      "name": "Ramnagar",
      "countryCode": "IN",
      "stateCode": "UT",
      "latitude": "29.39250000",
      "longitude": "79.12830000"
   },
   {
      "name": "Ranikhet",
      "countryCode": "IN",
      "stateCode": "UT",
      "latitude": "29.64082000",
      "longitude": "79.43229000"
   },
   {
      "name": "Rishikesh",
      "countryCode": "IN",
      "stateCode": "UT",
      "latitude": "30.10778000",
      "longitude": "78.29255000"
   },
   {
      "name": "Roorkee",
      "countryCode": "IN",
      "stateCode": "UT",
      "latitude": "29.86632000",
      "longitude": "77.89118000"
   },
   {
      "name": "Rudraprayag",
      "countryCode": "IN",
      "stateCode": "UT",
      "latitude": "30.60872000",
      "longitude": "79.06517000"
   },
   {
      "name": "Sitarganj",
      "countryCode": "IN",
      "stateCode": "UT",
      "latitude": "28.92930000",
      "longitude": "79.70436000"
   },
   {
      "name": "Srinagar",
      "countryCode": "IN",
      "stateCode": "UT",
      "latitude": "30.22243000",
      "longitude": "78.78341000"
   },
   {
      "name": "Sultanpur",
      "countryCode": "IN",
      "stateCode": "UT",
      "latitude": "29.75534000",
      "longitude": "78.11034000"
   },
   {
      "name": "Tanakpur",
      "countryCode": "IN",
      "stateCode": "UT",
      "latitude": "29.07400000",
      "longitude": "80.11139000"
   },
   {
      "name": "Tehri",
      "countryCode": "IN",
      "stateCode": "UT",
      "latitude": "30.39086000",
      "longitude": "78.48030000"
   },
   {
      "name": "Tehri-Garhwal",
      "countryCode": "IN",
      "stateCode": "UT",
      "latitude": "30.50000000",
      "longitude": "78.66667000"
   },
   {
      "name": "Udham Singh Nagar",
      "countryCode": "IN",
      "stateCode": "UT",
      "latitude": "29.02746000",
      "longitude": "79.52347000"
   },
   {
      "name": "Uttarkashi",
      "countryCode": "IN",
      "stateCode": "UT",
      "latitude": "30.72986000",
      "longitude": "78.44342000"
   },
   {
      "name": "Vikasnagar",
      "countryCode": "IN",
      "stateCode": "UT",
      "latitude": "30.46944000",
      "longitude": "77.77275000"
   }
]