[
   {
      "name": "Akademgorodok",
      "countryCode": "RU",
      "stateCode": "NVS",
      "latitude": "54.85230000",
      "longitude": "83.10600000"
   },
   {
      "name": "Bagan",
      "countryCode": "RU",
      "stateCode": "NVS",
      "latitude": "54.10014000",
      "longitude": "77.66462000"
   },
   {
      "name": "Barabinsk",
      "countryCode": "RU",
      "stateCode": "NVS",
      "latitude": "55.35709000",
      "longitude": "78.35697000"
   },
   {
      "name": "Baryshevo",
      "countryCode": "RU",
      "stateCode": "NVS",
      "latitude": "54.95640000",
      "longitude": "83.18220000"
   },
   {
      "name": "Berdsk",
      "countryCode": "RU",
      "stateCode": "NVS",
      "latitude": "54.75510000",
      "longitude": "83.09670000"
   },
   {
      "name": "Bolotnoye",
      "countryCode": "RU",
      "stateCode": "NVS",
      "latitude": "55.67167000",
      "longitude": "84.39806000"
   },
   {
      "name": "Chany",
      "countryCode": "RU",
      "stateCode": "NVS",
      "latitude": "55.31205000",
      "longitude": "76.76468000"
   },
   {
      "name": "Cherepanovo",
      "countryCode": "RU",
      "stateCode": "NVS",
      "latitude": "54.22220000",
      "longitude": "83.38100000"
   },
   {
      "name": "Chulym",
      "countryCode": "RU",
      "stateCode": "NVS",
      "latitude": "55.09972000",
      "longitude": "80.95722000"
   },
   {
      "name": "Dorogino",
      "countryCode": "RU",
      "stateCode": "NVS",
      "latitude": "54.35980000",
      "longitude": "83.31980000"
   },
   {
      "name": "Dubrovino",
      "countryCode": "RU",
      "stateCode": "NVS",
      "latitude": "55.47180000",
      "longitude": "83.29070000"
   },
   {
      "name": "Gornyy",
      "countryCode": "RU",
      "stateCode": "NVS",
      "latitude": "55.11530000",
      "longitude": "83.90590000"
   },
   {
      "name": "Iskitim",
      "countryCode": "RU",
      "stateCode": "NVS",
      "latitude": "54.63660000",
      "longitude": "83.30450000"
   },
   {
      "name": "Iskitimskiy Rayon",
      "countryCode": "RU",
      "stateCode": "NVS",
      "latitude": "54.66667000",
      "longitude": "83.25000000"
   },
   {
      "name": "Karasuk",
      "countryCode": "RU",
      "stateCode": "NVS",
      "latitude": "53.73772000",
      "longitude": "78.04026000"
   },
   {
      "name": "Kargat",
      "countryCode": "RU",
      "stateCode": "NVS",
      "latitude": "55.19556000",
      "longitude": "80.28111000"
   },
   {
      "name": "Kochenëvo",
      "countryCode": "RU",
      "stateCode": "NVS",
      "latitude": "55.02180000",
      "longitude": "82.20200000"
   },
   {
      "name": "Kochki",
      "countryCode": "RU",
      "stateCode": "NVS",
      "latitude": "54.33583000",
      "longitude": "80.48056000"
   },
   {
      "name": "Kolyvan’",
      "countryCode": "RU",
      "stateCode": "NVS",
      "latitude": "55.30530000",
      "longitude": "82.73910000"
   },
   {
      "name": "Kol’tsovo",
      "countryCode": "RU",
      "stateCode": "NVS",
      "latitude": "54.93760000",
      "longitude": "83.18250000"
   },
   {
      "name": "Krasnoobsk",
      "countryCode": "RU",
      "stateCode": "NVS",
      "latitude": "54.91980000",
      "longitude": "82.99090000"
   },
   {
      "name": "Krasnozërskoye",
      "countryCode": "RU",
      "stateCode": "NVS",
      "latitude": "53.98277000",
      "longitude": "79.23735000"
   },
   {
      "name": "Krivodanovka",
      "countryCode": "RU",
      "stateCode": "NVS",
      "latitude": "55.08810000",
      "longitude": "82.65510000"
   },
   {
      "name": "Kudryashovskiy",
      "countryCode": "RU",
      "stateCode": "NVS",
      "latitude": "55.09740000",
      "longitude": "82.77420000"
   },
   {
      "name": "Kupino",
      "countryCode": "RU",
      "stateCode": "NVS",
      "latitude": "54.36635000",
      "longitude": "77.29805000"
   },
   {
      "name": "Kuybyshev",
      "countryCode": "RU",
      "stateCode": "NVS",
      "latitude": "55.44753000",
      "longitude": "78.32181000"
   },
   {
      "name": "Kyshtovka",
      "countryCode": "RU",
      "stateCode": "NVS",
      "latitude": "56.55498000",
      "longitude": "76.62713000"
   },
   {
      "name": "Linëvo",
      "countryCode": "RU",
      "stateCode": "NVS",
      "latitude": "54.45890000",
      "longitude": "83.37640000"
   },
   {
      "name": "Listvyanskiy",
      "countryCode": "RU",
      "stateCode": "NVS",
      "latitude": "54.43990000",
      "longitude": "83.49840000"
   },
   {
      "name": "Maslyanino",
      "countryCode": "RU",
      "stateCode": "NVS",
      "latitude": "54.34361000",
      "longitude": "84.21111000"
   },
   {
      "name": "Maslyaninskiy Rayon",
      "countryCode": "RU",
      "stateCode": "NVS",
      "latitude": "54.50000000",
      "longitude": "84.50000000"
   },
   {
      "name": "Mochishche",
      "countryCode": "RU",
      "stateCode": "NVS",
      "latitude": "55.15860000",
      "longitude": "83.12290000"
   },
   {
      "name": "Moshkovo",
      "countryCode": "RU",
      "stateCode": "NVS",
      "latitude": "55.30530000",
      "longitude": "83.61040000"
   },
   {
      "name": "Moshkovskiy Rayon",
      "countryCode": "RU",
      "stateCode": "NVS",
      "latitude": "55.30000000",
      "longitude": "83.61667000"
   },
   {
      "name": "Novolugovoye",
      "countryCode": "RU",
      "stateCode": "NVS",
      "latitude": "54.97920000",
      "longitude": "83.11380000"
   },
   {
      "name": "Novosibirsk",
      "countryCode": "RU",
      "stateCode": "NVS",
      "latitude": "55.04150000",
      "longitude": "82.93460000"
   },
   {
      "name": "Novosibirskiy Rayon",
      "countryCode": "RU",
      "stateCode": "NVS",
      "latitude": "55.00000000",
      "longitude": "83.00000000"
   },
   {
      "name": "Ob’",
      "countryCode": "RU",
      "stateCode": "NVS",
      "latitude": "54.98720000",
      "longitude": "82.71660000"
   },
   {
      "name": "Ordynskiy Rayon",
      "countryCode": "RU",
      "stateCode": "NVS",
      "latitude": "54.33333000",
      "longitude": "81.66667000"
   },
   {
      "name": "Ordynskoye",
      "countryCode": "RU",
      "stateCode": "NVS",
      "latitude": "54.36560000",
      "longitude": "81.89940000"
   },
   {
      "name": "Polovinnoye",
      "countryCode": "RU",
      "stateCode": "NVS",
      "latitude": "53.75671000",
      "longitude": "79.24327000"
   },
   {
      "name": "Prokudskoye",
      "countryCode": "RU",
      "stateCode": "NVS",
      "latitude": "55.00890000",
      "longitude": "82.45740000"
   },
   {
      "name": "Sadovyy",
      "countryCode": "RU",
      "stateCode": "NVS",
      "latitude": "55.13610000",
      "longitude": "82.96590000"
   },
   {
      "name": "Severnoye",
      "countryCode": "RU",
      "stateCode": "NVS",
      "latitude": "56.34912000",
      "longitude": "78.36189000"
   },
   {
      "name": "Severnyy Rayon",
      "countryCode": "RU",
      "stateCode": "NVS",
      "latitude": "56.33333000",
      "longitude": "78.50000000"
   },
   {
      "name": "Sokur",
      "countryCode": "RU",
      "stateCode": "NVS",
      "latitude": "55.20930000",
      "longitude": "83.31900000"
   },
   {
      "name": "Stantsionno-Oyashinskiy",
      "countryCode": "RU",
      "stateCode": "NVS",
      "latitude": "55.46640000",
      "longitude": "83.82450000"
   },
   {
      "name": "Suzun",
      "countryCode": "RU",
      "stateCode": "NVS",
      "latitude": "53.78410000",
      "longitude": "82.31160000"
   },
   {
      "name": "Tashara",
      "countryCode": "RU",
      "stateCode": "NVS",
      "latitude": "55.51950000",
      "longitude": "83.50940000"
   },
   {
      "name": "Tatarsk",
      "countryCode": "RU",
      "stateCode": "NVS",
      "latitude": "55.21903000",
      "longitude": "75.98283000"
   },
   {
      "name": "Tatarskiy Rayon",
      "countryCode": "RU",
      "stateCode": "NVS",
      "latitude": "55.25000000",
      "longitude": "76.00000000"
   },
   {
      "name": "Toguchin",
      "countryCode": "RU",
      "stateCode": "NVS",
      "latitude": "55.23528000",
      "longitude": "84.38583000"
   },
   {
      "name": "Tolmachëvo",
      "countryCode": "RU",
      "stateCode": "NVS",
      "latitude": "54.98240000",
      "longitude": "82.73630000"
   },
   {
      "name": "Ubinskoye",
      "countryCode": "RU",
      "stateCode": "NVS",
      "latitude": "55.30675000",
      "longitude": "79.68016000"
   },
   {
      "name": "Ust’-Tarka",
      "countryCode": "RU",
      "stateCode": "NVS",
      "latitude": "55.56715000",
      "longitude": "75.70500000"
   },
   {
      "name": "Vengerovo",
      "countryCode": "RU",
      "stateCode": "NVS",
      "latitude": "55.68485000",
      "longitude": "76.74707000"
   },
   {
      "name": "Verkh-Tula",
      "countryCode": "RU",
      "stateCode": "NVS",
      "latitude": "54.88390000",
      "longitude": "82.77620000"
   },
   {
      "name": "Yarkovo",
      "countryCode": "RU",
      "stateCode": "NVS",
      "latitude": "54.80560000",
      "longitude": "82.59890000"
   },
   {
      "name": "Zdvinsk",
      "countryCode": "RU",
      "stateCode": "NVS",
      "latitude": "54.70206000",
      "longitude": "78.66105000"
   }
]