[
   {
      "name": "Mongkol Borei",
      "countryCode": "KH",
      "stateCode": "1",
      "latitude": "13.45531000",
      "longitude": "102.99186000"
   },
   {
      "name": "Paoy Paet",
      "countryCode": "KH",
      "stateCode": "1",
      "latitude": "13.65805000",
      "longitude": "102.56365000"
   },
   {
      "name": "Sisophon",
      "countryCode": "KH",
      "stateCode": "1",
      "latitude": "13.58588000",
      "longitude": "102.97369000"
   },
   {
      "name": "Srŏk Malai",
      "countryCode": "KH",
      "stateCode": "1",
      "latitude": "13.49902000",
      "longitude": "102.60164000"
   },
   {
      "name": "Srŏk Svay Chék",
      "countryCode": "KH",
      "stateCode": "1",
      "latitude": "13.81305000",
      "longitude": "102.95269000"
   }
]