[
   {
      "name": "Toamasina Province",
      "isoCode": "A",
      "countryCode": "MG",
      "latitude": "-18.14428110",
      "longitude": "49.39578360"
   },
   {
      "name": "Antsiranana Province",
      "isoCode": "D",
      "countryCode": "MG",
      "latitude": "-13.77153900",
      "longitude": "49.52799960"
   },
   {
      "name": "Fianarantsoa Province",
      "isoCode": "F",
      "countryCode": "MG",
      "latitude": "-22.35362400",
      "longitude": "46.82528380"
   },
   {
      "name": "Mahajanga Province",
      "isoCode": "M",
      "countryCode": "MG",
      "latitude": "-16.52388300",
      "longitude": "46.51626200"
   },
   {
      "name": "Antananarivo Province",
      "isoCode": "T",
      "countryCode": "MG",
      "latitude": "-18.70514740",
      "longitude": "46.82528380"
   },
   {
      "name": "Toliara Province",
      "isoCode": "U",
      "countryCode": "MG",
      "latitude": "-23.35161910",
      "longitude": "43.68549360"
   }
]