[
   {
      "name": "Brezovica",
      "countryCode": "HR",
      "stateCode": "21",
      "latitude": "45.72919000",
      "longitude": "15.91069000"
   },
   {
      "name": "Centar",
      "countryCode": "HR",
      "stateCode": "21",
      "latitude": "45.81313000",
      "longitude": "15.97753000"
   },
   {
      "name": "Dubrava",
      "countryCode": "HR",
      "stateCode": "21",
      "latitude": "45.83361000",
      "longitude": "16.06361000"
   },
   {
      "name": "Gradska četvrt Donji grad",
      "countryCode": "HR",
      "stateCode": "21",
      "latitude": "45.80834000",
      "longitude": "15.96949000"
   },
   {
      "name": "Gradska četvrt Gornji Grad - Medvescak",
      "countryCode": "HR",
      "stateCode": "21",
      "latitude": "45.82820000",
      "longitude": "15.97938000"
   },
   {
      "name": "Gradska četvrt Podsljeme",
      "countryCode": "HR",
      "stateCode": "21",
      "latitude": "45.86097000",
      "longitude": "15.97996000"
   },
   {
      "name": "Horvati",
      "countryCode": "HR",
      "stateCode": "21",
      "latitude": "45.70000000",
      "longitude": "15.81667000"
   },
   {
      "name": "Jankomir",
      "countryCode": "HR",
      "stateCode": "21",
      "latitude": "45.79167000",
      "longitude": "15.90000000"
   },
   {
      "name": "Ježdovec",
      "countryCode": "HR",
      "stateCode": "21",
      "latitude": "45.78333000",
      "longitude": "15.85000000"
   },
   {
      "name": "Kašina",
      "countryCode": "HR",
      "stateCode": "21",
      "latitude": "45.91134000",
      "longitude": "16.12436000"
   },
   {
      "name": "Lučko",
      "countryCode": "HR",
      "stateCode": "21",
      "latitude": "45.76111000",
      "longitude": "15.87028000"
   },
   {
      "name": "Novi Zagreb",
      "countryCode": "HR",
      "stateCode": "21",
      "latitude": "45.78333000",
      "longitude": "15.98333000"
   },
   {
      "name": "Odra",
      "countryCode": "HR",
      "stateCode": "21",
      "latitude": "45.72979000",
      "longitude": "15.99240000"
   },
   {
      "name": "Sesvete",
      "countryCode": "HR",
      "stateCode": "21",
      "latitude": "45.83333000",
      "longitude": "16.13333000"
   },
   {
      "name": "Stenjevec",
      "countryCode": "HR",
      "stateCode": "21",
      "latitude": "45.80846000",
      "longitude": "15.88245000"
   },
   {
      "name": "Strmec",
      "countryCode": "HR",
      "stateCode": "21",
      "latitude": "45.70843000",
      "longitude": "15.91674000"
   },
   {
      "name": "Zadvorsko",
      "countryCode": "HR",
      "stateCode": "21",
      "latitude": "45.71978000",
      "longitude": "15.90880000"
   },
   {
      "name": "Zagreb",
      "countryCode": "HR",
      "stateCode": "21",
      "latitude": "45.81444000",
      "longitude": "15.97798000"
   }
]