[
   {
      "name": "Cherrapunji",
      "countryCode": "IN",
      "stateCode": "ML",
      "latitude": "25.30089000",
      "longitude": "91.69619000"
   },
   {
      "name": "East Garo Hills",
      "countryCode": "IN",
      "stateCode": "ML",
      "latitude": "25.61372000",
      "longitude": "90.62426000"
   },
   {
      "name": "East Jaintia Hills",
      "countryCode": "IN",
      "stateCode": "ML",
      "latitude": "25.35976000",
      "longitude": "92.36680000"
   },
   {
      "name": "East Khasi Hills",
      "countryCode": "IN",
      "stateCode": "ML",
      "latitude": "25.38050000",
      "longitude": "91.78905000"
   },
   {
      "name": "Mairang",
      "countryCode": "IN",
      "stateCode": "ML",
      "latitude": "25.56165000",
      "longitude": "91.63602000"
   },
   {
      "name": "Mankachar",
      "countryCode": "IN",
      "stateCode": "ML",
      "latitude": "25.53347000",
      "longitude": "89.86373000"
   },
   {
      "name": "Nongpoh",
      "countryCode": "IN",
      "stateCode": "ML",
      "latitude": "25.90230000",
      "longitude": "91.87694000"
   },
   {
      "name": "Nongstoin",
      "countryCode": "IN",
      "stateCode": "ML",
      "latitude": "25.51704000",
      "longitude": "91.26484000"
   },
   {
      "name": "North Garo Hills",
      "countryCode": "IN",
      "stateCode": "ML",
      "latitude": "25.89682000",
      "longitude": "90.61602000"
   },
   {
      "name": "Ri-Bhoi",
      "countryCode": "IN",
      "stateCode": "ML",
      "latitude": "25.88997000",
      "longitude": "91.82707000"
   },
   {
      "name": "Shillong",
      "countryCode": "IN",
      "stateCode": "ML",
      "latitude": "25.56892000",
      "longitude": "91.88313000"
   },
   {
      "name": "South Garo Hills",
      "countryCode": "IN",
      "stateCode": "ML",
      "latitude": "25.30162000",
      "longitude": "90.58530000"
   },
   {
      "name": "South West Garo Hills",
      "countryCode": "IN",
      "stateCode": "ML",
      "latitude": "25.47245000",
      "longitude": "89.93399000"
   },
   {
      "name": "South West Khasi Hills",
      "countryCode": "IN",
      "stateCode": "ML",
      "latitude": "25.32155000",
      "longitude": "91.29462000"
   },
   {
      "name": "Tura",
      "countryCode": "IN",
      "stateCode": "ML",
      "latitude": "25.51421000",
      "longitude": "90.20239000"
   },
   {
      "name": "West Garo Hills",
      "countryCode": "IN",
      "stateCode": "ML",
      "latitude": "25.56794000",
      "longitude": "90.22447000"
   },
   {
      "name": "West Jaintia Hills",
      "countryCode": "IN",
      "stateCode": "ML",
      "latitude": "25.50000000",
      "longitude": "92.25000000"
   },
   {
      "name": "West Khasi Hills",
      "countryCode": "IN",
      "stateCode": "ML",
      "latitude": "25.54776000",
      "longitude": "91.26957000"
   }
]