[
   {
      "name": "10 de Abril",
      "countryCode": "MX",
      "stateCode": "GRO",
      "latitude": "16.82917000",
      "longitude": "-99.74083000"
   },
   {
      "name": "Acahuizotla",
      "countryCode": "MX",
      "stateCode": "GRO",
      "latitude": "17.36054000",
      "longitude": "-99.46759000"
   },
   {
      "name": "Acalco",
      "countryCode": "MX",
      "stateCode": "GRO",
      "latitude": "17.50575000",
      "longitude": "-99.16670000"
   },
   {
      "name": "Acamixtla",
      "countryCode": "MX",
      "stateCode": "GRO",
      "latitude": "18.56512000",
      "longitude": "-99.56599000"
   },
   {
      "name": "Acapetlahuaya",
      "countryCode": "MX",
      "stateCode": "GRO",
      "latitude": "18.41942000",
      "longitude": "-100.07237000"
   },
   {
      "name": "Acapulco de Juárez",
      "countryCode": "MX",
      "stateCode": "GRO",
      "latitude": "16.84942000",
      "longitude": "-99.90891000"
   },
   {
      "name": "Acatempa",
      "countryCode": "MX",
      "stateCode": "GRO",
      "latitude": "17.64333000",
      "longitude": "-99.36639000"
   },
   {
      "name": "Acatempan",
      "countryCode": "MX",
      "stateCode": "GRO",
      "latitude": "18.31809000",
      "longitude": "-99.88298000"
   },
   {
      "name": "Acatepec",
      "countryCode": "MX",
      "stateCode": "GRO",
      "latitude": "17.17482000",
      "longitude": "-98.97603000"
   },
   {
      "name": "Acatlán",
      "countryCode": "MX",
      "stateCode": "GRO",
      "latitude": "17.65807000",
      "longitude": "-99.16944000"
   },
   {
      "name": "Acuitlapan",
      "countryCode": "MX",
      "stateCode": "GRO",
      "latitude": "18.60155000",
      "longitude": "-99.54260000"
   },
   {
      "name": "Agua Zarca",
      "countryCode": "MX",
      "stateCode": "GRO",
      "latitude": "16.62365000",
      "longitude": "-98.70245000"
   },
   {
      "name": "Aguas Blancas",
      "countryCode": "MX",
      "stateCode": "GRO",
      "latitude": "17.03654000",
      "longitude": "-100.06300000"
   },
   {
      "name": "Aguas Calientes",
      "countryCode": "MX",
      "stateCode": "GRO",
      "latitude": "16.84250000",
      "longitude": "-99.64056000"
   },
   {
      "name": "Ahuacachahue (Ndog'yo Itún Tichi)",
      "countryCode": "MX",
      "stateCode": "GRO",
      "latitude": "16.82861000",
      "longitude": "-98.98556000"
   },
   {
      "name": "Ahuacuotzingo",
      "countryCode": "MX",
      "stateCode": "GRO",
      "latitude": "17.74253000",
      "longitude": "-98.91781000"
   },
   {
      "name": "Ahuajutla",
      "countryCode": "MX",
      "stateCode": "GRO",
      "latitude": "17.43043000",
      "longitude": "-98.29029000"
   },
   {
      "name": "Ahuatepec Pueblo",
      "countryCode": "MX",
      "stateCode": "GRO",
      "latitude": "17.60577000",
      "longitude": "-98.58970000"
   },
   {
      "name": "Ahuehuepan",
      "countryCode": "MX",
      "stateCode": "GRO",
      "latitude": "18.00625000",
      "longitude": "-99.49995000"
   },
   {
      "name": "Ahuexotitlán",
      "countryCode": "MX",
      "stateCode": "GRO",
      "latitude": "17.52849000",
      "longitude": "-99.24398000"
   },
   {
      "name": "Ahuihuiyuco",
      "countryCode": "MX",
      "stateCode": "GRO",
      "latitude": "17.62958000",
      "longitude": "-99.22738000"
   },
   {
      "name": "Ajuchitlán del Progreso",
      "countryCode": "MX",
      "stateCode": "GRO",
      "latitude": "18.15189000",
      "longitude": "-100.48353000"
   },
   {
      "name": "Alcholoa",
      "countryCode": "MX",
      "stateCode": "GRO",
      "latitude": "17.15110000",
      "longitude": "-100.40837000"
   },
   {
      "name": "Alcozacán",
      "countryCode": "MX",
      "stateCode": "GRO",
      "latitude": "17.50444000",
      "longitude": "-99.09500000"
   },
   {
      "name": "Alcozauca de Guerrero",
      "countryCode": "MX",
      "stateCode": "GRO",
      "latitude": "17.46481000",
      "longitude": "-98.38428000"
   },
   {
      "name": "Almolonga",
      "countryCode": "MX",
      "stateCode": "GRO",
      "latitude": "17.63826000",
      "longitude": "-99.29502000"
   },
   {
      "name": "Alpoyeca",
      "countryCode": "MX",
      "stateCode": "GRO",
      "latitude": "17.64600000",
      "longitude": "-98.51004000"
   },
   {
      "name": "Alpuyecancingo de las Montañas",
      "countryCode": "MX",
      "stateCode": "GRO",
      "latitude": "17.67083000",
      "longitude": "-98.85194000"
   },
   {
      "name": "Amatillo",
      "countryCode": "MX",
      "stateCode": "GRO",
      "latitude": "16.82028000",
      "longitude": "-99.66611000"
   },
   {
      "name": "Amuco de la Reforma",
      "countryCode": "MX",
      "stateCode": "GRO",
      "latitude": "18.29361000",
      "longitude": "-100.63972000"
   },
   {
      "name": "Apalani",
      "countryCode": "MX",
      "stateCode": "GRO",
      "latitude": "16.85361000",
      "longitude": "-99.58944000"
   },
   {
      "name": "Apango",
      "countryCode": "MX",
      "stateCode": "GRO",
      "latitude": "17.74121000",
      "longitude": "-99.32909000"
   },
   {
      "name": "Apantla",
      "countryCode": "MX",
      "stateCode": "GRO",
      "latitude": "17.03972000",
      "longitude": "-99.16944000"
   },
   {
      "name": "Apaxtla",
      "countryCode": "MX",
      "stateCode": "GRO",
      "latitude": "18.07628000",
      "longitude": "-99.99562000"
   },
   {
      "name": "Apaxtla de Castrejón",
      "countryCode": "MX",
      "stateCode": "GRO",
      "latitude": "18.13127000",
      "longitude": "-99.93255000"
   },
   {
      "name": "Apipilulco",
      "countryCode": "MX",
      "stateCode": "GRO",
      "latitude": "18.19104000",
      "longitude": "-99.67205000"
   },
   {
      "name": "Aratichanguío",
      "countryCode": "MX",
      "stateCode": "GRO",
      "latitude": "18.47877000",
      "longitude": "-101.36211000"
   },
   {
      "name": "Arcelia",
      "countryCode": "MX",
      "stateCode": "GRO",
      "latitude": "18.26627000",
      "longitude": "-100.19066000"
   },
   {
      "name": "Arcelia de Rodríguez",
      "countryCode": "MX",
      "stateCode": "GRO",
      "latitude": "16.73668000",
      "longitude": "-98.64486000"
   },
   {
      "name": "Arenal de Álvarez (Arenal de Paco)",
      "countryCode": "MX",
      "stateCode": "GRO",
      "latitude": "17.12611000",
      "longitude": "-100.45500000"
   },
   {
      "name": "Atenango del Río",
      "countryCode": "MX",
      "stateCode": "GRO",
      "latitude": "18.10526000",
      "longitude": "-99.10777000"
   },
   {
      "name": "Atenxoxola",
      "countryCode": "MX",
      "stateCode": "GRO",
      "latitude": "17.48819000",
      "longitude": "-99.14285000"
   },
   {
      "name": "Atlamajac",
      "countryCode": "MX",
      "stateCode": "GRO",
      "latitude": "17.55528000",
      "longitude": "-98.54722000"
   },
   {
      "name": "Atlamajalcingo del Río",
      "countryCode": "MX",
      "stateCode": "GRO",
      "latitude": "17.52667000",
      "longitude": "-98.65556000"
   },
   {
      "name": "Atliaca",
      "countryCode": "MX",
      "stateCode": "GRO",
      "latitude": "17.65168000",
      "longitude": "-99.37471000"
   },
   {
      "name": "Atlixtac",
      "countryCode": "MX",
      "stateCode": "GRO",
      "latitude": "17.51434000",
      "longitude": "-98.90305000"
   },
   {
      "name": "Atoyac de Álvarez",
      "countryCode": "MX",
      "stateCode": "GRO",
      "latitude": "17.20667000",
      "longitude": "-100.43306000"
   },
   {
      "name": "Atzacoaloya",
      "countryCode": "MX",
      "stateCode": "GRO",
      "latitude": "17.54659000",
      "longitude": "-99.13757000"
   },
   {
      "name": "Axaxacualco",
      "countryCode": "MX",
      "stateCode": "GRO",
      "latitude": "17.80387000",
      "longitude": "-99.46175000"
   },
   {
      "name": "Axixintla",
      "countryCode": "MX",
      "stateCode": "GRO",
      "latitude": "18.60222000",
      "longitude": "-99.51806000"
   },
   {
      "name": "Ayahualulco",
      "countryCode": "MX",
      "stateCode": "GRO",
      "latitude": "17.50066000",
      "longitude": "-99.18264000"
   },
   {
      "name": "Ayotzinapa",
      "countryCode": "MX",
      "stateCode": "GRO",
      "latitude": "17.55628000",
      "longitude": "-98.76346000"
   },
   {
      "name": "Ayutla de los Libres",
      "countryCode": "MX",
      "stateCode": "GRO",
      "latitude": "16.96376000",
      "longitude": "-99.09616000"
   },
   {
      "name": "Azoyú",
      "countryCode": "MX",
      "stateCode": "GRO",
      "latitude": "16.64925000",
      "longitude": "-98.57828000"
   },
   {
      "name": "Bajos del Ejido",
      "countryCode": "MX",
      "stateCode": "GRO",
      "latitude": "16.96086000",
      "longitude": "-99.97169000"
   },
   {
      "name": "Barra de Tecoanapa",
      "countryCode": "MX",
      "stateCode": "GRO",
      "latitude": "16.50864000",
      "longitude": "-98.73216000"
   },
   {
      "name": "Barrio Nuevo",
      "countryCode": "MX",
      "stateCode": "GRO",
      "latitude": "17.72075000",
      "longitude": "-101.63657000"
   },
   {
      "name": "Barrio Nuevo de los Muertos",
      "countryCode": "MX",
      "stateCode": "GRO",
      "latitude": "16.89278000",
      "longitude": "-99.54389000"
   },
   {
      "name": "Buena Vista",
      "countryCode": "MX",
      "stateCode": "GRO",
      "latitude": "16.96250000",
      "longitude": "-98.58077000"
   },
   {
      "name": "Buena Vista de la Salud",
      "countryCode": "MX",
      "stateCode": "GRO",
      "latitude": "17.26082000",
      "longitude": "-99.50183000"
   },
   {
      "name": "Buenavista de Allende",
      "countryCode": "MX",
      "stateCode": "GRO",
      "latitude": "17.00086000",
      "longitude": "-99.21325000"
   },
   {
      "name": "Buenavista de Cuéllar",
      "countryCode": "MX",
      "stateCode": "GRO",
      "latitude": "18.45958000",
      "longitude": "-99.40868000"
   },
   {
      "name": "Cacalotenango",
      "countryCode": "MX",
      "stateCode": "GRO",
      "latitude": "18.54639000",
      "longitude": "-99.64361000"
   },
   {
      "name": "Cacalutla",
      "countryCode": "MX",
      "stateCode": "GRO",
      "latitude": "17.12433000",
      "longitude": "-100.35038000"
   },
   {
      "name": "Cahuatache",
      "countryCode": "MX",
      "stateCode": "GRO",
      "latitude": "17.41624000",
      "longitude": "-98.53184000"
   },
   {
      "name": "Cajelitos",
      "countryCode": "MX",
      "stateCode": "GRO",
      "latitude": "17.26778000",
      "longitude": "-99.49306000"
   },
   {
      "name": "Campanario",
      "countryCode": "MX",
      "stateCode": "GRO",
      "latitude": "16.83534000",
      "longitude": "-99.57178000"
   },
   {
      "name": "Carrizalillo",
      "countryCode": "MX",
      "stateCode": "GRO",
      "latitude": "17.85077000",
      "longitude": "-99.71263000"
   },
   {
      "name": "Caxitepec",
      "countryCode": "MX",
      "stateCode": "GRO",
      "latitude": "17.29449000",
      "longitude": "-98.96741000"
   },
   {
      "name": "Cayaco",
      "countryCode": "MX",
      "stateCode": "GRO",
      "latitude": "17.04743000",
      "longitude": "-100.26859000"
   },
   {
      "name": "Cerro de Piedra",
      "countryCode": "MX",
      "stateCode": "GRO",
      "latitude": "16.77646000",
      "longitude": "-99.63037000"
   },
   {
      "name": "Chacalapa",
      "countryCode": "MX",
      "stateCode": "GRO",
      "latitude": "16.80682000",
      "longitude": "-98.45788000"
   },
   {
      "name": "Changata",
      "countryCode": "MX",
      "stateCode": "GRO",
      "latitude": "18.27306000",
      "longitude": "-100.58528000"
   },
   {
      "name": "Chaucingo",
      "countryCode": "MX",
      "stateCode": "GRO",
      "latitude": "18.30038000",
      "longitude": "-99.11535000"
   },
   {
      "name": "Chiaucingo",
      "countryCode": "MX",
      "stateCode": "GRO",
      "latitude": "17.74207000",
      "longitude": "-98.69720000"
   },
   {
      "name": "Chichihualco",
      "countryCode": "MX",
      "stateCode": "GRO",
      "latitude": "17.65902000",
      "longitude": "-99.67624000"
   },
   {
      "name": "Chiepetepec",
      "countryCode": "MX",
      "stateCode": "GRO",
      "latitude": "17.56568000",
      "longitude": "-98.73364000"
   },
   {
      "name": "Chilacachapa",
      "countryCode": "MX",
      "stateCode": "GRO",
      "latitude": "18.27394000",
      "longitude": "-99.76177000"
   },
   {
      "name": "Chilapa de Álvarez",
      "countryCode": "MX",
      "stateCode": "GRO",
      "latitude": "17.59917000",
      "longitude": "-99.17389000"
   },
   {
      "name": "Chilpancingo",
      "countryCode": "MX",
      "stateCode": "GRO",
      "latitude": "17.55060000",
      "longitude": "-99.50578000"
   },
   {
      "name": "Chontalcoatlán",
      "countryCode": "MX",
      "stateCode": "GRO",
      "latitude": "18.65421000",
      "longitude": "-99.57380000"
   },
   {
      "name": "Ciudad Altamirano",
      "countryCode": "MX",
      "stateCode": "GRO",
      "latitude": "18.35820000",
      "longitude": "-100.66965000"
   },
   {
      "name": "Ciudad de Huitzuco",
      "countryCode": "MX",
      "stateCode": "GRO",
      "latitude": "18.30334000",
      "longitude": "-99.33376000"
   },
   {
      "name": "Coachimalco",
      "countryCode": "MX",
      "stateCode": "GRO",
      "latitude": "17.62523000",
      "longitude": "-98.68122000"
   },
   {
      "name": "Coacoyula de Álvarez",
      "countryCode": "MX",
      "stateCode": "GRO",
      "latitude": "18.07635000",
      "longitude": "-99.63050000"
   },
   {
      "name": "Coacoyulichán",
      "countryCode": "MX",
      "stateCode": "GRO",
      "latitude": "16.79484000",
      "longitude": "-98.93551000"
   },
   {
      "name": "Coacoyulillo",
      "countryCode": "MX",
      "stateCode": "GRO",
      "latitude": "17.33471000",
      "longitude": "-99.64859000"
   },
   {
      "name": "Coahuayutla de Guerrero",
      "countryCode": "MX",
      "stateCode": "GRO",
      "latitude": "18.31469000",
      "longitude": "-101.73574000"
   },
   {
      "name": "Coahuayutla de José María Izazaga",
      "countryCode": "MX",
      "stateCode": "GRO",
      "latitude": "18.27847000",
      "longitude": "-101.63863000"
   },
   {
      "name": "Coatepec Costales",
      "countryCode": "MX",
      "stateCode": "GRO",
      "latitude": "18.33922000",
      "longitude": "-99.72140000"
   },
   {
      "name": "Cochoapa",
      "countryCode": "MX",
      "stateCode": "GRO",
      "latitude": "16.72190000",
      "longitude": "-98.37196000"
   },
   {
      "name": "Cochoapa el Grande",
      "countryCode": "MX",
      "stateCode": "GRO",
      "latitude": "17.19280000",
      "longitude": "-98.45592000"
   },
   {
      "name": "Cocula",
      "countryCode": "MX",
      "stateCode": "GRO",
      "latitude": "18.14296000",
      "longitude": "-99.70452000"
   },
   {
      "name": "Colombia de Guadalupe",
      "countryCode": "MX",
      "stateCode": "GRO",
      "latitude": "17.08840000",
      "longitude": "-98.75901000"
   },
   {
      "name": "Colonia Aeropuerto",
      "countryCode": "MX",
      "stateCode": "GRO",
      "latitude": "17.62028000",
      "longitude": "-101.45889000"
   },
   {
      "name": "Colonia Alborada",
      "countryCode": "MX",
      "stateCode": "GRO",
      "latitude": "16.88151000",
      "longitude": "-99.81779000"
   },
   {
      "name": "Colonia Constitución",
      "countryCode": "MX",
      "stateCode": "GRO",
      "latitude": "17.53667000",
      "longitude": "-98.59944000"
   },
   {
      "name": "Colonia Luces en el Mar",
      "countryCode": "MX",
      "stateCode": "GRO",
      "latitude": "16.92162000",
      "longitude": "-100.01526000"
   },
   {
      "name": "Colonia Nueva Revolución",
      "countryCode": "MX",
      "stateCode": "GRO",
      "latitude": "16.89833000",
      "longitude": "-99.80583000"
   },
   {
      "name": "Colonia Renacimiento",
      "countryCode": "MX",
      "stateCode": "GRO",
      "latitude": "16.76278000",
      "longitude": "-98.18222000"
   },
   {
      "name": "Colonia el Pedregal",
      "countryCode": "MX",
      "stateCode": "GRO",
      "latitude": "18.34961000",
      "longitude": "-99.85642000"
   },
   {
      "name": "Colotepec",
      "countryCode": "MX",
      "stateCode": "GRO",
      "latitude": "17.04104000",
      "longitude": "-99.21273000"
   },
   {
      "name": "Colotlipa",
      "countryCode": "MX",
      "stateCode": "GRO",
      "latitude": "17.41242000",
      "longitude": "-99.16711000"
   },
   {
      "name": "Copala",
      "countryCode": "MX",
      "stateCode": "GRO",
      "latitude": "16.60674000",
      "longitude": "-98.94094000"
   },
   {
      "name": "Copalillo",
      "countryCode": "MX",
      "stateCode": "GRO",
      "latitude": "17.97003000",
      "longitude": "-99.05436000"
   },
   {
      "name": "Copanatoyac",
      "countryCode": "MX",
      "stateCode": "GRO",
      "latitude": "17.42911000",
      "longitude": "-98.70006000"
   },
   {
      "name": "Corral Falso",
      "countryCode": "MX",
      "stateCode": "GRO",
      "latitude": "18.24472000",
      "longitude": "-100.56000000"
   },
   {
      "name": "Coyahualco",
      "countryCode": "MX",
      "stateCode": "GRO",
      "latitude": "17.74139000",
      "longitude": "-98.56667000"
   },
   {
      "name": "Coyuca de Benítez",
      "countryCode": "MX",
      "stateCode": "GRO",
      "latitude": "17.00895000",
      "longitude": "-100.08714000"
   },
   {
      "name": "Coyuca de Catalán",
      "countryCode": "MX",
      "stateCode": "GRO",
      "latitude": "18.32614000",
      "longitude": "-100.69898000"
   },
   {
      "name": "Coyuquilla Norte",
      "countryCode": "MX",
      "stateCode": "GRO",
      "latitude": "17.38027000",
      "longitude": "-101.05631000"
   },
   {
      "name": "Cruz Grande",
      "countryCode": "MX",
      "stateCode": "GRO",
      "latitude": "16.72241000",
      "longitude": "-99.12356000"
   },
   {
      "name": "Cruz Quemada",
      "countryCode": "MX",
      "stateCode": "GRO",
      "latitude": "16.99722000",
      "longitude": "-99.17964000"
   },
   {
      "name": "Cuajinicuilapa",
      "countryCode": "MX",
      "stateCode": "GRO",
      "latitude": "16.47347000",
      "longitude": "-98.41389000"
   },
   {
      "name": "Cualác",
      "countryCode": "MX",
      "stateCode": "GRO",
      "latitude": "17.72928000",
      "longitude": "-98.67254000"
   },
   {
      "name": "Cuanacaxtitlán",
      "countryCode": "MX",
      "stateCode": "GRO",
      "latitude": "16.79953000",
      "longitude": "-98.63992000"
   },
   {
      "name": "Cuatzoquitengo",
      "countryCode": "MX",
      "stateCode": "GRO",
      "latitude": "17.28822000",
      "longitude": "-98.61523000"
   },
   {
      "name": "Cuauhtenango",
      "countryCode": "MX",
      "stateCode": "GRO",
      "latitude": "17.54625000",
      "longitude": "-99.20683000"
   },
   {
      "name": "Cuautepec",
      "countryCode": "MX",
      "stateCode": "GRO",
      "latitude": "16.70520000",
      "longitude": "-98.98471000"
   },
   {
      "name": "Cuetzala del Progreso",
      "countryCode": "MX",
      "stateCode": "GRO",
      "latitude": "18.13472000",
      "longitude": "-99.83190000"
   },
   {
      "name": "Cumbre de Barranca Honda",
      "countryCode": "MX",
      "stateCode": "GRO",
      "latitude": "16.73167000",
      "longitude": "-98.33667000"
   },
   {
      "name": "Cuonetzingo",
      "countryCode": "MX",
      "stateCode": "GRO",
      "latitude": "17.52722000",
      "longitude": "-99.26583000"
   },
   {
      "name": "Cutzamala de Pinzón",
      "countryCode": "MX",
      "stateCode": "GRO",
      "latitude": "18.46783000",
      "longitude": "-100.58089000"
   },
   {
      "name": "Cuyuxtlahuaca",
      "countryCode": "MX",
      "stateCode": "GRO",
      "latitude": "17.48213000",
      "longitude": "-98.34456000"
   },
   {
      "name": "Dos Arroyos",
      "countryCode": "MX",
      "stateCode": "GRO",
      "latitude": "17.02060000",
      "longitude": "-99.64966000"
   },
   {
      "name": "Ejido Nuevo",
      "countryCode": "MX",
      "stateCode": "GRO",
      "latitude": "16.97405000",
      "longitude": "-99.73702000"
   },
   {
      "name": "Ejido Viejo",
      "countryCode": "MX",
      "stateCode": "GRO",
      "latitude": "16.94812000",
      "longitude": "-99.94606000"
   },
   {
      "name": "El Bejuco",
      "countryCode": "MX",
      "stateCode": "GRO",
      "latitude": "16.82488000",
      "longitude": "-99.70720000"
   },
   {
      "name": "El Carmen",
      "countryCode": "MX",
      "stateCode": "GRO",
      "latitude": "16.95036000",
      "longitude": "-98.23764000"
   },
   {
      "name": "El Coacoyul",
      "countryCode": "MX",
      "stateCode": "GRO",
      "latitude": "17.63810000",
      "longitude": "-101.47571000"
   },
   {
      "name": "El Conchero",
      "countryCode": "MX",
      "stateCode": "GRO",
      "latitude": "16.94266000",
      "longitude": "-99.96233000"
   },
   {
      "name": "El Cortijo",
      "countryCode": "MX",
      "stateCode": "GRO",
      "latitude": "16.98972000",
      "longitude": "-99.14889000"
   },
   {
      "name": "El Cortés",
      "countryCode": "MX",
      "stateCode": "GRO",
      "latitude": "16.78063000",
      "longitude": "-99.50210000"
   },
   {
      "name": "El Durazno",
      "countryCode": "MX",
      "stateCode": "GRO",
      "latitude": "17.52828000",
      "longitude": "-99.29057000"
   },
   {
      "name": "El Embarcadero",
      "countryCode": "MX",
      "stateCode": "GRO",
      "latitude": "16.96417000",
      "longitude": "-100.00167000"
   },
   {
      "name": "El Escondido",
      "countryCode": "MX",
      "stateCode": "GRO",
      "latitude": "18.22068000",
      "longitude": "-100.31208000"
   },
   {
      "name": "El Espinalillo",
      "countryCode": "MX",
      "stateCode": "GRO",
      "latitude": "16.98472000",
      "longitude": "-100.12694000"
   },
   {
      "name": "El Fresno",
      "countryCode": "MX",
      "stateCode": "GRO",
      "latitude": "17.43143000",
      "longitude": "-99.58605000"
   },
   {
      "name": "El Jicaral",
      "countryCode": "MX",
      "stateCode": "GRO",
      "latitude": "17.12617000",
      "longitude": "-98.19697000"
   },
   {
      "name": "El Limón",
      "countryCode": "MX",
      "stateCode": "GRO",
      "latitude": "16.99556000",
      "longitude": "-99.37750000"
   },
   {
      "name": "El Mesón",
      "countryCode": "MX",
      "stateCode": "GRO",
      "latitude": "16.84570000",
      "longitude": "-99.05868000"
   },
   {
      "name": "El Metlapil",
      "countryCode": "MX",
      "stateCode": "GRO",
      "latitude": "16.84167000",
      "longitude": "-99.74889000"
   },
   {
      "name": "El Naranjito",
      "countryCode": "MX",
      "stateCode": "GRO",
      "latitude": "17.98801000",
      "longitude": "-102.15752000"
   },
   {
      "name": "El Ocotito",
      "countryCode": "MX",
      "stateCode": "GRO",
      "latitude": "17.24603000",
      "longitude": "-99.51525000"
   },
   {
      "name": "El Papayo",
      "countryCode": "MX",
      "stateCode": "GRO",
      "latitude": "17.03468000",
      "longitude": "-100.24788000"
   },
   {
      "name": "El Paraíso",
      "countryCode": "MX",
      "stateCode": "GRO",
      "latitude": "17.34361000",
      "longitude": "-100.22806000"
   },
   {
      "name": "El Pericón",
      "countryCode": "MX",
      "stateCode": "GRO",
      "latitude": "16.98001000",
      "longitude": "-99.32573000"
   },
   {
      "name": "El Pitahayo",
      "countryCode": "MX",
      "stateCode": "GRO",
      "latitude": "16.53236000",
      "longitude": "-98.52760000"
   },
   {
      "name": "El Polvorín",
      "countryCode": "MX",
      "stateCode": "GRO",
      "latitude": "16.57833000",
      "longitude": "-98.80139000"
   },
   {
      "name": "El Potrerillo (Potrerillo del Rincón)",
      "countryCode": "MX",
      "stateCode": "GRO",
      "latitude": "16.95806000",
      "longitude": "-98.73083000"
   },
   {
      "name": "El Refugio",
      "countryCode": "MX",
      "stateCode": "GRO",
      "latitude": "17.03833000",
      "longitude": "-99.20056000"
   },
   {
      "name": "El Rincón (Santa Cruz del Rincón)",
      "countryCode": "MX",
      "stateCode": "GRO",
      "latitude": "16.99611000",
      "longitude": "-98.73528000"
   },
   {
      "name": "El Salto",
      "countryCode": "MX",
      "stateCode": "GRO",
      "latitude": "16.86460000",
      "longitude": "-99.76543000"
   },
   {
      "name": "El Súchil",
      "countryCode": "MX",
      "stateCode": "GRO",
      "latitude": "17.22694000",
      "longitude": "-100.63917000"
   },
   {
      "name": "El Tejocote",
      "countryCode": "MX",
      "stateCode": "GRO",
      "latitude": "17.32903000",
      "longitude": "-98.65866000"
   },
   {
      "name": "El Terrero",
      "countryCode": "MX",
      "stateCode": "GRO",
      "latitude": "18.12934000",
      "longitude": "-100.31819000"
   },
   {
      "name": "El Ticui",
      "countryCode": "MX",
      "stateCode": "GRO",
      "latitude": "17.21639000",
      "longitude": "-100.44472000"
   },
   {
      "name": "Escalerilla Lagunas",
      "countryCode": "MX",
      "stateCode": "GRO",
      "latitude": "17.37806000",
      "longitude": "-98.84667000"
   },
   {
      "name": "Fermín Rabadán Cervantes",
      "countryCode": "MX",
      "stateCode": "GRO",
      "latitude": "18.31528000",
      "longitude": "-99.56722000"
   },
   {
      "name": "Florencio Villarreal",
      "countryCode": "MX",
      "stateCode": "GRO",
      "latitude": "16.70143000",
      "longitude": "-99.15247000"
   },
   {
      "name": "General Canuto A. Neri",
      "countryCode": "MX",
      "stateCode": "GRO",
      "latitude": "18.43072000",
      "longitude": "-100.10110000"
   },
   {
      "name": "General Heliodoro Castillo",
      "countryCode": "MX",
      "stateCode": "GRO",
      "latitude": "17.74297000",
      "longitude": "-100.02859000"
   },
   {
      "name": "Guadalupe Victoria",
      "countryCode": "MX",
      "stateCode": "GRO",
      "latitude": "16.75611000",
      "longitude": "-98.18167000"
   },
   {
      "name": "Guayameo",
      "countryCode": "MX",
      "stateCode": "GRO",
      "latitude": "18.30407000",
      "longitude": "-101.26167000"
   },
   {
      "name": "Hacienda de Cabañas",
      "countryCode": "MX",
      "stateCode": "GRO",
      "latitude": "17.09731000",
      "longitude": "-100.47163000"
   },
   {
      "name": "Horcasitas",
      "countryCode": "MX",
      "stateCode": "GRO",
      "latitude": "16.88821000",
      "longitude": "-98.74609000"
   },
   {
      "name": "Huamuchapa",
      "countryCode": "MX",
      "stateCode": "GRO",
      "latitude": "16.94349000",
      "longitude": "-99.31884000"
   },
   {
      "name": "Huamuxtitlán",
      "countryCode": "MX",
      "stateCode": "GRO",
      "latitude": "17.78905000",
      "longitude": "-98.55569000"
   },
   {
      "name": "Huehuetán",
      "countryCode": "MX",
      "stateCode": "GRO",
      "latitude": "16.63583000",
      "longitude": "-98.55889000"
   },
   {
      "name": "Hueycantenango",
      "countryCode": "MX",
      "stateCode": "GRO",
      "latitude": "17.44873000",
      "longitude": "-99.02440000"
   },
   {
      "name": "Hueyitlalpan",
      "countryCode": "MX",
      "stateCode": "GRO",
      "latitude": "17.67528000",
      "longitude": "-99.29556000"
   },
   {
      "name": "Huitziltepec",
      "countryCode": "MX",
      "stateCode": "GRO",
      "latitude": "17.75610000",
      "longitude": "-99.47983000"
   },
   {
      "name": "Huitzuco de los Figueroa",
      "countryCode": "MX",
      "stateCode": "GRO",
      "latitude": "18.29064000",
      "longitude": "-99.26361000"
   },
   {
      "name": "Huixtepec",
      "countryCode": "MX",
      "stateCode": "GRO",
      "latitude": "16.65361000",
      "longitude": "-98.30455000"
   },
   {
      "name": "Iguala de la Independencia",
      "countryCode": "MX",
      "stateCode": "GRO",
      "latitude": "18.34536000",
      "longitude": "-99.54130000"
   },
   {
      "name": "Igualapa",
      "countryCode": "MX",
      "stateCode": "GRO",
      "latitude": "16.75528000",
      "longitude": "-98.48370000"
   },
   {
      "name": "Iliatenco",
      "countryCode": "MX",
      "stateCode": "GRO",
      "latitude": "17.03524000",
      "longitude": "-98.67721000"
   },
   {
      "name": "Ixcamilpa",
      "countryCode": "MX",
      "stateCode": "GRO",
      "latitude": "18.02769000",
      "longitude": "-98.69643000"
   },
   {
      "name": "Ixcapuzalco",
      "countryCode": "MX",
      "stateCode": "GRO",
      "latitude": "18.51204000",
      "longitude": "-99.88755000"
   },
   {
      "name": "Ixcateopan",
      "countryCode": "MX",
      "stateCode": "GRO",
      "latitude": "17.61812000",
      "longitude": "-98.51405000"
   },
   {
      "name": "Ixcateopan de Cuauhtémoc",
      "countryCode": "MX",
      "stateCode": "GRO",
      "latitude": "18.50139000",
      "longitude": "-99.79139000"
   },
   {
      "name": "Ixcatla",
      "countryCode": "MX",
      "stateCode": "GRO",
      "latitude": "17.42250000",
      "longitude": "-98.99944000"
   },
   {
      "name": "Ixtapa",
      "countryCode": "MX",
      "stateCode": "GRO",
      "latitude": "17.66782000",
      "longitude": "-101.64165000"
   },
   {
      "name": "Ixtapa-Zihuatanejo",
      "countryCode": "MX",
      "stateCode": "GRO",
      "latitude": "17.64344000",
      "longitude": "-101.55212000"
   },
   {
      "name": "Izotepec",
      "countryCode": "MX",
      "stateCode": "GRO",
      "latitude": "17.58500000",
      "longitude": "-99.95444000"
   },
   {
      "name": "Jalapa",
      "countryCode": "MX",
      "stateCode": "GRO",
      "latitude": "16.71227000",
      "longitude": "-99.05564000"
   },
   {
      "name": "Jaleaca de Catalán",
      "countryCode": "MX",
      "stateCode": "GRO",
      "latitude": "17.44636000",
      "longitude": "-99.85968000"
   },
   {
      "name": "Jicayán de Tovar",
      "countryCode": "MX",
      "stateCode": "GRO",
      "latitude": "17.12716000",
      "longitude": "-98.23622000"
   },
   {
      "name": "Jolotichán",
      "countryCode": "MX",
      "stateCode": "GRO",
      "latitude": "16.75222000",
      "longitude": "-98.73056000"
   },
   {
      "name": "Julián Blanco (Dos Caminos)",
      "countryCode": "MX",
      "stateCode": "GRO",
      "latitude": "17.21889000",
      "longitude": "-99.52472000"
   },
   {
      "name": "Kilómetro 30",
      "countryCode": "MX",
      "stateCode": "GRO",
      "latitude": "16.99778000",
      "longitude": "-99.78000000"
   },
   {
      "name": "Kilómetro 40",
      "countryCode": "MX",
      "stateCode": "GRO",
      "latitude": "17.04944000",
      "longitude": "-99.77056000"
   },
   {
      "name": "La Azozuca",
      "countryCode": "MX",
      "stateCode": "GRO",
      "latitude": "16.82139000",
      "longitude": "-99.04194000"
   },
   {
      "name": "La Concepción",
      "countryCode": "MX",
      "stateCode": "GRO",
      "latitude": "16.87867000",
      "longitude": "-99.65140000"
   },
   {
      "name": "La Concepción (La Concha)",
      "countryCode": "MX",
      "stateCode": "GRO",
      "latitude": "18.76778000",
      "longitude": "-99.69250000"
   },
   {
      "name": "La Concordia",
      "countryCode": "MX",
      "stateCode": "GRO",
      "latitude": "16.90583000",
      "longitude": "-98.97583000"
   },
   {
      "name": "La Dicha",
      "countryCode": "MX",
      "stateCode": "GRO",
      "latitude": "16.76720000",
      "longitude": "-99.01058000"
   },
   {
      "name": "La Esperanza",
      "countryCode": "MX",
      "stateCode": "GRO",
      "latitude": "17.76022000",
      "longitude": "-99.24726000"
   },
   {
      "name": "La Estación",
      "countryCode": "MX",
      "stateCode": "GRO",
      "latitude": "16.76734000",
      "longitude": "-99.66716000"
   },
   {
      "name": "La Guadalupe",
      "countryCode": "MX",
      "stateCode": "GRO",
      "latitude": "16.68883000",
      "longitude": "-98.26222000"
   },
   {
      "name": "La Luz de Juárez",
      "countryCode": "MX",
      "stateCode": "GRO",
      "latitude": "17.53500000",
      "longitude": "-98.34833000"
   },
   {
      "name": "La Mohonera",
      "countryCode": "MX",
      "stateCode": "GRO",
      "latitude": "17.63839000",
      "longitude": "-99.20222000"
   },
   {
      "name": "La Palma",
      "countryCode": "MX",
      "stateCode": "GRO",
      "latitude": "17.08148000",
      "longitude": "-99.50994000"
   },
   {
      "name": "La Soledad",
      "countryCode": "MX",
      "stateCode": "GRO",
      "latitude": "16.92000000",
      "longitude": "-98.16694000"
   },
   {
      "name": "La Unión",
      "countryCode": "MX",
      "stateCode": "GRO",
      "latitude": "17.98561000",
      "longitude": "-101.80655000"
   },
   {
      "name": "Lagunillas",
      "countryCode": "MX",
      "stateCode": "GRO",
      "latitude": "17.82438000",
      "longitude": "-101.71074000"
   },
   {
      "name": "Las Compuertas",
      "countryCode": "MX",
      "stateCode": "GRO",
      "latitude": "17.19559000",
      "longitude": "-100.00840000"
   },
   {
      "name": "Las Cruces",
      "countryCode": "MX",
      "stateCode": "GRO",
      "latitude": "16.97304000",
      "longitude": "-99.44515000"
   },
   {
      "name": "Las Lomas",
      "countryCode": "MX",
      "stateCode": "GRO",
      "latitude": "16.98194000",
      "longitude": "-100.09500000"
   },
   {
      "name": "Las Mesas",
      "countryCode": "MX",
      "stateCode": "GRO",
      "latitude": "17.00794000",
      "longitude": "-99.45786000"
   },
   {
      "name": "Las Plazuelas",
      "countryCode": "MX",
      "stateCode": "GRO",
      "latitude": "16.87417000",
      "longitude": "-99.78556000"
   },
   {
      "name": "Las Tunas",
      "countryCode": "MX",
      "stateCode": "GRO",
      "latitude": "17.11972000",
      "longitude": "-100.48311000"
   },
   {
      "name": "Las Vigas",
      "countryCode": "MX",
      "stateCode": "GRO",
      "latitude": "16.76144000",
      "longitude": "-99.22942000"
   },
   {
      "name": "Las Ánimas",
      "countryCode": "MX",
      "stateCode": "GRO",
      "latitude": "16.97284000",
      "longitude": "-99.31964000"
   },
   {
      "name": "Llano Grande",
      "countryCode": "MX",
      "stateCode": "GRO",
      "latitude": "16.94010000",
      "longitude": "-99.43353000"
   },
   {
      "name": "Llano de la Puerta",
      "countryCode": "MX",
      "stateCode": "GRO",
      "latitude": "16.74355000",
      "longitude": "-99.52721000"
   },
   {
      "name": "Lodo Grande",
      "countryCode": "MX",
      "stateCode": "GRO",
      "latitude": "17.60972000",
      "longitude": "-99.21194000"
   },
   {
      "name": "Lomas de Chapultepec",
      "countryCode": "MX",
      "stateCode": "GRO",
      "latitude": "16.71615000",
      "longitude": "-99.61021000"
   },
   {
      "name": "Lomas de San Juan",
      "countryCode": "MX",
      "stateCode": "GRO",
      "latitude": "16.98468000",
      "longitude": "-99.80384000"
   },
   {
      "name": "Los Achotes",
      "countryCode": "MX",
      "stateCode": "GRO",
      "latitude": "17.60056000",
      "longitude": "-101.41750000"
   },
   {
      "name": "Los Almendros",
      "countryCode": "MX",
      "stateCode": "GRO",
      "latitude": "17.61167000",
      "longitude": "-101.43917000"
   },
   {
      "name": "Los Liros",
      "countryCode": "MX",
      "stateCode": "GRO",
      "latitude": "16.73972000",
      "longitude": "-98.21722000"
   },
   {
      "name": "Los Mogotes",
      "countryCode": "MX",
      "stateCode": "GRO",
      "latitude": "16.94170000",
      "longitude": "-100.07653000"
   },
   {
      "name": "Los Sauces",
      "countryCode": "MX",
      "stateCode": "GRO",
      "latitude": "18.26656000",
      "longitude": "-99.83502000"
   },
   {
      "name": "Los Saucitos",
      "countryCode": "MX",
      "stateCode": "GRO",
      "latitude": "16.98549000",
      "longitude": "-99.29998000"
   },
   {
      "name": "Los Tepetates",
      "countryCode": "MX",
      "stateCode": "GRO",
      "latitude": "17.05893000",
      "longitude": "-99.24728000"
   },
   {
      "name": "Los Órganos de San Agustín",
      "countryCode": "MX",
      "stateCode": "GRO",
      "latitude": "16.93488000",
      "longitude": "-99.82329000"
   },
   {
      "name": "Malinaltepec",
      "countryCode": "MX",
      "stateCode": "GRO",
      "latitude": "17.17825000",
      "longitude": "-98.70573000"
   },
   {
      "name": "Marquelia",
      "countryCode": "MX",
      "stateCode": "GRO",
      "latitude": "16.58335000",
      "longitude": "-98.81686000"
   },
   {
      "name": "Maxela",
      "countryCode": "MX",
      "stateCode": "GRO",
      "latitude": "18.05364000",
      "longitude": "-99.59473000"
   },
   {
      "name": "Mayanalán",
      "countryCode": "MX",
      "stateCode": "GRO",
      "latitude": "18.17290000",
      "longitude": "-99.43259000"
   },
   {
      "name": "Mazatlán",
      "countryCode": "MX",
      "stateCode": "GRO",
      "latitude": "17.43620000",
      "longitude": "-99.46483000"
   },
   {
      "name": "Melchor Ocampo",
      "countryCode": "MX",
      "stateCode": "GRO",
      "latitude": "17.35895000",
      "longitude": "-98.44754000"
   },
   {
      "name": "Metlapa",
      "countryCode": "MX",
      "stateCode": "GRO",
      "latitude": "18.31019000",
      "longitude": "-99.60910000"
   },
   {
      "name": "Metlatónoc",
      "countryCode": "MX",
      "stateCode": "GRO",
      "latitude": "17.12361000",
      "longitude": "-98.55806000"
   },
   {
      "name": "Mezcala",
      "countryCode": "MX",
      "stateCode": "GRO",
      "latitude": "17.93240000",
      "longitude": "-99.60257000"
   },
   {
      "name": "Mochitlán",
      "countryCode": "MX",
      "stateCode": "GRO",
      "latitude": "17.38348000",
      "longitude": "-99.36727000"
   },
   {
      "name": "Mohoneras",
      "countryCode": "MX",
      "stateCode": "GRO",
      "latitude": "17.23500000",
      "longitude": "-99.51611000"
   },
   {
      "name": "Montecillos",
      "countryCode": "MX",
      "stateCode": "GRO",
      "latitude": "16.39106000",
      "longitude": "-98.49818000"
   },
   {
      "name": "Morelita",
      "countryCode": "MX",
      "stateCode": "GRO",
      "latitude": "18.27025000",
      "longitude": "-100.56403000"
   },
   {
      "name": "Moyotepec (Moyotepec de Juárez)",
      "countryCode": "MX",
      "stateCode": "GRO",
      "latitude": "17.33167000",
      "longitude": "-98.68556000"
   },
   {
      "name": "Nejapa",
      "countryCode": "MX",
      "stateCode": "GRO",
      "latitude": "17.61389000",
      "longitude": "-99.14500000"
   },
   {
      "name": "Nueva Frontera",
      "countryCode": "MX",
      "stateCode": "GRO",
      "latitude": "16.88806000",
      "longitude": "-99.81583000"
   },
   {
      "name": "Nuevo Balsas",
      "countryCode": "MX",
      "stateCode": "GRO",
      "latitude": "18.03253000",
      "longitude": "-99.75913000"
   },
   {
      "name": "Nuevo Guerrero",
      "countryCode": "MX",
      "stateCode": "GRO",
      "latitude": "18.22583000",
      "longitude": "-100.52583000"
   },
   {
      "name": "Nuxco",
      "countryCode": "MX",
      "stateCode": "GRO",
      "latitude": "17.20954000",
      "longitude": "-100.75622000"
   },
   {
      "name": "Ocotequila",
      "countryCode": "MX",
      "stateCode": "GRO",
      "latitude": "17.44944000",
      "longitude": "-98.67750000"
   },
   {
      "name": "Ocotillo",
      "countryCode": "MX",
      "stateCode": "GRO",
      "latitude": "17.03551000",
      "longitude": "-99.87671000"
   },
   {
      "name": "Ocotlán",
      "countryCode": "MX",
      "stateCode": "GRO",
      "latitude": "16.93947000",
      "longitude": "-99.36919000"
   },
   {
      "name": "Olinalá",
      "countryCode": "MX",
      "stateCode": "GRO",
      "latitude": "17.86441000",
      "longitude": "-98.75153000"
   },
   {
      "name": "Ometepec",
      "countryCode": "MX",
      "stateCode": "GRO",
      "latitude": "16.68044000",
      "longitude": "-98.38266000"
   },
   {
      "name": "Oxtotitlán",
      "countryCode": "MX",
      "stateCode": "GRO",
      "latitude": "18.19004000",
      "longitude": "-99.93248000"
   },
   {
      "name": "Oztotitlán",
      "countryCode": "MX",
      "stateCode": "GRO",
      "latitude": "17.67232000",
      "longitude": "-99.02464000"
   },
   {
      "name": "Paintla",
      "countryCode": "MX",
      "stateCode": "GRO",
      "latitude": "18.50333000",
      "longitude": "-99.65528000"
   },
   {
      "name": "Palmillas",
      "countryCode": "MX",
      "stateCode": "GRO",
      "latitude": "18.52202000",
      "longitude": "-99.42563000"
   },
   {
      "name": "Palo Blanco",
      "countryCode": "MX",
      "stateCode": "GRO",
      "latitude": "17.40355000",
      "longitude": "-99.46622000"
   },
   {
      "name": "Palos Blancos",
      "countryCode": "MX",
      "stateCode": "GRO",
      "latitude": "17.55851000",
      "longitude": "-101.33180000"
   },
   {
      "name": "Pantitlán",
      "countryCode": "MX",
      "stateCode": "GRO",
      "latitude": "17.63972000",
      "longitude": "-99.10972000"
   },
   {
      "name": "Pantla",
      "countryCode": "MX",
      "stateCode": "GRO",
      "latitude": "17.73861000",
      "longitude": "-101.63639000"
   },
   {
      "name": "Papanoa",
      "countryCode": "MX",
      "stateCode": "GRO",
      "latitude": "17.32551000",
      "longitude": "-101.04166000"
   },
   {
      "name": "Paraje Montero (Paraje Montero de Zaragoza)",
      "countryCode": "MX",
      "stateCode": "GRO",
      "latitude": "17.16349000",
      "longitude": "-98.70394000"
   },
   {
      "name": "Pascala del Oro",
      "countryCode": "MX",
      "stateCode": "GRO",
      "latitude": "17.05472000",
      "longitude": "-98.80972000"
   },
   {
      "name": "Paso Morelos",
      "countryCode": "MX",
      "stateCode": "GRO",
      "latitude": "18.22123000",
      "longitude": "-99.20984000"
   },
   {
      "name": "Paso de Arena",
      "countryCode": "MX",
      "stateCode": "GRO",
      "latitude": "18.30333000",
      "longitude": "-100.84639000"
   },
   {
      "name": "Patambó",
      "countryCode": "MX",
      "stateCode": "GRO",
      "latitude": "18.22377000",
      "longitude": "-100.87390000"
   },
   {
      "name": "Patlicha",
      "countryCode": "MX",
      "stateCode": "GRO",
      "latitude": "17.43944000",
      "longitude": "-98.72167000"
   },
   {
      "name": "Petacalco",
      "countryCode": "MX",
      "stateCode": "GRO",
      "latitude": "17.98167000",
      "longitude": "-102.10841000"
   },
   {
      "name": "Petaquillas",
      "countryCode": "MX",
      "stateCode": "GRO",
      "latitude": "17.48636000",
      "longitude": "-99.45633000"
   },
   {
      "name": "Petatlán",
      "countryCode": "MX",
      "stateCode": "GRO",
      "latitude": "17.53768000",
      "longitude": "-101.26798000"
   },
   {
      "name": "Pilcaya",
      "countryCode": "MX",
      "stateCode": "GRO",
      "latitude": "18.71128000",
      "longitude": "-99.62655000"
   },
   {
      "name": "Placeres del Oro",
      "countryCode": "MX",
      "stateCode": "GRO",
      "latitude": "18.23578000",
      "longitude": "-100.90200000"
   },
   {
      "name": "Platanillo",
      "countryCode": "MX",
      "stateCode": "GRO",
      "latitude": "17.06478000",
      "longitude": "-99.91088000"
   },
   {
      "name": "Pochahuizco",
      "countryCode": "MX",
      "stateCode": "GRO",
      "latitude": "17.66472000",
      "longitude": "-99.22278000"
   },
   {
      "name": "Pochotillo",
      "countryCode": "MX",
      "stateCode": "GRO",
      "latitude": "17.02075000",
      "longitude": "-99.42725000"
   },
   {
      "name": "Pochutla",
      "countryCode": "MX",
      "stateCode": "GRO",
      "latitude": "17.65907000",
      "longitude": "-98.89798000"
   },
   {
      "name": "Pololcingo",
      "countryCode": "MX",
      "stateCode": "GRO",
      "latitude": "18.28105000",
      "longitude": "-99.39254000"
   },
   {
      "name": "Pueblo Hidalgo",
      "countryCode": "MX",
      "stateCode": "GRO",
      "latitude": "16.95210000",
      "longitude": "-98.65596000"
   },
   {
      "name": "Pueblo Madero (El Playón)",
      "countryCode": "MX",
      "stateCode": "GRO",
      "latitude": "17.12611000",
      "longitude": "-99.67250000"
   },
   {
      "name": "Pueblo Viejo",
      "countryCode": "MX",
      "stateCode": "GRO",
      "latitude": "17.09774000",
      "longitude": "-99.98811000"
   },
   {
      "name": "Pungarabato",
      "countryCode": "MX",
      "stateCode": "GRO",
      "latitude": "18.34938000",
      "longitude": "-100.63890000"
   },
   {
      "name": "Quechultenango",
      "countryCode": "MX",
      "stateCode": "GRO",
      "latitude": "17.41425000",
      "longitude": "-99.24221000"
   },
   {
      "name": "Querendas",
      "countryCode": "MX",
      "stateCode": "GRO",
      "latitude": "18.34250000",
      "longitude": "-100.63444000"
   },
   {
      "name": "Quetzalapa",
      "countryCode": "MX",
      "stateCode": "GRO",
      "latitude": "16.78551000",
      "longitude": "-98.50272000"
   },
   {
      "name": "Rancho Viejo",
      "countryCode": "MX",
      "stateCode": "GRO",
      "latitude": "16.86500000",
      "longitude": "-99.28944000"
   },
   {
      "name": "Rancho Viejo (Rancho Nuevo de la Democracia)",
      "countryCode": "MX",
      "stateCode": "GRO",
      "latitude": "17.03257000",
      "longitude": "-98.22389000"
   },
   {
      "name": "Rancho de las Lomas",
      "countryCode": "MX",
      "stateCode": "GRO",
      "latitude": "17.73972000",
      "longitude": "-99.24583000"
   },
   {
      "name": "Sabanillas",
      "countryCode": "MX",
      "stateCode": "GRO",
      "latitude": "17.00038000",
      "longitude": "-99.70266000"
   },
   {
      "name": "San Agustín Oapan",
      "countryCode": "MX",
      "stateCode": "GRO",
      "latitude": "17.95250000",
      "longitude": "-99.43806000"
   },
   {
      "name": "San Andrés Playa Encantada (El Podrido)",
      "countryCode": "MX",
      "stateCode": "GRO",
      "latitude": "16.69222000",
      "longitude": "-99.63389000"
   },
   {
      "name": "San Antonio Coyahuacán",
      "countryCode": "MX",
      "stateCode": "GRO",
      "latitude": "17.86194000",
      "longitude": "-98.68000000"
   },
   {
      "name": "San Antonio de las Huertas",
      "countryCode": "MX",
      "stateCode": "GRO",
      "latitude": "18.28151000",
      "longitude": "-100.51828000"
   },
   {
      "name": "San Cristóbal",
      "countryCode": "MX",
      "stateCode": "GRO",
      "latitude": "16.82221000",
      "longitude": "-98.40283000"
   },
   {
      "name": "San Francisco",
      "countryCode": "MX",
      "stateCode": "GRO",
      "latitude": "17.00583000",
      "longitude": "-99.28306000"
   },
   {
      "name": "San Francisco Oxtutla",
      "countryCode": "MX",
      "stateCode": "GRO",
      "latitude": "17.96172000",
      "longitude": "-98.98495000"
   },
   {
      "name": "San Francisco Ozomatlán",
      "countryCode": "MX",
      "stateCode": "GRO",
      "latitude": "17.92537000",
      "longitude": "-99.33902000"
   },
   {
      "name": "San Gregorio",
      "countryCode": "MX",
      "stateCode": "GRO",
      "latitude": "18.62967000",
      "longitude": "-99.59386000"
   },
   {
      "name": "San Isidro Gallinero (El Gallinero)",
      "countryCode": "MX",
      "stateCode": "GRO",
      "latitude": "16.88139000",
      "longitude": "-99.71417000"
   },
   {
      "name": "San Jeronimito",
      "countryCode": "MX",
      "stateCode": "GRO",
      "latitude": "17.56818000",
      "longitude": "-101.34562000"
   },
   {
      "name": "San Jerónimo de Juárez",
      "countryCode": "MX",
      "stateCode": "GRO",
      "latitude": "17.13915000",
      "longitude": "-100.47067000"
   },
   {
      "name": "San Jerónimo el Grande",
      "countryCode": "MX",
      "stateCode": "GRO",
      "latitude": "18.21167000",
      "longitude": "-100.50179000"
   },
   {
      "name": "San José Ixtapa (Barrio Viejo)",
      "countryCode": "MX",
      "stateCode": "GRO",
      "latitude": "17.70222000",
      "longitude": "-101.61944000"
   },
   {
      "name": "San José Poliutla",
      "countryCode": "MX",
      "stateCode": "GRO",
      "latitude": "18.27310000",
      "longitude": "-100.39070000"
   },
   {
      "name": "San José la Hacienda",
      "countryCode": "MX",
      "stateCode": "GRO",
      "latitude": "16.97944000",
      "longitude": "-99.06667000"
   },
   {
      "name": "San Juan Totolcintla",
      "countryCode": "MX",
      "stateCode": "GRO",
      "latitude": "17.90667000",
      "longitude": "-99.32694000"
   },
   {
      "name": "San Juan de Dios (Naranjas de Dios)",
      "countryCode": "MX",
      "stateCode": "GRO",
      "latitude": "18.54972000",
      "longitude": "-99.55583000"
   },
   {
      "name": "San Lorenzo",
      "countryCode": "MX",
      "stateCode": "GRO",
      "latitude": "18.27352000",
      "longitude": "-100.61122000"
   },
   {
      "name": "San Luis Acatlán",
      "countryCode": "MX",
      "stateCode": "GRO",
      "latitude": "16.80901000",
      "longitude": "-98.73331000"
   },
   {
      "name": "San Luis San Pedro",
      "countryCode": "MX",
      "stateCode": "GRO",
      "latitude": "17.26514000",
      "longitude": "-100.88093000"
   },
   {
      "name": "San Luis de La Loma",
      "countryCode": "MX",
      "stateCode": "GRO",
      "latitude": "17.27000000",
      "longitude": "-100.89369000"
   },
   {
      "name": "San Marcos",
      "countryCode": "MX",
      "stateCode": "GRO",
      "latitude": "16.79772000",
      "longitude": "-99.38921000"
   },
   {
      "name": "San Martín",
      "countryCode": "MX",
      "stateCode": "GRO",
      "latitude": "17.46311000",
      "longitude": "-99.29436000"
   },
   {
      "name": "San Martín Pachivia (Pachivia)",
      "countryCode": "MX",
      "stateCode": "GRO",
      "latitude": "18.40855000",
      "longitude": "-99.78759000"
   },
   {
      "name": "San Martín Peras",
      "countryCode": "MX",
      "stateCode": "GRO",
      "latitude": "17.35919000",
      "longitude": "-98.23718000"
   },
   {
      "name": "San Miguel Axoxuca",
      "countryCode": "MX",
      "stateCode": "GRO",
      "latitude": "17.54930000",
      "longitude": "-98.66163000"
   },
   {
      "name": "San Miguel Tecuiciapan",
      "countryCode": "MX",
      "stateCode": "GRO",
      "latitude": "17.96218000",
      "longitude": "-99.41518000"
   },
   {
      "name": "San Miguel Totolapan",
      "countryCode": "MX",
      "stateCode": "GRO",
      "latitude": "18.16132000",
      "longitude": "-100.39049000"
   },
   {
      "name": "San Miguel de las Palmas",
      "countryCode": "MX",
      "stateCode": "GRO",
      "latitude": "18.25203000",
      "longitude": "-99.20081000"
   },
   {
      "name": "San Miguel el Grande",
      "countryCode": "MX",
      "stateCode": "GRO",
      "latitude": "17.24533000",
      "longitude": "-98.23553000"
   },
   {
      "name": "San Miguelito",
      "countryCode": "MX",
      "stateCode": "GRO",
      "latitude": "17.63583000",
      "longitude": "-101.43750000"
   },
   {
      "name": "San Nicolás",
      "countryCode": "MX",
      "stateCode": "GRO",
      "latitude": "16.41775000",
      "longitude": "-98.51923000"
   },
   {
      "name": "San Pablo Atzompa",
      "countryCode": "MX",
      "stateCode": "GRO",
      "latitude": "17.24722000",
      "longitude": "-98.37000000"
   },
   {
      "name": "San Pedro Cacahuatepec",
      "countryCode": "MX",
      "stateCode": "GRO",
      "latitude": "16.81500000",
      "longitude": "-99.66833000"
   },
   {
      "name": "San Pedro Cuitlapan",
      "countryCode": "MX",
      "stateCode": "GRO",
      "latitude": "16.97306000",
      "longitude": "-98.25167000"
   },
   {
      "name": "San Pedro Huitzapula Norte (Huitzapula Norte)",
      "countryCode": "MX",
      "stateCode": "GRO",
      "latitude": "17.42642000",
      "longitude": "-98.80588000"
   },
   {
      "name": "San Pedro las Playas",
      "countryCode": "MX",
      "stateCode": "GRO",
      "latitude": "16.82286000",
      "longitude": "-99.73158000"
   },
   {
      "name": "San Rafael",
      "countryCode": "MX",
      "stateCode": "GRO",
      "latitude": "17.22667000",
      "longitude": "-98.42417000"
   },
   {
      "name": "San Vicente",
      "countryCode": "MX",
      "stateCode": "GRO",
      "latitude": "17.51426000",
      "longitude": "-99.68377000"
   },
   {
      "name": "San Vicente Palapa",
      "countryCode": "MX",
      "stateCode": "GRO",
      "latitude": "18.32430000",
      "longitude": "-99.41104000"
   },
   {
      "name": "San Vicente Zoyatlán",
      "countryCode": "MX",
      "stateCode": "GRO",
      "latitude": "17.32250000",
      "longitude": "-98.36417000"
   },
   {
      "name": "San Ángel",
      "countryCode": "MX",
      "stateCode": "GRO",
      "latitude": "17.48193000",
      "longitude": "-99.16558000"
   },
   {
      "name": "Santa Anita",
      "countryCode": "MX",
      "stateCode": "GRO",
      "latitude": "17.42583000",
      "longitude": "-98.71889000"
   },
   {
      "name": "Santa Bárbara",
      "countryCode": "MX",
      "stateCode": "GRO",
      "latitude": "18.33082000",
      "longitude": "-100.63991000"
   },
   {
      "name": "Santa Catarina",
      "countryCode": "MX",
      "stateCode": "GRO",
      "latitude": "17.54835000",
      "longitude": "-99.17500000"
   },
   {
      "name": "Santa Cruz",
      "countryCode": "MX",
      "stateCode": "GRO",
      "latitude": "17.53310000",
      "longitude": "-98.40269000"
   },
   {
      "name": "Santa Cruz Yucucani",
      "countryCode": "MX",
      "stateCode": "GRO",
      "latitude": "17.07650000",
      "longitude": "-98.11298000"
   },
   {
      "name": "Santa Fe Tepetlapa",
      "countryCode": "MX",
      "stateCode": "GRO",
      "latitude": "18.54915000",
      "longitude": "-99.42467000"
   },
   {
      "name": "Santa María",
      "countryCode": "MX",
      "stateCode": "GRO",
      "latitude": "16.77012000",
      "longitude": "-98.39105000"
   },
   {
      "name": "Santa Teresa",
      "countryCode": "MX",
      "stateCode": "GRO",
      "latitude": "18.22966000",
      "longitude": "-99.50697000"
   },
   {
      "name": "Santiago Tilapa",
      "countryCode": "MX",
      "stateCode": "GRO",
      "latitude": "17.25889000",
      "longitude": "-98.26107000"
   },
   {
      "name": "Sinahua",
      "countryCode": "MX",
      "stateCode": "GRO",
      "latitude": "18.28111000",
      "longitude": "-100.60028000"
   },
   {
      "name": "Tanganhuato",
      "countryCode": "MX",
      "stateCode": "GRO",
      "latitude": "18.28608000",
      "longitude": "-100.61178000"
   },
   {
      "name": "Taxco el Viejo",
      "countryCode": "MX",
      "stateCode": "GRO",
      "latitude": "18.48342000",
      "longitude": "-99.58420000"
   },
   {
      "name": "Tecalpulco",
      "countryCode": "MX",
      "stateCode": "GRO",
      "latitude": "18.48808000",
      "longitude": "-99.60282000"
   },
   {
      "name": "Tecolcuautla",
      "countryCode": "MX",
      "stateCode": "GRO",
      "latitude": "17.78650000",
      "longitude": "-98.94828000"
   },
   {
      "name": "Tecuexcontitlán (Tecoescontitlán)",
      "countryCode": "MX",
      "stateCode": "GRO",
      "latitude": "18.14254000",
      "longitude": "-99.57787000"
   },
   {
      "name": "Tehuilotepec",
      "countryCode": "MX",
      "stateCode": "GRO",
      "latitude": "18.55167000",
      "longitude": "-99.58111000"
   },
   {
      "name": "Tehuixtla",
      "countryCode": "MX",
      "stateCode": "GRO",
      "latitude": "18.31680000",
      "longitude": "-99.93300000"
   },
   {
      "name": "Teloloapan",
      "countryCode": "MX",
      "stateCode": "GRO",
      "latitude": "18.35802000",
      "longitude": "-99.93621000"
   },
   {
      "name": "Tenexpa",
      "countryCode": "MX",
      "stateCode": "GRO",
      "latitude": "17.18486000",
      "longitude": "-100.67088000"
   },
   {
      "name": "Tepechicotlán",
      "countryCode": "MX",
      "stateCode": "GRO",
      "latitude": "17.48317000",
      "longitude": "-99.41549000"
   },
   {
      "name": "Tepecoacuilco de Trujano",
      "countryCode": "MX",
      "stateCode": "GRO",
      "latitude": "18.28750000",
      "longitude": "-99.46423000"
   },
   {
      "name": "Tepetixtla",
      "countryCode": "MX",
      "stateCode": "GRO",
      "latitude": "17.21541000",
      "longitude": "-100.11771000"
   },
   {
      "name": "Tepozcuautla",
      "countryCode": "MX",
      "stateCode": "GRO",
      "latitude": "17.62222000",
      "longitude": "-99.22778000"
   },
   {
      "name": "Tequicuilco",
      "countryCode": "MX",
      "stateCode": "GRO",
      "latitude": "18.10387000",
      "longitude": "-99.19812000"
   },
   {
      "name": "Tetipac",
      "countryCode": "MX",
      "stateCode": "GRO",
      "latitude": "18.65209000",
      "longitude": "-99.67783000"
   },
   {
      "name": "Tetitlán",
      "countryCode": "MX",
      "stateCode": "GRO",
      "latitude": "17.15899000",
      "longitude": "-100.63981000"
   },
   {
      "name": "Texca",
      "countryCode": "MX",
      "stateCode": "GRO",
      "latitude": "17.01170000",
      "longitude": "-99.82474000"
   },
   {
      "name": "Tierra Colorada",
      "countryCode": "MX",
      "stateCode": "GRO",
      "latitude": "17.16571000",
      "longitude": "-99.52791000"
   },
   {
      "name": "Tixtla de Guerrero",
      "countryCode": "MX",
      "stateCode": "GRO",
      "latitude": "17.56732000",
      "longitude": "-99.39799000"
   },
   {
      "name": "Tixtlancingo",
      "countryCode": "MX",
      "stateCode": "GRO",
      "latitude": "17.05780000",
      "longitude": "-99.96177000"
   },
   {
      "name": "Tlacoachistlahuaca",
      "countryCode": "MX",
      "stateCode": "GRO",
      "latitude": "16.92618000",
      "longitude": "-98.25896000"
   },
   {
      "name": "Tlacoapa",
      "countryCode": "MX",
      "stateCode": "GRO",
      "latitude": "17.24642000",
      "longitude": "-98.76947000"
   },
   {
      "name": "Tlacoaxtla",
      "countryCode": "MX",
      "stateCode": "GRO",
      "latitude": "17.55485000",
      "longitude": "-99.20081000"
   },
   {
      "name": "Tlacotepec",
      "countryCode": "MX",
      "stateCode": "GRO",
      "latitude": "17.78978000",
      "longitude": "-99.97961000"
   },
   {
      "name": "Tlahuapa",
      "countryCode": "MX",
      "stateCode": "GRO",
      "latitude": "17.37500000",
      "longitude": "-98.33750000"
   },
   {
      "name": "Tlalchapa",
      "countryCode": "MX",
      "stateCode": "GRO",
      "latitude": "18.42915000",
      "longitude": "-100.45396000"
   },
   {
      "name": "Tlalcozotitlán",
      "countryCode": "MX",
      "stateCode": "GRO",
      "latitude": "17.88355000",
      "longitude": "-99.13083000"
   },
   {
      "name": "Tlalixtaquilla",
      "countryCode": "MX",
      "stateCode": "GRO",
      "latitude": "17.57674000",
      "longitude": "-98.36727000"
   },
   {
      "name": "Tlaltempanapa",
      "countryCode": "MX",
      "stateCode": "GRO",
      "latitude": "17.73611000",
      "longitude": "-99.17722000"
   },
   {
      "name": "Tlamacazapa",
      "countryCode": "MX",
      "stateCode": "GRO",
      "latitude": "18.49649000",
      "longitude": "-99.50037000"
   },
   {
      "name": "Tlamixtlahuacan",
      "countryCode": "MX",
      "stateCode": "GRO",
      "latitude": "17.50306000",
      "longitude": "-99.22583000"
   },
   {
      "name": "Tlanipatla",
      "countryCode": "MX",
      "stateCode": "GRO",
      "latitude": "17.80806000",
      "longitude": "-99.45139000"
   },
   {
      "name": "Tlapa de Comonfort",
      "countryCode": "MX",
      "stateCode": "GRO",
      "latitude": "17.54528000",
      "longitude": "-98.57599000"
   },
   {
      "name": "Tlapehuala",
      "countryCode": "MX",
      "stateCode": "GRO",
      "latitude": "18.27215000",
      "longitude": "-100.45164000"
   },
   {
      "name": "Tlaquiltepec",
      "countryCode": "MX",
      "stateCode": "GRO",
      "latitude": "17.73143000",
      "longitude": "-98.54736000"
   },
   {
      "name": "Tlatlauquitepec",
      "countryCode": "MX",
      "stateCode": "GRO",
      "latitude": "17.54825000",
      "longitude": "-98.82711000"
   },
   {
      "name": "Tlatzala",
      "countryCode": "MX",
      "stateCode": "GRO",
      "latitude": "17.61498000",
      "longitude": "-98.54970000"
   },
   {
      "name": "Tlaxcalixtlahuaca",
      "countryCode": "MX",
      "stateCode": "GRO",
      "latitude": "16.98179000",
      "longitude": "-98.77843000"
   },
   {
      "name": "Tlaxinga (Clatzinga)",
      "countryCode": "MX",
      "stateCode": "GRO",
      "latitude": "17.52106000",
      "longitude": "-99.19331000"
   },
   {
      "name": "Tlaxmalac",
      "countryCode": "MX",
      "stateCode": "GRO",
      "latitude": "18.36115000",
      "longitude": "-99.41316000"
   },
   {
      "name": "Tonalapa",
      "countryCode": "MX",
      "stateCode": "GRO",
      "latitude": "17.49056000",
      "longitude": "-99.24194000"
   },
   {
      "name": "Tonalapa del Sur",
      "countryCode": "MX",
      "stateCode": "GRO",
      "latitude": "18.09766000",
      "longitude": "-99.55938000"
   },
   {
      "name": "Tonalá",
      "countryCode": "MX",
      "stateCode": "GRO",
      "latitude": "16.86167000",
      "longitude": "-99.05444000"
   },
   {
      "name": "Topiltepec",
      "countryCode": "MX",
      "stateCode": "GRO",
      "latitude": "17.65037000",
      "longitude": "-99.22252000"
   },
   {
      "name": "Totomixtlahuaca",
      "countryCode": "MX",
      "stateCode": "GRO",
      "latitude": "17.15819000",
      "longitude": "-98.80317000"
   },
   {
      "name": "Tototepec",
      "countryCode": "MX",
      "stateCode": "GRO",
      "latitude": "17.43227000",
      "longitude": "-98.58715000"
   },
   {
      "name": "Tres Palos",
      "countryCode": "MX",
      "stateCode": "GRO",
      "latitude": "16.82959000",
      "longitude": "-99.77813000"
   },
   {
      "name": "Tulimán",
      "countryCode": "MX",
      "stateCode": "GRO",
      "latitude": "18.02865000",
      "longitude": "-99.25572000"
   },
   {
      "name": "Tuncingo",
      "countryCode": "MX",
      "stateCode": "GRO",
      "latitude": "16.85083000",
      "longitude": "-99.78917000"
   },
   {
      "name": "Tutepec",
      "countryCode": "MX",
      "stateCode": "GRO",
      "latitude": "16.92167000",
      "longitude": "-99.15639000"
   },
   {
      "name": "Tuxpan",
      "countryCode": "MX",
      "stateCode": "GRO",
      "latitude": "18.34933000",
      "longitude": "-99.47965000"
   },
   {
      "name": "Técpan de Galeana",
      "countryCode": "MX",
      "stateCode": "GRO",
      "latitude": "17.21976000",
      "longitude": "-100.63032000"
   },
   {
      "name": "Valle Luz",
      "countryCode": "MX",
      "stateCode": "GRO",
      "latitude": "18.13071000",
      "longitude": "-100.33983000"
   },
   {
      "name": "Valle del Río",
      "countryCode": "MX",
      "stateCode": "GRO",
      "latitude": "16.97607000",
      "longitude": "-99.93639000"
   },
   {
      "name": "Vallecitos de Zaragoza",
      "countryCode": "MX",
      "stateCode": "GRO",
      "latitude": "17.92028000",
      "longitude": "-101.32361000"
   },
   {
      "name": "Villa Hermosa",
      "countryCode": "MX",
      "stateCode": "GRO",
      "latitude": "16.93861000",
      "longitude": "-99.33000000"
   },
   {
      "name": "Villa Hermosa (Las Pozas)",
      "countryCode": "MX",
      "stateCode": "GRO",
      "latitude": "17.63361000",
      "longitude": "-101.46639000"
   },
   {
      "name": "Villa Hidalgo (El Cubo)",
      "countryCode": "MX",
      "stateCode": "GRO",
      "latitude": "18.16167000",
      "longitude": "-100.31500000"
   },
   {
      "name": "Villa Madero",
      "countryCode": "MX",
      "stateCode": "GRO",
      "latitude": "18.41120000",
      "longitude": "-100.44857000"
   },
   {
      "name": "Villa Nicolás Bravo",
      "countryCode": "MX",
      "stateCode": "GRO",
      "latitude": "18.21426000",
      "longitude": "-100.54790000"
   },
   {
      "name": "Villa Rotaria",
      "countryCode": "MX",
      "stateCode": "GRO",
      "latitude": "17.19444000",
      "longitude": "-100.66917000"
   },
   {
      "name": "Xalatzala",
      "countryCode": "MX",
      "stateCode": "GRO",
      "latitude": "17.47355000",
      "longitude": "-98.57355000"
   },
   {
      "name": "Xalitla",
      "countryCode": "MX",
      "stateCode": "GRO",
      "latitude": "17.99744000",
      "longitude": "-99.54438000"
   },
   {
      "name": "Xalpatlahuac",
      "countryCode": "MX",
      "stateCode": "GRO",
      "latitude": "17.47066000",
      "longitude": "-98.60675000"
   },
   {
      "name": "Xaltianguis",
      "countryCode": "MX",
      "stateCode": "GRO",
      "latitude": "17.09834000",
      "longitude": "-99.71557000"
   },
   {
      "name": "Xochapa",
      "countryCode": "MX",
      "stateCode": "GRO",
      "latitude": "17.38398000",
      "longitude": "-98.45103000"
   },
   {
      "name": "Xochihuehuetlán",
      "countryCode": "MX",
      "stateCode": "GRO",
      "latitude": "17.89242000",
      "longitude": "-98.47886000"
   },
   {
      "name": "Xochipala",
      "countryCode": "MX",
      "stateCode": "GRO",
      "latitude": "17.81180000",
      "longitude": "-99.63977000"
   },
   {
      "name": "Xochistlahuaca",
      "countryCode": "MX",
      "stateCode": "GRO",
      "latitude": "16.81680000",
      "longitude": "-98.18687000"
   },
   {
      "name": "Xochitepec",
      "countryCode": "MX",
      "stateCode": "GRO",
      "latitude": "17.18250000",
      "longitude": "-99.22639000"
   },
   {
      "name": "Xocoyolzintla",
      "countryCode": "MX",
      "stateCode": "GRO",
      "latitude": "17.71278000",
      "longitude": "-98.98194000"
   },
   {
      "name": "Yetla",
      "countryCode": "MX",
      "stateCode": "GRO",
      "latitude": "16.99355000",
      "longitude": "-100.00328000"
   },
   {
      "name": "Yetlancingo",
      "countryCode": "MX",
      "stateCode": "GRO",
      "latitude": "17.72130000",
      "longitude": "-99.11538000"
   },
   {
      "name": "Yextla",
      "countryCode": "MX",
      "stateCode": "GRO",
      "latitude": "17.60446000",
      "longitude": "-99.93446000"
   },
   {
      "name": "Yoloxóchitl",
      "countryCode": "MX",
      "stateCode": "GRO",
      "latitude": "16.81605000",
      "longitude": "-98.68627000"
   },
   {
      "name": "Zacacoyuca",
      "countryCode": "MX",
      "stateCode": "GRO",
      "latitude": "18.25029000",
      "longitude": "-99.52763000"
   },
   {
      "name": "Zacapuato",
      "countryCode": "MX",
      "stateCode": "GRO",
      "latitude": "18.66867000",
      "longitude": "-100.60653000"
   },
   {
      "name": "Zacatula",
      "countryCode": "MX",
      "stateCode": "GRO",
      "latitude": "18.00983000",
      "longitude": "-102.17946000"
   },
   {
      "name": "Zacoalpan",
      "countryCode": "MX",
      "stateCode": "GRO",
      "latitude": "16.74491000",
      "longitude": "-98.28763000"
   },
   {
      "name": "Zacualpan",
      "countryCode": "MX",
      "stateCode": "GRO",
      "latitude": "17.08895000",
      "longitude": "-100.32590000"
   },
   {
      "name": "Zapotitlán Tablas",
      "countryCode": "MX",
      "stateCode": "GRO",
      "latitude": "17.42417000",
      "longitude": "-98.78056000"
   },
   {
      "name": "Zelocotitlán",
      "countryCode": "MX",
      "stateCode": "GRO",
      "latitude": "17.44640000",
      "longitude": "-99.10620000"
   },
   {
      "name": "Zilacayotitlán",
      "countryCode": "MX",
      "stateCode": "GRO",
      "latitude": "17.29491000",
      "longitude": "-98.54976000"
   },
   {
      "name": "Zirándaro",
      "countryCode": "MX",
      "stateCode": "GRO",
      "latitude": "18.36395000",
      "longitude": "-101.19046000"
   },
   {
      "name": "Zirándaro de los Chávez",
      "countryCode": "MX",
      "stateCode": "GRO",
      "latitude": "18.47622000",
      "longitude": "-100.97915000"
   },
   {
      "name": "Zitlala",
      "countryCode": "MX",
      "stateCode": "GRO",
      "latitude": "17.71969000",
      "longitude": "-99.19569000"
   },
   {
      "name": "Zizicazapa",
      "countryCode": "MX",
      "stateCode": "GRO",
      "latitude": "17.51556000",
      "longitude": "-99.15250000"
   },
   {
      "name": "Zoquiapa",
      "countryCode": "MX",
      "stateCode": "GRO",
      "latitude": "17.54472000",
      "longitude": "-99.27694000"
   },
   {
      "name": "Zoquitlán",
      "countryCode": "MX",
      "stateCode": "GRO",
      "latitude": "17.34194000",
      "longitude": "-98.94917000"
   },
   {
      "name": "Zotoltitlán",
      "countryCode": "MX",
      "stateCode": "GRO",
      "latitude": "17.71426000",
      "longitude": "-99.29177000"
   },
   {
      "name": "Zoyatlán",
      "countryCode": "MX",
      "stateCode": "GRO",
      "latitude": "16.70917000",
      "longitude": "-98.73349000"
   },
   {
      "name": "Zumpango",
      "countryCode": "MX",
      "stateCode": "GRO",
      "latitude": "17.93521000",
      "longitude": "-98.68304000"
   },
   {
      "name": "Zumpango del Río",
      "countryCode": "MX",
      "stateCode": "GRO",
      "latitude": "17.65437000",
      "longitude": "-99.52725000"
   }
]