[
   {
      "name": "Bardaskan",
      "countryCode": "IR",
      "stateCode": "09",
      "latitude": "35.26667000",
      "longitude": "57.48333000"
   },
   {
      "name": "Chenārān",
      "countryCode": "IR",
      "stateCode": "09",
      "latitude": "36.64546000",
      "longitude": "59.12123000"
   },
   {
      "name": "Dargaz",
      "countryCode": "IR",
      "stateCode": "09",
      "latitude": "37.33333000",
      "longitude": "59.08333000"
   },
   {
      "name": "Dāvarzan",
      "countryCode": "IR",
      "stateCode": "09",
      "latitude": "36.33333000",
      "longitude": "56.83333000"
   },
   {
      "name": "Gonābād",
      "countryCode": "IR",
      "stateCode": "09",
      "latitude": "34.35287000",
      "longitude": "58.68365000"
   },
   {
      "name": "Joveyn",
      "countryCode": "IR",
      "stateCode": "09",
      "latitude": "36.58333000",
      "longitude": "57.51667000"
   },
   {
      "name": "Kāshmar",
      "countryCode": "IR",
      "stateCode": "09",
      "latitude": "35.23831000",
      "longitude": "58.46558000"
   },
   {
      "name": "Mashhad",
      "countryCode": "IR",
      "stateCode": "09",
      "latitude": "36.31559000",
      "longitude": "59.56796000"
   },
   {
      "name": "Neyshābūr",
      "countryCode": "IR",
      "stateCode": "09",
      "latitude": "36.21329000",
      "longitude": "58.79575000"
   },
   {
      "name": "Qūchān",
      "countryCode": "IR",
      "stateCode": "09",
      "latitude": "37.10600000",
      "longitude": "58.50955000"
   },
   {
      "name": "Sabzevar",
      "countryCode": "IR",
      "stateCode": "09",
      "latitude": "36.21260000",
      "longitude": "57.68191000"
   },
   {
      "name": "Sarakhs",
      "countryCode": "IR",
      "stateCode": "09",
      "latitude": "36.54490000",
      "longitude": "61.15770000"
   },
   {
      "name": "Shahrestān-e Bajestān",
      "countryCode": "IR",
      "stateCode": "09",
      "latitude": "34.58333000",
      "longitude": "58.13333000"
   },
   {
      "name": "Shahrestān-e Bākharz",
      "countryCode": "IR",
      "stateCode": "09",
      "latitude": "35.01667000",
      "longitude": "60.28333000"
   },
   {
      "name": "Shahrestān-e Bīnālūd",
      "countryCode": "IR",
      "stateCode": "09",
      "latitude": "36.26667000",
      "longitude": "59.33333000"
   },
   {
      "name": "Shahrestān-e Chenārān",
      "countryCode": "IR",
      "stateCode": "09",
      "latitude": "36.66667000",
      "longitude": "59.15000000"
   },
   {
      "name": "Shahrestān-e Farīmān",
      "countryCode": "IR",
      "stateCode": "09",
      "latitude": "35.70000000",
      "longitude": "59.83333000"
   },
   {
      "name": "Shahrestān-e Fīrūzeh",
      "countryCode": "IR",
      "stateCode": "09",
      "latitude": "36.30000000",
      "longitude": "58.41667000"
   },
   {
      "name": "Shahrestān-e Gonābād",
      "countryCode": "IR",
      "stateCode": "09",
      "latitude": "34.38333000",
      "longitude": "58.95000000"
   },
   {
      "name": "Shahrestān-e Joghatāy",
      "countryCode": "IR",
      "stateCode": "09",
      "latitude": "36.66667000",
      "longitude": "57.03333000"
   },
   {
      "name": "Shahrestān-e Kalāt",
      "countryCode": "IR",
      "stateCode": "09",
      "latitude": "36.90000000",
      "longitude": "59.90000000"
   },
   {
      "name": "Shahrestān-e Khalīlābād",
      "countryCode": "IR",
      "stateCode": "09",
      "latitude": "35.11667000",
      "longitude": "58.20000000"
   },
   {
      "name": "Shahrestān-e Khowshāb",
      "countryCode": "IR",
      "stateCode": "09",
      "latitude": "36.43333000",
      "longitude": "58.06667000"
   },
   {
      "name": "Shahrestān-e Khvāf",
      "countryCode": "IR",
      "stateCode": "09",
      "latitude": "34.50000000",
      "longitude": "60.00000000"
   },
   {
      "name": "Shahrestān-e Kāshmar",
      "countryCode": "IR",
      "stateCode": "09",
      "latitude": "35.43333000",
      "longitude": "58.48333000"
   },
   {
      "name": "Shahrestān-e Mah Velāt",
      "countryCode": "IR",
      "stateCode": "09",
      "latitude": "34.98333000",
      "longitude": "58.78333000"
   },
   {
      "name": "Shahrestān-e Neyshābūr",
      "countryCode": "IR",
      "stateCode": "09",
      "latitude": "36.21667000",
      "longitude": "58.88333000"
   },
   {
      "name": "Shahrestān-e Qūchān",
      "countryCode": "IR",
      "stateCode": "09",
      "latitude": "37.06667000",
      "longitude": "58.65000000"
   },
   {
      "name": "Shahrestān-e Roshtkhvār",
      "countryCode": "IR",
      "stateCode": "09",
      "latitude": "34.91667000",
      "longitude": "59.36667000"
   },
   {
      "name": "Shahrestān-e Sabzevār",
      "countryCode": "IR",
      "stateCode": "09",
      "latitude": "36.01667000",
      "longitude": "57.41667000"
   },
   {
      "name": "Shahrestān-e Torbat-e Jām",
      "countryCode": "IR",
      "stateCode": "09",
      "latitude": "35.46667000",
      "longitude": "60.78333000"
   },
   {
      "name": "Shahrestān-e Torbat-e Ḩeydarīyeh",
      "countryCode": "IR",
      "stateCode": "09",
      "latitude": "35.46667000",
      "longitude": "59.10000000"
   },
   {
      "name": "Shahrestān-e Tāybād",
      "countryCode": "IR",
      "stateCode": "09",
      "latitude": "34.73333000",
      "longitude": "60.73333000"
   },
   {
      "name": "Shahrestān-e Zāveh",
      "countryCode": "IR",
      "stateCode": "09",
      "latitude": "35.28333000",
      "longitude": "59.73333000"
   },
   {
      "name": "Torbat-e Jām",
      "countryCode": "IR",
      "stateCode": "09",
      "latitude": "35.24400000",
      "longitude": "60.62250000"
   },
   {
      "name": "Torbat-e Ḩeydarīyeh",
      "countryCode": "IR",
      "stateCode": "09",
      "latitude": "35.27401000",
      "longitude": "59.21949000"
   },
   {
      "name": "Tāybād",
      "countryCode": "IR",
      "stateCode": "09",
      "latitude": "34.74000000",
      "longitude": "60.77560000"
   }
]