[
   {
      "name": "Ahuas",
      "countryCode": "HN",
      "stateCode": "GD",
      "latitude": "15.46923000",
      "longitude": "-84.34479000"
   },
   {
      "name": "Auas",
      "countryCode": "HN",
      "stateCode": "GD",
      "latitude": "15.48333000",
      "longitude": "-84.33333000"
   },
   {
      "name": "Auka",
      "countryCode": "HN",
      "stateCode": "GD",
      "latitude": "14.94087000",
      "longitude": "-83.83229000"
   },
   {
      "name": "Barra Patuca",
      "countryCode": "HN",
      "stateCode": "GD",
      "latitude": "15.80000000",
      "longitude": "-84.28333000"
   },
   {
      "name": "Brus Laguna",
      "countryCode": "HN",
      "stateCode": "GD",
      "latitude": "15.75000000",
      "longitude": "-84.48333000"
   },
   {
      "name": "Iralaya",
      "countryCode": "HN",
      "stateCode": "GD",
      "latitude": "15.00000000",
      "longitude": "-83.23333000"
   },
   {
      "name": "Juan Francisco Bulnes",
      "countryCode": "HN",
      "stateCode": "GD",
      "latitude": "15.91676000",
      "longitude": "-84.90990000"
   },
   {
      "name": "Paptalaya",
      "countryCode": "HN",
      "stateCode": "GD",
      "latitude": "15.50000000",
      "longitude": "-84.31667000"
   },
   {
      "name": "Puerto Lempira",
      "countryCode": "HN",
      "stateCode": "GD",
      "latitude": "15.26667000",
      "longitude": "-83.77222000"
   },
   {
      "name": "Villeda Morales",
      "countryCode": "HN",
      "stateCode": "GD",
      "latitude": "15.08472000",
      "longitude": "-83.35361000"
   },
   {
      "name": "Wampusirpi",
      "countryCode": "HN",
      "stateCode": "GD",
      "latitude": "15.18333000",
      "longitude": "-84.61667000"
   },
   {
      "name": "Wawina",
      "countryCode": "HN",
      "stateCode": "GD",
      "latitude": "15.41667000",
      "longitude": "-84.43333000"
   }
]