[
   {
      "name": "Daitō Shi",
      "countryCode": "JP",
      "stateCode": "27",
      "latitude": "34.71284000",
      "longitude": "135.63576000"
   },
   {
      "name": "Daitōchō",
      "countryCode": "JP",
      "stateCode": "27",
      "latitude": "34.71378000",
      "longitude": "135.62033000"
   },
   {
      "name": "Fujiidera-shi",
      "countryCode": "JP",
      "stateCode": "27",
      "latitude": "34.57422000",
      "longitude": "135.59730000"
   },
   {
      "name": "Habikino-shi",
      "countryCode": "JP",
      "stateCode": "27",
      "latitude": "34.55775000",
      "longitude": "135.60631000"
   },
   {
      "name": "Hannan",
      "countryCode": "JP",
      "stateCode": "27",
      "latitude": "34.33333000",
      "longitude": "135.25000000"
   },
   {
      "name": "Hannan Shi",
      "countryCode": "JP",
      "stateCode": "27",
      "latitude": "34.33115000",
      "longitude": "135.23521000"
   },
   {
      "name": "Higashiōsaka Shi",
      "countryCode": "JP",
      "stateCode": "27",
      "latitude": "34.67112000",
      "longitude": "135.61760000"
   },
   {
      "name": "Hirakata",
      "countryCode": "JP",
      "stateCode": "27",
      "latitude": "34.81352000",
      "longitude": "135.64914000"
   },
   {
      "name": "Hirakata Shi",
      "countryCode": "JP",
      "stateCode": "27",
      "latitude": "34.81762000",
      "longitude": "135.68171000"
   },
   {
      "name": "Ibaraki",
      "countryCode": "JP",
      "stateCode": "27",
      "latitude": "34.81641000",
      "longitude": "135.56828000"
   },
   {
      "name": "Ibaraki Shi",
      "countryCode": "JP",
      "stateCode": "27",
      "latitude": "34.85588000",
      "longitude": "135.54998000"
   },
   {
      "name": "Ikeda",
      "countryCode": "JP",
      "stateCode": "27",
      "latitude": "34.82208000",
      "longitude": "135.42980000"
   },
   {
      "name": "Ikeda Shi",
      "countryCode": "JP",
      "stateCode": "27",
      "latitude": "34.83443000",
      "longitude": "135.43825000"
   },
   {
      "name": "Izumi",
      "countryCode": "JP",
      "stateCode": "27",
      "latitude": "34.48333000",
      "longitude": "135.43333000"
   },
   {
      "name": "Izumi Shi",
      "countryCode": "JP",
      "stateCode": "27",
      "latitude": "34.43135000",
      "longitude": "135.47164000"
   },
   {
      "name": "Izumisano",
      "countryCode": "JP",
      "stateCode": "27",
      "latitude": "34.41667000",
      "longitude": "135.31667000"
   },
   {
      "name": "Izumisano Shi",
      "countryCode": "JP",
      "stateCode": "27",
      "latitude": "34.37398000",
      "longitude": "135.33682000"
   },
   {
      "name": "Izumiōtsu",
      "countryCode": "JP",
      "stateCode": "27",
      "latitude": "34.50000000",
      "longitude": "135.40000000"
   },
   {
      "name": "Izumiōtsu Shi",
      "countryCode": "JP",
      "stateCode": "27",
      "latitude": "34.50647000",
      "longitude": "135.40462000"
   },
   {
      "name": "Kadoma",
      "countryCode": "JP",
      "stateCode": "27",
      "latitude": "34.73810000",
      "longitude": "135.57442000"
   },
   {
      "name": "Kadoma Shi",
      "countryCode": "JP",
      "stateCode": "27",
      "latitude": "34.73215000",
      "longitude": "135.59935000"
   },
   {
      "name": "Kaizuka",
      "countryCode": "JP",
      "stateCode": "27",
      "latitude": "34.45000000",
      "longitude": "135.35000000"
   },
   {
      "name": "Kaizuka Shi",
      "countryCode": "JP",
      "stateCode": "27",
      "latitude": "34.40105000",
      "longitude": "135.38510000"
   },
   {
      "name": "Kashihara",
      "countryCode": "JP",
      "stateCode": "27",
      "latitude": "34.58333000",
      "longitude": "135.61667000"
   },
   {
      "name": "Kashiwara-shi",
      "countryCode": "JP",
      "stateCode": "27",
      "latitude": "34.57920000",
      "longitude": "135.62867000"
   },
   {
      "name": "Katano Shi",
      "countryCode": "JP",
      "stateCode": "27",
      "latitude": "34.77215000",
      "longitude": "135.68693000"
   },
   {
      "name": "Kawachi-nagano Shi",
      "countryCode": "JP",
      "stateCode": "27",
      "latitude": "34.40547000",
      "longitude": "135.56692000"
   },
   {
      "name": "Kishiwada",
      "countryCode": "JP",
      "stateCode": "27",
      "latitude": "34.46667000",
      "longitude": "135.36667000"
   },
   {
      "name": "Kishiwada Shi",
      "countryCode": "JP",
      "stateCode": "27",
      "latitude": "34.42747000",
      "longitude": "135.41605000"
   },
   {
      "name": "Matsubara",
      "countryCode": "JP",
      "stateCode": "27",
      "latitude": "34.56667000",
      "longitude": "135.55000000"
   },
   {
      "name": "Matsubara-shi",
      "countryCode": "JP",
      "stateCode": "27",
      "latitude": "34.57726000",
      "longitude": "135.55206000"
   },
   {
      "name": "Mino",
      "countryCode": "JP",
      "stateCode": "27",
      "latitude": "34.82691000",
      "longitude": "135.47057000"
   },
   {
      "name": "Minoo Shi",
      "countryCode": "JP",
      "stateCode": "27",
      "latitude": "34.85590000",
      "longitude": "135.47926000"
   },
   {
      "name": "Mishima-gun",
      "countryCode": "JP",
      "stateCode": "27",
      "latitude": "34.89887000",
      "longitude": "135.65325000"
   },
   {
      "name": "Moriguchi",
      "countryCode": "JP",
      "stateCode": "27",
      "latitude": "34.73333000",
      "longitude": "135.56667000"
   },
   {
      "name": "Neyagawa",
      "countryCode": "JP",
      "stateCode": "27",
      "latitude": "34.76615000",
      "longitude": "135.62759000"
   },
   {
      "name": "Neyagawa Shi",
      "countryCode": "JP",
      "stateCode": "27",
      "latitude": "34.76539000",
      "longitude": "135.62696000"
   },
   {
      "name": "Osaka",
      "countryCode": "JP",
      "stateCode": "27",
      "latitude": "34.69374000",
      "longitude": "135.50218000"
   },
   {
      "name": "Sakai",
      "countryCode": "JP",
      "stateCode": "27",
      "latitude": "34.58333000",
      "longitude": "135.46667000"
   },
   {
      "name": "Sakai Shi",
      "countryCode": "JP",
      "stateCode": "27",
      "latitude": "34.53166000",
      "longitude": "135.49460000"
   },
   {
      "name": "Sennan Shi",
      "countryCode": "JP",
      "stateCode": "27",
      "latitude": "34.35164000",
      "longitude": "135.29176000"
   },
   {
      "name": "Settsu Shi",
      "countryCode": "JP",
      "stateCode": "27",
      "latitude": "34.77220000",
      "longitude": "135.56824000"
   },
   {
      "name": "Shijonawate Shi",
      "countryCode": "JP",
      "stateCode": "27",
      "latitude": "34.73242000",
      "longitude": "135.66784000"
   },
   {
      "name": "Suita",
      "countryCode": "JP",
      "stateCode": "27",
      "latitude": "34.76143000",
      "longitude": "135.51567000"
   },
   {
      "name": "Suita Shi",
      "countryCode": "JP",
      "stateCode": "27",
      "latitude": "34.78556000",
      "longitude": "135.51909000"
   },
   {
      "name": "Tajiri",
      "countryCode": "JP",
      "stateCode": "27",
      "latitude": "34.42695000",
      "longitude": "135.24552000"
   },
   {
      "name": "Takaishi",
      "countryCode": "JP",
      "stateCode": "27",
      "latitude": "34.51667000",
      "longitude": "135.43333000"
   },
   {
      "name": "Takaishi Shi",
      "countryCode": "JP",
      "stateCode": "27",
      "latitude": "34.52868000",
      "longitude": "135.42958000"
   },
   {
      "name": "Takatsuki",
      "countryCode": "JP",
      "stateCode": "27",
      "latitude": "34.84833000",
      "longitude": "135.61678000"
   },
   {
      "name": "Takatsuki Shi",
      "countryCode": "JP",
      "stateCode": "27",
      "latitude": "34.88079000",
      "longitude": "135.60792000"
   },
   {
      "name": "Tondabayashi Shi",
      "countryCode": "JP",
      "stateCode": "27",
      "latitude": "34.48882000",
      "longitude": "135.59431000"
   },
   {
      "name": "Tondabayashichō",
      "countryCode": "JP",
      "stateCode": "27",
      "latitude": "34.50065000",
      "longitude": "135.60211000"
   },
   {
      "name": "Toyonaka",
      "countryCode": "JP",
      "stateCode": "27",
      "latitude": "34.78244000",
      "longitude": "135.46932000"
   },
   {
      "name": "Toyonaka Shi",
      "countryCode": "JP",
      "stateCode": "27",
      "latitude": "34.78191000",
      "longitude": "135.47276000"
   },
   {
      "name": "Yao",
      "countryCode": "JP",
      "stateCode": "27",
      "latitude": "34.61667000",
      "longitude": "135.60000000"
   },
   {
      "name": "Yao-shi",
      "countryCode": "JP",
      "stateCode": "27",
      "latitude": "34.62629000",
      "longitude": "135.60099000"
   },
   {
      "name": "Ōsaka-sayama Shi",
      "countryCode": "JP",
      "stateCode": "27",
      "latitude": "34.49645000",
      "longitude": "135.54894000"
   }
]