[
   {
      "name": "Belomorsk",
      "countryCode": "RU",
      "stateCode": "KR",
      "latitude": "64.52322000",
      "longitude": "34.76680000"
   },
   {
      "name": "Borovoy",
      "countryCode": "RU",
      "stateCode": "KR",
      "latitude": "64.61210000",
      "longitude": "32.24968000"
   },
   {
      "name": "Chupa",
      "countryCode": "RU",
      "stateCode": "KR",
      "latitude": "66.27001000",
      "longitude": "33.05486000"
   },
   {
      "name": "Essoyla",
      "countryCode": "RU",
      "stateCode": "KR",
      "latitude": "61.86983000",
      "longitude": "33.14901000"
   },
   {
      "name": "Girvas",
      "countryCode": "RU",
      "stateCode": "KR",
      "latitude": "62.47962000",
      "longitude": "33.68482000"
   },
   {
      "name": "Kalevala",
      "countryCode": "RU",
      "stateCode": "KR",
      "latitude": "65.19873000",
      "longitude": "31.18999000"
   },
   {
      "name": "Kem’",
      "countryCode": "RU",
      "stateCode": "KR",
      "latitude": "64.95546000",
      "longitude": "34.57929000"
   },
   {
      "name": "Kharlu",
      "countryCode": "RU",
      "stateCode": "KR",
      "latitude": "61.80000000",
      "longitude": "30.95000000"
   },
   {
      "name": "Khelyulya",
      "countryCode": "RU",
      "stateCode": "KR",
      "latitude": "61.74900000",
      "longitude": "30.66473000"
   },
   {
      "name": "Kondopoga",
      "countryCode": "RU",
      "stateCode": "KR",
      "latitude": "62.20565000",
      "longitude": "34.26138000"
   },
   {
      "name": "Kostomuksha",
      "countryCode": "RU",
      "stateCode": "KR",
      "latitude": "64.57100000",
      "longitude": "30.57667000"
   },
   {
      "name": "Kvartsitnyy",
      "countryCode": "RU",
      "stateCode": "KR",
      "latitude": "61.49321000",
      "longitude": "35.02888000"
   },
   {
      "name": "Lakhdenpokh’ya",
      "countryCode": "RU",
      "stateCode": "KR",
      "latitude": "61.51981000",
      "longitude": "30.19917000"
   },
   {
      "name": "Ledmozero",
      "countryCode": "RU",
      "stateCode": "KR",
      "latitude": "64.25444000",
      "longitude": "32.02789000"
   },
   {
      "name": "Loukhi",
      "countryCode": "RU",
      "stateCode": "KR",
      "latitude": "66.07616000",
      "longitude": "33.04745000"
   },
   {
      "name": "Lyaskelya",
      "countryCode": "RU",
      "stateCode": "KR",
      "latitude": "61.76322000",
      "longitude": "31.00616000"
   },
   {
      "name": "Matrosy",
      "countryCode": "RU",
      "stateCode": "KR",
      "latitude": "61.78042000",
      "longitude": "33.81283000"
   },
   {
      "name": "Medvezh’yegorsk",
      "countryCode": "RU",
      "stateCode": "KR",
      "latitude": "62.91713000",
      "longitude": "34.45689000"
   },
   {
      "name": "Muyezerskiy",
      "countryCode": "RU",
      "stateCode": "KR",
      "latitude": "63.95758000",
      "longitude": "31.98738000"
   },
   {
      "name": "Nadvoitsy",
      "countryCode": "RU",
      "stateCode": "KR",
      "latitude": "63.86667000",
      "longitude": "34.31667000"
   },
   {
      "name": "Olonets",
      "countryCode": "RU",
      "stateCode": "KR",
      "latitude": "60.98475000",
      "longitude": "32.96976000"
   },
   {
      "name": "Petrozavodsk",
      "countryCode": "RU",
      "stateCode": "KR",
      "latitude": "61.78491000",
      "longitude": "34.34691000"
   },
   {
      "name": "Pindushi",
      "countryCode": "RU",
      "stateCode": "KR",
      "latitude": "62.91519000",
      "longitude": "34.57996000"
   },
   {
      "name": "Pitkyaranta",
      "countryCode": "RU",
      "stateCode": "KR",
      "latitude": "61.57340000",
      "longitude": "31.47915000"
   },
   {
      "name": "Pitkyarantskiy Rayon",
      "countryCode": "RU",
      "stateCode": "KR",
      "latitude": "61.58333000",
      "longitude": "31.50000000"
   },
   {
      "name": "Porosozero",
      "countryCode": "RU",
      "stateCode": "KR",
      "latitude": "62.71912000",
      "longitude": "32.72703000"
   },
   {
      "name": "Povenets",
      "countryCode": "RU",
      "stateCode": "KR",
      "latitude": "62.84870000",
      "longitude": "34.82621000"
   },
   {
      "name": "Prionezhskiy Rayon",
      "countryCode": "RU",
      "stateCode": "KR",
      "latitude": "61.50000000",
      "longitude": "34.33333000"
   },
   {
      "name": "Pryazha",
      "countryCode": "RU",
      "stateCode": "KR",
      "latitude": "61.69258000",
      "longitude": "33.62159000"
   },
   {
      "name": "Pudozh",
      "countryCode": "RU",
      "stateCode": "KR",
      "latitude": "61.80415000",
      "longitude": "36.52770000"
   },
   {
      "name": "Pyaozerskiy",
      "countryCode": "RU",
      "stateCode": "KR",
      "latitude": "65.76870000",
      "longitude": "31.08925000"
   },
   {
      "name": "Rabocheostrovsk",
      "countryCode": "RU",
      "stateCode": "KR",
      "latitude": "64.98547000",
      "longitude": "34.76611000"
   },
   {
      "name": "Ruskeala",
      "countryCode": "RU",
      "stateCode": "KR",
      "latitude": "61.93333000",
      "longitude": "30.58333000"
   },
   {
      "name": "Salmi",
      "countryCode": "RU",
      "stateCode": "KR",
      "latitude": "61.36971000",
      "longitude": "31.85185000"
   },
   {
      "name": "Segezha",
      "countryCode": "RU",
      "stateCode": "KR",
      "latitude": "63.74147000",
      "longitude": "34.32218000"
   },
   {
      "name": "Shal’skiy",
      "countryCode": "RU",
      "stateCode": "KR",
      "latitude": "61.79698000",
      "longitude": "36.01680000"
   },
   {
      "name": "Sheltozero",
      "countryCode": "RU",
      "stateCode": "KR",
      "latitude": "61.36667000",
      "longitude": "35.36667000"
   },
   {
      "name": "Shun’ga",
      "countryCode": "RU",
      "stateCode": "KR",
      "latitude": "62.60263000",
      "longitude": "34.94680000"
   },
   {
      "name": "Shuya",
      "countryCode": "RU",
      "stateCode": "KR",
      "latitude": "61.95251000",
      "longitude": "34.23271000"
   },
   {
      "name": "Sortavala",
      "countryCode": "RU",
      "stateCode": "KR",
      "latitude": "61.71233000",
      "longitude": "30.70953000"
   },
   {
      "name": "Sortaval’skiy Rayon",
      "countryCode": "RU",
      "stateCode": "KR",
      "latitude": "61.75000000",
      "longitude": "30.66667000"
   },
   {
      "name": "Sukkozero",
      "countryCode": "RU",
      "stateCode": "KR",
      "latitude": "63.17018000",
      "longitude": "32.34436000"
   },
   {
      "name": "Suoyarvi",
      "countryCode": "RU",
      "stateCode": "KR",
      "latitude": "62.08333000",
      "longitude": "32.35000000"
   },
   {
      "name": "Suoyarvskiy Rayon",
      "countryCode": "RU",
      "stateCode": "KR",
      "latitude": "62.25000000",
      "longitude": "32.25000000"
   },
   {
      "name": "Vyartsilya",
      "countryCode": "RU",
      "stateCode": "KR",
      "latitude": "62.17645000",
      "longitude": "30.69296000"
   },
   {
      "name": "Yanishpole",
      "countryCode": "RU",
      "stateCode": "KR",
      "latitude": "62.11095000",
      "longitude": "34.27013000"
   },
   {
      "name": "Yanis’yarvi",
      "countryCode": "RU",
      "stateCode": "KR",
      "latitude": "61.89127000",
      "longitude": "30.94849000"
   },
   {
      "name": "Yushkozero",
      "countryCode": "RU",
      "stateCode": "KR",
      "latitude": "64.75162000",
      "longitude": "32.10255000"
   }
]