[
   {
      "name": "Paro District",
      "isoCode": "11",
      "countryCode": "BT",
      "latitude": "27.42859490",
      "longitude": "89.41665160"
   },
   {
      "name": "Chukha District",
      "isoCode": "12",
      "countryCode": "BT",
      "latitude": "27.07843040",
      "longitude": "89.47421770"
   },
   {
      "name": "Haa District",
      "isoCode": "13",
      "countryCode": "BT",
      "latitude": "27.26516690",
      "longitude": "89.17059980"
   },
   {
      "name": "Samtse District",
      "isoCode": "14",
      "countryCode": "BT",
      "latitude": "27.02918320",
      "longitude": "89.05615320"
   },
   {
      "name": "Thimphu District",
      "isoCode": "15",
      "countryCode": "BT",
      "latitude": "27.47122160",
      "longitude": "89.63390410"
   },
   {
      "name": "Tsirang District",
      "isoCode": "21",
      "countryCode": "BT",
      "latitude": "27.03220700",
      "longitude": "90.18696440"
   },
   {
      "name": "Dagana District",
      "isoCode": "22",
      "countryCode": "BT",
      "latitude": "27.03228610",
      "longitude": "89.88793040"
   },
   {
      "name": "Punakha District",
      "isoCode": "23",
      "countryCode": "BT",
      "latitude": "27.69037160",
      "longitude": "89.88793040"
   },
   {
      "name": "Wangdue Phodrang District",
      "isoCode": "24",
      "countryCode": "BT",
      "latitude": "27.45260460",
      "longitude": "90.06749280"
   },
   {
      "name": "Sarpang District",
      "isoCode": "31",
      "countryCode": "BT",
      "latitude": "26.93730410",
      "longitude": "90.48799160"
   },
   {
      "name": "Trongsa District",
      "isoCode": "32",
      "countryCode": "BT",
      "latitude": "27.50022690",
      "longitude": "90.50806340"
   },
   {
      "name": "Bumthang District",
      "isoCode": "33",
      "countryCode": "BT",
      "latitude": "27.64183900",
      "longitude": "90.67730460"
   },
   {
      "name": "Zhemgang District",
      "isoCode": "34",
      "countryCode": "BT",
      "latitude": "27.07697500",
      "longitude": "90.82940020"
   },
   {
      "name": "Trashigang District",
      "isoCode": "41",
      "countryCode": "BT",
      "latitude": "27.25667950",
      "longitude": "91.75388170"
   },
   {
      "name": "Mongar District",
      "isoCode": "42",
      "countryCode": "BT",
      "latitude": "27.26170590",
      "longitude": "91.28910360"
   },
   {
      "name": "Pemagatshel District",
      "isoCode": "43",
      "countryCode": "BT",
      "latitude": "27.00238200",
      "longitude": "91.34692470"
   },
   {
      "name": "Lhuntse District",
      "isoCode": "44",
      "countryCode": "BT",
      "latitude": "27.82649890",
      "longitude": "91.13530200"
   },
   {
      "name": "Samdrup Jongkhar District",
      "isoCode": "45",
      "countryCode": "BT",
      "latitude": "26.80356820",
      "longitude": "91.50392070"
   },
   {
      "name": "Gasa District",
      "isoCode": "GA",
      "countryCode": "BT",
      "latitude": "28.01858860",
      "longitude": "89.92532330"
   }
]