[
   {
      "name": "Akdiken",
      "countryCode": "TR",
      "stateCode": "63",
      "latitude": "36.72500000",
      "longitude": "39.30861000"
   },
   {
      "name": "Akçakale",
      "countryCode": "TR",
      "stateCode": "63",
      "latitude": "36.71111000",
      "longitude": "38.94750000"
   },
   {
      "name": "Aşağı Beğdeş",
      "countryCode": "TR",
      "stateCode": "63",
      "latitude": "36.81472000",
      "longitude": "38.91917000"
   },
   {
      "name": "Birecik",
      "countryCode": "TR",
      "stateCode": "63",
      "latitude": "37.02577000",
      "longitude": "37.97841000"
   },
   {
      "name": "Bozova",
      "countryCode": "TR",
      "stateCode": "63",
      "latitude": "37.36250000",
      "longitude": "38.52667000"
   },
   {
      "name": "Bulutlu",
      "countryCode": "TR",
      "stateCode": "63",
      "latitude": "36.73583000",
      "longitude": "39.39389000"
   },
   {
      "name": "Ceylanpınar",
      "countryCode": "TR",
      "stateCode": "63",
      "latitude": "36.84722000",
      "longitude": "40.05000000"
   },
   {
      "name": "Dorumali",
      "countryCode": "TR",
      "stateCode": "63",
      "latitude": "36.80500000",
      "longitude": "38.85306000"
   },
   {
      "name": "Eyyübiye",
      "countryCode": "TR",
      "stateCode": "63",
      "latitude": "37.21434000",
      "longitude": "38.79358000"
   },
   {
      "name": "Güneren",
      "countryCode": "TR",
      "stateCode": "63",
      "latitude": "36.73417000",
      "longitude": "39.08861000"
   },
   {
      "name": "Halfeti",
      "countryCode": "TR",
      "stateCode": "63",
      "latitude": "37.24529000",
      "longitude": "37.86874000"
   },
   {
      "name": "Haliliye",
      "countryCode": "TR",
      "stateCode": "63",
      "latitude": "37.14144000",
      "longitude": "38.79599000"
   },
   {
      "name": "Hanköy",
      "countryCode": "TR",
      "stateCode": "63",
      "latitude": "36.95081000",
      "longitude": "40.19855000"
   },
   {
      "name": "Harran",
      "countryCode": "TR",
      "stateCode": "63",
      "latitude": "36.86000000",
      "longitude": "39.03139000"
   },
   {
      "name": "Hilvan",
      "countryCode": "TR",
      "stateCode": "63",
      "latitude": "37.58687000",
      "longitude": "38.95505000"
   },
   {
      "name": "Işıklar",
      "countryCode": "TR",
      "stateCode": "63",
      "latitude": "36.99417000",
      "longitude": "40.12639000"
   },
   {
      "name": "Karaköprü",
      "countryCode": "TR",
      "stateCode": "63",
      "latitude": "37.18029000",
      "longitude": "38.81109000"
   },
   {
      "name": "Koyunluca",
      "countryCode": "TR",
      "stateCode": "63",
      "latitude": "36.82278000",
      "longitude": "39.34333000"
   },
   {
      "name": "Küçükkendirci",
      "countryCode": "TR",
      "stateCode": "63",
      "latitude": "36.90583000",
      "longitude": "38.34611000"
   },
   {
      "name": "Mağaralı",
      "countryCode": "TR",
      "stateCode": "63",
      "latitude": "36.96889000",
      "longitude": "38.07444000"
   },
   {
      "name": "Meydankapı",
      "countryCode": "TR",
      "stateCode": "63",
      "latitude": "36.78278000",
      "longitude": "39.15833000"
   },
   {
      "name": "Minare",
      "countryCode": "TR",
      "stateCode": "63",
      "latitude": "36.93083000",
      "longitude": "39.00444000"
   },
   {
      "name": "Muratlı",
      "countryCode": "TR",
      "stateCode": "63",
      "latitude": "36.96167000",
      "longitude": "40.10056000"
   },
   {
      "name": "Pekmezli",
      "countryCode": "TR",
      "stateCode": "63",
      "latitude": "36.75361000",
      "longitude": "39.45000000"
   },
   {
      "name": "Seksenören",
      "countryCode": "TR",
      "stateCode": "63",
      "latitude": "36.97252000",
      "longitude": "39.07484000"
   },
   {
      "name": "Siverek",
      "countryCode": "TR",
      "stateCode": "63",
      "latitude": "37.75503000",
      "longitude": "39.31667000"
   },
   {
      "name": "Suruç",
      "countryCode": "TR",
      "stateCode": "63",
      "latitude": "36.97612000",
      "longitude": "38.42533000"
   },
   {
      "name": "Viranşehir",
      "countryCode": "TR",
      "stateCode": "63",
      "latitude": "37.22349000",
      "longitude": "39.75519000"
   },
   {
      "name": "Yukarı Taşyalak",
      "countryCode": "TR",
      "stateCode": "63",
      "latitude": "36.96306000",
      "longitude": "40.13194000"
   },
   {
      "name": "Öncül",
      "countryCode": "TR",
      "stateCode": "63",
      "latitude": "36.71222000",
      "longitude": "39.02917000"
   },
   {
      "name": "Şanlıurfa",
      "countryCode": "TR",
      "stateCode": "63",
      "latitude": "37.16708000",
      "longitude": "38.79392000"
   }
]