[
   {
      "name": "Berendeyevo",
      "countryCode": "RU",
      "stateCode": "YAR",
      "latitude": "56.60078000",
      "longitude": "39.02173000"
   },
   {
      "name": "Bol’shesel’skiy Rayon",
      "countryCode": "RU",
      "stateCode": "YAR",
      "latitude": "57.66667000",
      "longitude": "39.00000000"
   },
   {
      "name": "Bol’shoye Selo",
      "countryCode": "RU",
      "stateCode": "YAR",
      "latitude": "57.71774000",
      "longitude": "38.93341000"
   },
   {
      "name": "Borisoglebskiy",
      "countryCode": "RU",
      "stateCode": "YAR",
      "latitude": "57.25860000",
      "longitude": "39.15080000"
   },
   {
      "name": "Borisoglebskiy Rayon",
      "countryCode": "RU",
      "stateCode": "YAR",
      "latitude": "57.33333000",
      "longitude": "39.00000000"
   },
   {
      "name": "Borok",
      "countryCode": "RU",
      "stateCode": "YAR",
      "latitude": "58.06532000",
      "longitude": "38.23620000"
   },
   {
      "name": "Breytovo",
      "countryCode": "RU",
      "stateCode": "YAR",
      "latitude": "58.29925000",
      "longitude": "37.86172000"
   },
   {
      "name": "Breytovskiy Rayon",
      "countryCode": "RU",
      "stateCode": "YAR",
      "latitude": "58.25000000",
      "longitude": "37.75000000"
   },
   {
      "name": "Burmakino",
      "countryCode": "RU",
      "stateCode": "YAR",
      "latitude": "57.41663000",
      "longitude": "40.23687000"
   },
   {
      "name": "Danilov",
      "countryCode": "RU",
      "stateCode": "YAR",
      "latitude": "58.19080000",
      "longitude": "40.17171000"
   },
   {
      "name": "Danilovskiy Rayon",
      "countryCode": "RU",
      "stateCode": "YAR",
      "latitude": "58.16667000",
      "longitude": "40.08333000"
   },
   {
      "name": "Dubki",
      "countryCode": "RU",
      "stateCode": "YAR",
      "latitude": "57.30000000",
      "longitude": "40.25000000"
   },
   {
      "name": "Gavrilov-Yam",
      "countryCode": "RU",
      "stateCode": "YAR",
      "latitude": "57.30185000",
      "longitude": "39.85331000"
   },
   {
      "name": "Gavrilov-Yamskiy Rayon",
      "countryCode": "RU",
      "stateCode": "YAR",
      "latitude": "57.33333000",
      "longitude": "39.75000000"
   },
   {
      "name": "Ishnya",
      "countryCode": "RU",
      "stateCode": "YAR",
      "latitude": "57.19070000",
      "longitude": "39.36004000"
   },
   {
      "name": "Konstantinovskiy",
      "countryCode": "RU",
      "stateCode": "YAR",
      "latitude": "57.83005000",
      "longitude": "39.58989000"
   },
   {
      "name": "Krasnyy Profintern",
      "countryCode": "RU",
      "stateCode": "YAR",
      "latitude": "57.74459000",
      "longitude": "40.43501000"
   },
   {
      "name": "Krasnyye Tkachi",
      "countryCode": "RU",
      "stateCode": "YAR",
      "latitude": "57.49259000",
      "longitude": "39.75629000"
   },
   {
      "name": "Kukoboy",
      "countryCode": "RU",
      "stateCode": "YAR",
      "latitude": "58.70089000",
      "longitude": "39.91427000"
   },
   {
      "name": "Kurba",
      "countryCode": "RU",
      "stateCode": "YAR",
      "latitude": "57.56097000",
      "longitude": "39.49810000"
   },
   {
      "name": "Levashevo",
      "countryCode": "RU",
      "stateCode": "YAR",
      "latitude": "57.64451000",
      "longitude": "40.52401000"
   },
   {
      "name": "Lyubim",
      "countryCode": "RU",
      "stateCode": "YAR",
      "latitude": "58.36250000",
      "longitude": "40.68433000"
   },
   {
      "name": "Lyubimskiy Rayon",
      "countryCode": "RU",
      "stateCode": "YAR",
      "latitude": "58.33333000",
      "longitude": "40.75000000"
   },
   {
      "name": "Myshkin",
      "countryCode": "RU",
      "stateCode": "YAR",
      "latitude": "57.78973000",
      "longitude": "38.45448000"
   },
   {
      "name": "Myshkinskiy Rayon",
      "countryCode": "RU",
      "stateCode": "YAR",
      "latitude": "57.83333000",
      "longitude": "38.41667000"
   },
   {
      "name": "Nekouzskiy Rayon",
      "countryCode": "RU",
      "stateCode": "YAR",
      "latitude": "58.00000000",
      "longitude": "38.00000000"
   },
   {
      "name": "Nekrasovskiy Rayon",
      "countryCode": "RU",
      "stateCode": "YAR",
      "latitude": "57.66667000",
      "longitude": "40.41667000"
   },
   {
      "name": "Nekrasovskoye",
      "countryCode": "RU",
      "stateCode": "YAR",
      "latitude": "57.67663000",
      "longitude": "40.36567000"
   },
   {
      "name": "Novyy Nekouz",
      "countryCode": "RU",
      "stateCode": "YAR",
      "latitude": "57.90286000",
      "longitude": "38.07004000"
   },
   {
      "name": "Pereslavl’-Zalesskiy",
      "countryCode": "RU",
      "stateCode": "YAR",
      "latitude": "56.73934000",
      "longitude": "38.85626000"
   },
   {
      "name": "Pereslavskiy Rayon",
      "countryCode": "RU",
      "stateCode": "YAR",
      "latitude": "56.75000000",
      "longitude": "38.83333000"
   },
   {
      "name": "Pervomayskiy Rayon",
      "countryCode": "RU",
      "stateCode": "YAR",
      "latitude": "58.66667000",
      "longitude": "39.75000000"
   },
   {
      "name": "Pesochnoye",
      "countryCode": "RU",
      "stateCode": "YAR",
      "latitude": "58.00597000",
      "longitude": "39.17717000"
   },
   {
      "name": "Petrovsk",
      "countryCode": "RU",
      "stateCode": "YAR",
      "latitude": "57.01039000",
      "longitude": "39.26928000"
   },
   {
      "name": "Porech’ye-Rybnoye",
      "countryCode": "RU",
      "stateCode": "YAR",
      "latitude": "57.09805000",
      "longitude": "39.38354000"
   },
   {
      "name": "Poshekhonskiy Rayon",
      "countryCode": "RU",
      "stateCode": "YAR",
      "latitude": "58.66667000",
      "longitude": "39.08333000"
   },
   {
      "name": "Poshekhon’ye",
      "countryCode": "RU",
      "stateCode": "YAR",
      "latitude": "58.49928000",
      "longitude": "39.13531000"
   },
   {
      "name": "Prechistoye",
      "countryCode": "RU",
      "stateCode": "YAR",
      "latitude": "58.42068000",
      "longitude": "40.34017000"
   },
   {
      "name": "Rostov",
      "countryCode": "RU",
      "stateCode": "YAR",
      "latitude": "57.19140000",
      "longitude": "39.41394000"
   },
   {
      "name": "Rostovskiy Rayon",
      "countryCode": "RU",
      "stateCode": "YAR",
      "latitude": "57.16667000",
      "longitude": "39.50000000"
   },
   {
      "name": "Rybinsk",
      "countryCode": "RU",
      "stateCode": "YAR",
      "latitude": "58.04460000",
      "longitude": "38.84259000"
   },
   {
      "name": "Rybinskiy Rayon",
      "countryCode": "RU",
      "stateCode": "YAR",
      "latitude": "58.00000000",
      "longitude": "39.00000000"
   },
   {
      "name": "Semibratovo",
      "countryCode": "RU",
      "stateCode": "YAR",
      "latitude": "57.30461000",
      "longitude": "39.53688000"
   },
   {
      "name": "Sudoverf’",
      "countryCode": "RU",
      "stateCode": "YAR",
      "latitude": "58.11696000",
      "longitude": "38.64175000"
   },
   {
      "name": "Tunoshna",
      "countryCode": "RU",
      "stateCode": "YAR",
      "latitude": "57.54589000",
      "longitude": "40.12543000"
   },
   {
      "name": "Tutayev",
      "countryCode": "RU",
      "stateCode": "YAR",
      "latitude": "57.88529000",
      "longitude": "39.54060000"
   },
   {
      "name": "Tutayevskiy Rayon",
      "countryCode": "RU",
      "stateCode": "YAR",
      "latitude": "57.91667000",
      "longitude": "39.58333000"
   },
   {
      "name": "Uglich",
      "countryCode": "RU",
      "stateCode": "YAR",
      "latitude": "57.52750000",
      "longitude": "38.33167000"
   },
   {
      "name": "Uglichskiy Rayon",
      "countryCode": "RU",
      "stateCode": "YAR",
      "latitude": "57.50000000",
      "longitude": "38.41667000"
   },
   {
      "name": "Volga",
      "countryCode": "RU",
      "stateCode": "YAR",
      "latitude": "57.95157000",
      "longitude": "38.38785000"
   },
   {
      "name": "Yaroslavl",
      "countryCode": "RU",
      "stateCode": "YAR",
      "latitude": "57.62987000",
      "longitude": "39.87368000"
   },
   {
      "name": "Yaroslavskiy Rayon",
      "countryCode": "RU",
      "stateCode": "YAR",
      "latitude": "57.58333000",
      "longitude": "40.00000000"
   }
]