[
   {
      "name": "Bubanza Province",
      "isoCode": "BB",
      "countryCode": "BI",
      "latitude": "-3.15724030",
      "longitude": "29.37149090"
   },
   {
      "name": "Bujumbura Rural Province",
      "isoCode": "BL",
      "countryCode": "BI",
      "latitude": "-3.50901440",
      "longitude": "29.46435900"
   },
   {
      "name": "Bujumbura Mairie Province",
      "isoCode": "BM",
      "countryCode": "BI",
      "latitude": "-3.38841410",
      "longitude": "29.34826460"
   },
   {
      "name": "Bururi Province",
      "isoCode": "BR",
      "countryCode": "BI",
      "latitude": "-3.90068510",
      "longitude": "29.51077080"
   },
   {
      "name": "Cankuzo Province",
      "isoCode": "CA",
      "countryCode": "BI",
      "latitude": "-3.15277880",
      "longitude": "30.61998950"
   },
   {
      "name": "Cibitoke Province",
      "isoCode": "CI",
      "countryCode": "BI",
      "latitude": "-2.81028970",
      "longitude": "29.18557850"
   },
   {
      "name": "Gitega Province",
      "isoCode": "GI",
      "countryCode": "BI",
      "latitude": "-3.49290510",
      "longitude": "29.92779470"
   },
   {
      "name": "Kirundo Province",
      "isoCode": "KI",
      "countryCode": "BI",
      "latitude": "-2.57628820",
      "longitude": "30.11273500"
   },
   {
      "name": "Karuzi Province",
      "isoCode": "KR",
      "countryCode": "BI",
      "latitude": "-3.13403470",
      "longitude": "30.11273500"
   },
   {
      "name": "Kayanza Province",
      "isoCode": "KY",
      "countryCode": "BI",
      "latitude": "-3.00779810",
      "longitude": "29.64991620"
   },
   {
      "name": "Makamba Province",
      "isoCode": "MA",
      "countryCode": "BI",
      "latitude": "-4.32570620",
      "longitude": "29.69626770"
   },
   {
      "name": "Muramvya Province",
      "isoCode": "MU",
      "countryCode": "BI",
      "latitude": "-3.28983980",
      "longitude": "29.64991620"
   },
   {
      "name": "Mwaro Province",
      "isoCode": "MW",
      "countryCode": "BI",
      "latitude": "-3.50259180",
      "longitude": "29.64991620"
   },
   {
      "name": "Muyinga Province",
      "isoCode": "MY",
      "countryCode": "BI",
      "latitude": "-2.77935110",
      "longitude": "30.29741990"
   },
   {
      "name": "Ngozi Province",
      "isoCode": "NG",
      "countryCode": "BI",
      "latitude": "-2.89582430",
      "longitude": "29.88152030"
   },
   {
      "name": "Rumonge Province",
      "isoCode": "RM",
      "countryCode": "BI",
      "latitude": "-3.97540490",
      "longitude": "29.43880140"
   },
   {
      "name": "Rutana Province",
      "isoCode": "RT",
      "countryCode": "BI",
      "latitude": "-3.87915230",
      "longitude": "30.06652360"
   },
   {
      "name": "Ruyigi Province",
      "isoCode": "RY",
      "countryCode": "BI",
      "latitude": "-3.44620700",
      "longitude": "30.25127280"
   }
]