[
   {
      "name": "Agua Buena",
      "countryCode": "MX",
      "stateCode": "SLP",
      "latitude": "21.95791000",
      "longitude": "-99.39416000"
   },
   {
      "name": "Agua Señora",
      "countryCode": "MX",
      "stateCode": "SLP",
      "latitude": "22.23750000",
      "longitude": "-101.04222000"
   },
   {
      "name": "Ahualulco del Sonido Trece",
      "countryCode": "MX",
      "stateCode": "SLP",
      "latitude": "22.40019000",
      "longitude": "-101.16614000"
   },
   {
      "name": "Ahuehueyo Primero Centro",
      "countryCode": "MX",
      "stateCode": "SLP",
      "latitude": "21.34500000",
      "longitude": "-98.83722000"
   },
   {
      "name": "Alaquines",
      "countryCode": "MX",
      "stateCode": "SLP",
      "latitude": "22.12973000",
      "longitude": "-99.60093000"
   },
   {
      "name": "Alberto Carrera Torres",
      "countryCode": "MX",
      "stateCode": "SLP",
      "latitude": "21.77240000",
      "longitude": "-101.01193000"
   },
   {
      "name": "Ampliación la Hincada",
      "countryCode": "MX",
      "stateCode": "SLP",
      "latitude": "22.21528000",
      "longitude": "-99.23611000"
   },
   {
      "name": "Aquismón",
      "countryCode": "MX",
      "stateCode": "SLP",
      "latitude": "21.62159000",
      "longitude": "-99.01984000"
   },
   {
      "name": "Arroyos",
      "countryCode": "MX",
      "stateCode": "SLP",
      "latitude": "22.05455000",
      "longitude": "-100.90520000"
   },
   {
      "name": "Aurelio Manrique",
      "countryCode": "MX",
      "stateCode": "SLP",
      "latitude": "22.28750000",
      "longitude": "-98.65083000"
   },
   {
      "name": "Axtla de Terrazas",
      "countryCode": "MX",
      "stateCode": "SLP",
      "latitude": "21.43923000",
      "longitude": "-98.87508000"
   },
   {
      "name": "Bledos",
      "countryCode": "MX",
      "stateCode": "SLP",
      "latitude": "21.84148000",
      "longitude": "-101.11651000"
   },
   {
      "name": "Bocas",
      "countryCode": "MX",
      "stateCode": "SLP",
      "latitude": "22.51817000",
      "longitude": "-101.02186000"
   },
   {
      "name": "Carranco",
      "countryCode": "MX",
      "stateCode": "SLP",
      "latitude": "21.82002000",
      "longitude": "-101.09699000"
   },
   {
      "name": "Cerrito de Jaral",
      "countryCode": "MX",
      "stateCode": "SLP",
      "latitude": "22.22361000",
      "longitude": "-101.06250000"
   },
   {
      "name": "Cerrito de Zavala",
      "countryCode": "MX",
      "stateCode": "SLP",
      "latitude": "22.53690000",
      "longitude": "-100.97683000"
   },
   {
      "name": "Cerritos",
      "countryCode": "MX",
      "stateCode": "SLP",
      "latitude": "22.42835000",
      "longitude": "-100.28474000"
   },
   {
      "name": "Cerro Gordo",
      "countryCode": "MX",
      "stateCode": "SLP",
      "latitude": "21.97448000",
      "longitude": "-100.80661000"
   },
   {
      "name": "Cerro de San Pedro",
      "countryCode": "MX",
      "stateCode": "SLP",
      "latitude": "22.21780000",
      "longitude": "-100.79961000"
   },
   {
      "name": "Chalchocoyo",
      "countryCode": "MX",
      "stateCode": "SLP",
      "latitude": "21.31444000",
      "longitude": "-98.79194000"
   },
   {
      "name": "Charcas",
      "countryCode": "MX",
      "stateCode": "SLP",
      "latitude": "23.12943000",
      "longitude": "-101.11346000"
   },
   {
      "name": "Chiconamel",
      "countryCode": "MX",
      "stateCode": "SLP",
      "latitude": "21.36806000",
      "longitude": "-98.71917000"
   },
   {
      "name": "Ciudad Fernández",
      "countryCode": "MX",
      "stateCode": "SLP",
      "latitude": "21.94045000",
      "longitude": "-100.01153000"
   },
   {
      "name": "Ciudad Satélite",
      "countryCode": "MX",
      "stateCode": "SLP",
      "latitude": "22.11083000",
      "longitude": "-100.79583000"
   },
   {
      "name": "Ciudad Valles",
      "countryCode": "MX",
      "stateCode": "SLP",
      "latitude": "21.99631000",
      "longitude": "-99.01093000"
   },
   {
      "name": "Ciudad del Maíz",
      "countryCode": "MX",
      "stateCode": "SLP",
      "latitude": "22.40187000",
      "longitude": "-99.60468000"
   },
   {
      "name": "Colonia Veinte de Noviembre",
      "countryCode": "MX",
      "stateCode": "SLP",
      "latitude": "21.97917000",
      "longitude": "-100.04981000"
   },
   {
      "name": "Colonia Álvaro Obregón",
      "countryCode": "MX",
      "stateCode": "SLP",
      "latitude": "22.25183000",
      "longitude": "-99.67416000"
   },
   {
      "name": "Corcovado",
      "countryCode": "MX",
      "stateCode": "SLP",
      "latitude": "22.39517000",
      "longitude": "-100.69337000"
   },
   {
      "name": "Cárdenas",
      "countryCode": "MX",
      "stateCode": "SLP",
      "latitude": "22.00144000",
      "longitude": "-99.64247000"
   },
   {
      "name": "Damian Carmona",
      "countryCode": "MX",
      "stateCode": "SLP",
      "latitude": "22.09723000",
      "longitude": "-99.29216000"
   },
   {
      "name": "Derramaderos",
      "countryCode": "MX",
      "stateCode": "SLP",
      "latitude": "22.57025000",
      "longitude": "-100.93226000"
   },
   {
      "name": "Dulce Grande",
      "countryCode": "MX",
      "stateCode": "SLP",
      "latitude": "23.00175000",
      "longitude": "-102.17405000"
   },
   {
      "name": "Ejido Gogorrón (Ex-Hacienda de Gogorrón)",
      "countryCode": "MX",
      "stateCode": "SLP",
      "latitude": "21.84019000",
      "longitude": "-100.91138000"
   },
   {
      "name": "Ejido San José Xilatzén",
      "countryCode": "MX",
      "stateCode": "SLP",
      "latitude": "21.67472000",
      "longitude": "-98.92750000"
   },
   {
      "name": "Ejido el Saucillo",
      "countryCode": "MX",
      "stateCode": "SLP",
      "latitude": "21.83666000",
      "longitude": "-100.99490000"
   },
   {
      "name": "Ejido la Pitahaya (Santo Domingo)",
      "countryCode": "MX",
      "stateCode": "SLP",
      "latitude": "21.60611000",
      "longitude": "-100.76111000"
   },
   {
      "name": "Ejido los Huastecos",
      "countryCode": "MX",
      "stateCode": "SLP",
      "latitude": "21.95917000",
      "longitude": "-98.65028000"
   },
   {
      "name": "El Barril",
      "countryCode": "MX",
      "stateCode": "SLP",
      "latitude": "23.07509000",
      "longitude": "-102.15374000"
   },
   {
      "name": "El Capulín",
      "countryCode": "MX",
      "stateCode": "SLP",
      "latitude": "21.82806000",
      "longitude": "-100.03743000"
   },
   {
      "name": "El Carrizal",
      "countryCode": "MX",
      "stateCode": "SLP",
      "latitude": "22.34146000",
      "longitude": "-101.16778000"
   },
   {
      "name": "El Fuerte",
      "countryCode": "MX",
      "stateCode": "SLP",
      "latitude": "21.71289000",
      "longitude": "-100.66445000"
   },
   {
      "name": "El Huexco",
      "countryCode": "MX",
      "stateCode": "SLP",
      "latitude": "21.34075000",
      "longitude": "-98.75350000"
   },
   {
      "name": "El Jabalí",
      "countryCode": "MX",
      "stateCode": "SLP",
      "latitude": "21.88431000",
      "longitude": "-100.05315000"
   },
   {
      "name": "El Jaralito",
      "countryCode": "MX",
      "stateCode": "SLP",
      "latitude": "22.03851000",
      "longitude": "-100.82119000"
   },
   {
      "name": "El Naranjo",
      "countryCode": "MX",
      "stateCode": "SLP",
      "latitude": "22.52597000",
      "longitude": "-99.32968000"
   },
   {
      "name": "El Peñasco",
      "countryCode": "MX",
      "stateCode": "SLP",
      "latitude": "22.32534000",
      "longitude": "-100.95014000"
   },
   {
      "name": "El Rosario",
      "countryCode": "MX",
      "stateCode": "SLP",
      "latitude": "21.73411000",
      "longitude": "-100.92631000"
   },
   {
      "name": "El Tepetate",
      "countryCode": "MX",
      "stateCode": "SLP",
      "latitude": "22.01344000",
      "longitude": "-101.24195000"
   },
   {
      "name": "Emiliano Zapata",
      "countryCode": "MX",
      "stateCode": "SLP",
      "latitude": "21.92149000",
      "longitude": "-100.91358000"
   },
   {
      "name": "Enramadas",
      "countryCode": "MX",
      "stateCode": "SLP",
      "latitude": "21.88316000",
      "longitude": "-100.78204000"
   },
   {
      "name": "Enrique Estrada",
      "countryCode": "MX",
      "stateCode": "SLP",
      "latitude": "22.24030000",
      "longitude": "-100.88869000"
   },
   {
      "name": "Entronque de Matehuala (El Huizache)",
      "countryCode": "MX",
      "stateCode": "SLP",
      "latitude": "22.92500000",
      "longitude": "-100.45889000"
   },
   {
      "name": "Escalerillas",
      "countryCode": "MX",
      "stateCode": "SLP",
      "latitude": "22.11167000",
      "longitude": "-101.07305000"
   },
   {
      "name": "Estación Tamuín",
      "countryCode": "MX",
      "stateCode": "SLP",
      "latitude": "22.07750000",
      "longitude": "-98.81111000"
   },
   {
      "name": "Estanzuela",
      "countryCode": "MX",
      "stateCode": "SLP",
      "latitude": "22.26889000",
      "longitude": "-101.00806000"
   },
   {
      "name": "Fracción Milpillas",
      "countryCode": "MX",
      "stateCode": "SLP",
      "latitude": "22.22778000",
      "longitude": "-100.96417000"
   },
   {
      "name": "Granjenal",
      "countryCode": "MX",
      "stateCode": "SLP",
      "latitude": "22.39270000",
      "longitude": "-100.06893000"
   },
   {
      "name": "Guadalcázar",
      "countryCode": "MX",
      "stateCode": "SLP",
      "latitude": "22.61804000",
      "longitude": "-100.39936000"
   },
   {
      "name": "Guadalupe Victoria",
      "countryCode": "MX",
      "stateCode": "SLP",
      "latitude": "22.16333000",
      "longitude": "-101.07000000"
   },
   {
      "name": "Hernández",
      "countryCode": "MX",
      "stateCode": "SLP",
      "latitude": "23.03337000",
      "longitude": "-102.03763000"
   },
   {
      "name": "Higinio Olivo",
      "countryCode": "MX",
      "stateCode": "SLP",
      "latitude": "21.98012000",
      "longitude": "-99.57935000"
   },
   {
      "name": "Huichihuayan",
      "countryCode": "MX",
      "stateCode": "SLP",
      "latitude": "21.48369000",
      "longitude": "-98.96840000"
   },
   {
      "name": "Illescas",
      "countryCode": "MX",
      "stateCode": "SLP",
      "latitude": "23.24066000",
      "longitude": "-102.14463000"
   },
   {
      "name": "Iztacapa",
      "countryCode": "MX",
      "stateCode": "SLP",
      "latitude": "21.37000000",
      "longitude": "-98.94167000"
   },
   {
      "name": "Jalpilla",
      "countryCode": "MX",
      "stateCode": "SLP",
      "latitude": "21.39571000",
      "longitude": "-98.87229000"
   },
   {
      "name": "Jesús María",
      "countryCode": "MX",
      "stateCode": "SLP",
      "latitude": "23.15488000",
      "longitude": "-102.19253000"
   },
   {
      "name": "La Esperanza",
      "countryCode": "MX",
      "stateCode": "SLP",
      "latitude": "22.00788000",
      "longitude": "-100.76496000"
   },
   {
      "name": "La Herradura",
      "countryCode": "MX",
      "stateCode": "SLP",
      "latitude": "21.44250000",
      "longitude": "-98.94917000"
   },
   {
      "name": "La Lima",
      "countryCode": "MX",
      "stateCode": "SLP",
      "latitude": "21.92722000",
      "longitude": "-99.10278000"
   },
   {
      "name": "La Mesa de los Conejos",
      "countryCode": "MX",
      "stateCode": "SLP",
      "latitude": "22.10316000",
      "longitude": "-101.05309000"
   },
   {
      "name": "La Pila",
      "countryCode": "MX",
      "stateCode": "SLP",
      "latitude": "22.03425000",
      "longitude": "-100.86786000"
   },
   {
      "name": "La Reforma",
      "countryCode": "MX",
      "stateCode": "SLP",
      "latitude": "21.99879000",
      "longitude": "-100.09452000"
   },
   {
      "name": "La Subida",
      "countryCode": "MX",
      "stateCode": "SLP",
      "latitude": "21.90506000",
      "longitude": "-99.09892000"
   },
   {
      "name": "La Ventilla",
      "countryCode": "MX",
      "stateCode": "SLP",
      "latitude": "21.77389000",
      "longitude": "-101.03028000"
   },
   {
      "name": "Laguna de San Vicente",
      "countryCode": "MX",
      "stateCode": "SLP",
      "latitude": "21.94603000",
      "longitude": "-100.85926000"
   },
   {
      "name": "Laguna de Santa Rita",
      "countryCode": "MX",
      "stateCode": "SLP",
      "latitude": "22.11449000",
      "longitude": "-100.84713000"
   },
   {
      "name": "Laguna del Mante",
      "countryCode": "MX",
      "stateCode": "SLP",
      "latitude": "22.21954000",
      "longitude": "-98.98758000"
   },
   {
      "name": "Las Armas",
      "countryCode": "MX",
      "stateCode": "SLP",
      "latitude": "21.69685000",
      "longitude": "-98.96752000"
   },
   {
      "name": "Las Palmas",
      "countryCode": "MX",
      "stateCode": "SLP",
      "latitude": "22.03339000",
      "longitude": "-98.87407000"
   },
   {
      "name": "Los Zacatones",
      "countryCode": "MX",
      "stateCode": "SLP",
      "latitude": "22.96139000",
      "longitude": "-102.05556000"
   },
   {
      "name": "Maitinez",
      "countryCode": "MX",
      "stateCode": "SLP",
      "latitude": "22.37167000",
      "longitude": "-99.29306000"
   },
   {
      "name": "Maravillas",
      "countryCode": "MX",
      "stateCode": "SLP",
      "latitude": "22.23876000",
      "longitude": "-101.01073000"
   },
   {
      "name": "Martinez",
      "countryCode": "MX",
      "stateCode": "SLP",
      "latitude": "22.06790000",
      "longitude": "-99.62546000"
   },
   {
      "name": "Matehuala",
      "countryCode": "MX",
      "stateCode": "SLP",
      "latitude": "23.64824000",
      "longitude": "-100.64334000"
   },
   {
      "name": "Moctezuma",
      "countryCode": "MX",
      "stateCode": "SLP",
      "latitude": "22.74787000",
      "longitude": "-101.08219000"
   },
   {
      "name": "Monte Obscuro",
      "countryCode": "MX",
      "stateCode": "SLP",
      "latitude": "22.21972000",
      "longitude": "-101.02879000"
   },
   {
      "name": "Negritas",
      "countryCode": "MX",
      "stateCode": "SLP",
      "latitude": "22.79361000",
      "longitude": "-100.16015000"
   },
   {
      "name": "Norias del Refugio",
      "countryCode": "MX",
      "stateCode": "SLP",
      "latitude": "23.01334000",
      "longitude": "-100.47189000"
   },
   {
      "name": "Nueva Primavera",
      "countryCode": "MX",
      "stateCode": "SLP",
      "latitude": "21.91342000",
      "longitude": "-98.85785000"
   },
   {
      "name": "Nuevo Crucitas",
      "countryCode": "MX",
      "stateCode": "SLP",
      "latitude": "22.10833000",
      "longitude": "-99.20444000"
   },
   {
      "name": "Nuevo Tampaón",
      "countryCode": "MX",
      "stateCode": "SLP",
      "latitude": "22.06223000",
      "longitude": "-98.56548000"
   },
   {
      "name": "Ocuiltzapoyo",
      "countryCode": "MX",
      "stateCode": "SLP",
      "latitude": "21.32444000",
      "longitude": "-98.72861000"
   },
   {
      "name": "Ojo Caliente",
      "countryCode": "MX",
      "stateCode": "SLP",
      "latitude": "21.84678000",
      "longitude": "-100.75375000"
   },
   {
      "name": "Ojo de Agua",
      "countryCode": "MX",
      "stateCode": "SLP",
      "latitude": "22.44378000",
      "longitude": "-100.09283000"
   },
   {
      "name": "Ojo de Agua de Solano",
      "countryCode": "MX",
      "stateCode": "SLP",
      "latitude": "21.98533000",
      "longitude": "-100.07946000"
   },
   {
      "name": "Paisanos",
      "countryCode": "MX",
      "stateCode": "SLP",
      "latitude": "22.20361000",
      "longitude": "-101.03583000"
   },
   {
      "name": "Palma Pegada",
      "countryCode": "MX",
      "stateCode": "SLP",
      "latitude": "22.71046000",
      "longitude": "-101.79187000"
   },
   {
      "name": "Palmar Primero",
      "countryCode": "MX",
      "stateCode": "SLP",
      "latitude": "22.37079000",
      "longitude": "-101.09827000"
   },
   {
      "name": "Palo Seco (El Gato)",
      "countryCode": "MX",
      "stateCode": "SLP",
      "latitude": "22.35417000",
      "longitude": "-100.19194000"
   },
   {
      "name": "Palomas",
      "countryCode": "MX",
      "stateCode": "SLP",
      "latitude": "22.48124000",
      "longitude": "-99.84922000"
   },
   {
      "name": "Pardo",
      "countryCode": "MX",
      "stateCode": "SLP",
      "latitude": "21.88379000",
      "longitude": "-100.85617000"
   },
   {
      "name": "Paso Blanco",
      "countryCode": "MX",
      "stateCode": "SLP",
      "latitude": "22.20611000",
      "longitude": "-101.07056000"
   },
   {
      "name": "Paso Bonito",
      "countryCode": "MX",
      "stateCode": "SLP",
      "latitude": "22.32528000",
      "longitude": "-101.26167000"
   },
   {
      "name": "Pastora",
      "countryCode": "MX",
      "stateCode": "SLP",
      "latitude": "22.13595000",
      "longitude": "-100.05691000"
   },
   {
      "name": "Pemucho",
      "countryCode": "MX",
      "stateCode": "SLP",
      "latitude": "21.19738000",
      "longitude": "-98.83015000"
   },
   {
      "name": "Peotillos",
      "countryCode": "MX",
      "stateCode": "SLP",
      "latitude": "22.49386000",
      "longitude": "-100.61128000"
   },
   {
      "name": "Picholco",
      "countryCode": "MX",
      "stateCode": "SLP",
      "latitude": "21.38797000",
      "longitude": "-98.85338000"
   },
   {
      "name": "Ponciano Arriaga",
      "countryCode": "MX",
      "stateCode": "SLP",
      "latitude": "22.26222000",
      "longitude": "-98.58972000"
   },
   {
      "name": "Portezuelo",
      "countryCode": "MX",
      "stateCode": "SLP",
      "latitude": "22.16980000",
      "longitude": "-100.82559000"
   },
   {
      "name": "Pozuelos",
      "countryCode": "MX",
      "stateCode": "SLP",
      "latitude": "22.08943000",
      "longitude": "-101.11523000"
   },
   {
      "name": "Progreso",
      "countryCode": "MX",
      "stateCode": "SLP",
      "latitude": "22.22833000",
      "longitude": "-100.12806000"
   },
   {
      "name": "Puerto de Providencia",
      "countryCode": "MX",
      "stateCode": "SLP",
      "latitude": "22.36528000",
      "longitude": "-101.06556000"
   },
   {
      "name": "Pujal-Coy",
      "countryCode": "MX",
      "stateCode": "SLP",
      "latitude": "22.17600000",
      "longitude": "-98.50512000"
   },
   {
      "name": "Rancho Nuevo",
      "countryCode": "MX",
      "stateCode": "SLP",
      "latitude": "22.22216000",
      "longitude": "-100.92287000"
   },
   {
      "name": "Rascón",
      "countryCode": "MX",
      "stateCode": "SLP",
      "latitude": "21.97075000",
      "longitude": "-99.25742000"
   },
   {
      "name": "Rayón",
      "countryCode": "MX",
      "stateCode": "SLP",
      "latitude": "21.84329000",
      "longitude": "-99.64258000"
   },
   {
      "name": "Real de Catorce",
      "countryCode": "MX",
      "stateCode": "SLP",
      "latitude": "23.68996000",
      "longitude": "-100.88676000"
   },
   {
      "name": "Rinconada",
      "countryCode": "MX",
      "stateCode": "SLP",
      "latitude": "22.25332000",
      "longitude": "-100.94974000"
   },
   {
      "name": "Rincón del Porvenir",
      "countryCode": "MX",
      "stateCode": "SLP",
      "latitude": "22.32306000",
      "longitude": "-101.17639000"
   },
   {
      "name": "Rioverde",
      "countryCode": "MX",
      "stateCode": "SLP",
      "latitude": "21.93115000",
      "longitude": "-99.99488000"
   },
   {
      "name": "Rodrigo",
      "countryCode": "MX",
      "stateCode": "SLP",
      "latitude": "21.89158000",
      "longitude": "-100.95363000"
   },
   {
      "name": "Salinas de Hidalgo",
      "countryCode": "MX",
      "stateCode": "SLP",
      "latitude": "22.62795000",
      "longitude": "-101.71417000"
   },
   {
      "name": "Salitral de Carrera",
      "countryCode": "MX",
      "stateCode": "SLP",
      "latitude": "22.86605000",
      "longitude": "-102.08305000"
   },
   {
      "name": "San Ciro de Acosta",
      "countryCode": "MX",
      "stateCode": "SLP",
      "latitude": "21.65072000",
      "longitude": "-99.81916000"
   },
   {
      "name": "San Diego",
      "countryCode": "MX",
      "stateCode": "SLP",
      "latitude": "21.91692000",
      "longitude": "-100.10100000"
   },
   {
      "name": "San Francisco",
      "countryCode": "MX",
      "stateCode": "SLP",
      "latitude": "22.07479000",
      "longitude": "-99.86001000"
   },
   {
      "name": "San Francisco Cuayalab",
      "countryCode": "MX",
      "stateCode": "SLP",
      "latitude": "21.73260000",
      "longitude": "-98.71754000"
   },
   {
      "name": "San Isidro",
      "countryCode": "MX",
      "stateCode": "SLP",
      "latitude": "23.86600000",
      "longitude": "-100.77506000"
   },
   {
      "name": "San José del Tapanco",
      "countryCode": "MX",
      "stateCode": "SLP",
      "latitude": "21.77097000",
      "longitude": "-99.90847000"
   },
   {
      "name": "San Luis Potosí",
      "countryCode": "MX",
      "stateCode": "SLP",
      "latitude": "22.14982000",
      "longitude": "-100.97916000"
   },
   {
      "name": "San Martín Chalchicuautla",
      "countryCode": "MX",
      "stateCode": "SLP",
      "latitude": "21.37033000",
      "longitude": "-98.65697000"
   },
   {
      "name": "San Nicolás",
      "countryCode": "MX",
      "stateCode": "SLP",
      "latitude": "21.67740000",
      "longitude": "-98.77778000"
   },
   {
      "name": "San Nicolás Tolentino",
      "countryCode": "MX",
      "stateCode": "SLP",
      "latitude": "22.24898000",
      "longitude": "-100.55240000"
   },
   {
      "name": "San Vicente Tancuayalab",
      "countryCode": "MX",
      "stateCode": "SLP",
      "latitude": "21.71886000",
      "longitude": "-98.58769000"
   },
   {
      "name": "Santa Catarina",
      "countryCode": "MX",
      "stateCode": "SLP",
      "latitude": "21.65624000",
      "longitude": "-99.49548000"
   },
   {
      "name": "Santa Martha",
      "countryCode": "MX",
      "stateCode": "SLP",
      "latitude": "22.34278000",
      "longitude": "-98.70639000"
   },
   {
      "name": "Santa María del Río",
      "countryCode": "MX",
      "stateCode": "SLP",
      "latitude": "21.79615000",
      "longitude": "-100.73815000"
   },
   {
      "name": "Santa Rita",
      "countryCode": "MX",
      "stateCode": "SLP",
      "latitude": "21.98168000",
      "longitude": "-99.84412000"
   },
   {
      "name": "Santiago Centro",
      "countryCode": "MX",
      "stateCode": "SLP",
      "latitude": "21.20528000",
      "longitude": "-98.86361000"
   },
   {
      "name": "Santo Domingo",
      "countryCode": "MX",
      "stateCode": "SLP",
      "latitude": "22.28325000",
      "longitude": "-100.16965000"
   },
   {
      "name": "Sauz de Calera",
      "countryCode": "MX",
      "stateCode": "SLP",
      "latitude": "22.86729000",
      "longitude": "-102.18755000"
   },
   {
      "name": "Socavón (El Carmen)",
      "countryCode": "MX",
      "stateCode": "SLP",
      "latitude": "21.85139000",
      "longitude": "-100.87184000"
   },
   {
      "name": "Soledad de Graciano Sánchez",
      "countryCode": "MX",
      "stateCode": "SLP",
      "latitude": "22.18912000",
      "longitude": "-100.93792000"
   },
   {
      "name": "Suspiro Picacho",
      "countryCode": "MX",
      "stateCode": "SLP",
      "latitude": "22.21103000",
      "longitude": "-101.08597000"
   },
   {
      "name": "Sánchez",
      "countryCode": "MX",
      "stateCode": "SLP",
      "latitude": "21.78709000",
      "longitude": "-100.69615000"
   },
   {
      "name": "Tamasopo",
      "countryCode": "MX",
      "stateCode": "SLP",
      "latitude": "21.92426000",
      "longitude": "-99.39365000"
   },
   {
      "name": "Tamazunchale",
      "countryCode": "MX",
      "stateCode": "SLP",
      "latitude": "21.25993000",
      "longitude": "-98.78935000"
   },
   {
      "name": "Tambaca",
      "countryCode": "MX",
      "stateCode": "SLP",
      "latitude": "21.96083000",
      "longitude": "-99.30106000"
   },
   {
      "name": "Tamcuime",
      "countryCode": "MX",
      "stateCode": "SLP",
      "latitude": "21.60137000",
      "longitude": "-99.01077000"
   },
   {
      "name": "Tampacán",
      "countryCode": "MX",
      "stateCode": "SLP",
      "latitude": "21.40201000",
      "longitude": "-98.72819000"
   },
   {
      "name": "Tampate",
      "countryCode": "MX",
      "stateCode": "SLP",
      "latitude": "21.63639000",
      "longitude": "-99.02552000"
   },
   {
      "name": "Tampemoche",
      "countryCode": "MX",
      "stateCode": "SLP",
      "latitude": "21.68943000",
      "longitude": "-99.08174000"
   },
   {
      "name": "Tamuín",
      "countryCode": "MX",
      "stateCode": "SLP",
      "latitude": "22.00554000",
      "longitude": "-98.77972000"
   },
   {
      "name": "Tamán",
      "countryCode": "MX",
      "stateCode": "SLP",
      "latitude": "21.23216000",
      "longitude": "-98.87945000"
   },
   {
      "name": "Tamápatz",
      "countryCode": "MX",
      "stateCode": "SLP",
      "latitude": "21.56654000",
      "longitude": "-99.07764000"
   },
   {
      "name": "Tancanhuitz",
      "countryCode": "MX",
      "stateCode": "SLP",
      "latitude": "21.59790000",
      "longitude": "-98.96773000"
   },
   {
      "name": "Tandzumadz",
      "countryCode": "MX",
      "stateCode": "SLP",
      "latitude": "21.56528000",
      "longitude": "-98.98028000"
   },
   {
      "name": "Tanquián de Escobedo",
      "countryCode": "MX",
      "stateCode": "SLP",
      "latitude": "21.60587000",
      "longitude": "-98.66275000"
   },
   {
      "name": "Tanute",
      "countryCode": "MX",
      "stateCode": "SLP",
      "latitude": "21.65243000",
      "longitude": "-99.03765000"
   },
   {
      "name": "Tazaquil",
      "countryCode": "MX",
      "stateCode": "SLP",
      "latitude": "21.49111000",
      "longitude": "-98.94000000"
   },
   {
      "name": "Temalacaco",
      "countryCode": "MX",
      "stateCode": "SLP",
      "latitude": "21.41389000",
      "longitude": "-98.84694000"
   },
   {
      "name": "Tenexio",
      "countryCode": "MX",
      "stateCode": "SLP",
      "latitude": "21.37667000",
      "longitude": "-98.87944000"
   },
   {
      "name": "Tierra Nueva",
      "countryCode": "MX",
      "stateCode": "SLP",
      "latitude": "21.66904000",
      "longitude": "-100.57287000"
   },
   {
      "name": "Tlacuilola",
      "countryCode": "MX",
      "stateCode": "SLP",
      "latitude": "21.23750000",
      "longitude": "-98.86806000"
   },
   {
      "name": "Tlalnepantla",
      "countryCode": "MX",
      "stateCode": "SLP",
      "latitude": "21.18000000",
      "longitude": "-98.84611000"
   },
   {
      "name": "Tocoy",
      "countryCode": "MX",
      "stateCode": "SLP",
      "latitude": "21.63861000",
      "longitude": "-98.87083000"
   },
   {
      "name": "Vanegas",
      "countryCode": "MX",
      "stateCode": "SLP",
      "latitude": "23.88459000",
      "longitude": "-100.95148000"
   },
   {
      "name": "Villa Hidalgo",
      "countryCode": "MX",
      "stateCode": "SLP",
      "latitude": "22.45049000",
      "longitude": "-100.67827000"
   },
   {
      "name": "Villa Zaragoza",
      "countryCode": "MX",
      "stateCode": "SLP",
      "latitude": "22.03716000",
      "longitude": "-100.73088000"
   },
   {
      "name": "Villa de Ramos",
      "countryCode": "MX",
      "stateCode": "SLP",
      "latitude": "22.83045000",
      "longitude": "-101.91079000"
   },
   {
      "name": "Villa de Reyes",
      "countryCode": "MX",
      "stateCode": "SLP",
      "latitude": "21.80309000",
      "longitude": "-100.93418000"
   },
   {
      "name": "Xilitla",
      "countryCode": "MX",
      "stateCode": "SLP",
      "latitude": "21.38681000",
      "longitude": "-98.99009000"
   },
   {
      "name": "Yerbabuena",
      "countryCode": "MX",
      "stateCode": "SLP",
      "latitude": "21.68586000",
      "longitude": "-100.76728000"
   },
   {
      "name": "Zamachihue",
      "countryCode": "MX",
      "stateCode": "SLP",
      "latitude": "22.50986000",
      "longitude": "-99.65620000"
   },
   {
      "name": "Zapuyo",
      "countryCode": "MX",
      "stateCode": "SLP",
      "latitude": "21.35472000",
      "longitude": "-98.92139000"
   },
   {
      "name": "Ébano",
      "countryCode": "MX",
      "stateCode": "SLP",
      "latitude": "22.21808000",
      "longitude": "-98.37706000"
   }
]