[
   {
      "name": "Balchik",
      "countryCode": "BG",
      "stateCode": "08",
      "latitude": "43.42166000",
      "longitude": "28.15848000"
   },
   {
      "name": "Dobrich",
      "countryCode": "BG",
      "stateCode": "08",
      "latitude": "43.56667000",
      "longitude": "27.83333000"
   },
   {
      "name": "General Toshevo",
      "countryCode": "BG",
      "stateCode": "08",
      "latitude": "43.70123000",
      "longitude": "28.03787000"
   },
   {
      "name": "Kavarna",
      "countryCode": "BG",
      "stateCode": "08",
      "latitude": "43.43601000",
      "longitude": "28.33953000"
   },
   {
      "name": "Krushari",
      "countryCode": "BG",
      "stateCode": "08",
      "latitude": "43.81675000",
      "longitude": "27.75552000"
   },
   {
      "name": "Obshtina Balchik",
      "countryCode": "BG",
      "stateCode": "08",
      "latitude": "43.50000000",
      "longitude": "28.13333000"
   },
   {
      "name": "Obshtina Dobrich",
      "countryCode": "BG",
      "stateCode": "08",
      "latitude": "43.57763000",
      "longitude": "27.80628000"
   },
   {
      "name": "Obshtina Dobrich-Selska",
      "countryCode": "BG",
      "stateCode": "08",
      "latitude": "43.63333000",
      "longitude": "27.73333000"
   },
   {
      "name": "Obshtina General Toshevo",
      "countryCode": "BG",
      "stateCode": "08",
      "latitude": "43.73333000",
      "longitude": "28.08333000"
   },
   {
      "name": "Obshtina Kavarna",
      "countryCode": "BG",
      "stateCode": "08",
      "latitude": "43.50000000",
      "longitude": "28.38333000"
   },
   {
      "name": "Obshtina Krushari",
      "countryCode": "BG",
      "stateCode": "08",
      "latitude": "43.88333000",
      "longitude": "27.75000000"
   },
   {
      "name": "Obshtina Shabla",
      "countryCode": "BG",
      "stateCode": "08",
      "latitude": "43.61667000",
      "longitude": "28.51667000"
   },
   {
      "name": "Obshtina Tervel",
      "countryCode": "BG",
      "stateCode": "08",
      "latitude": "43.75000000",
      "longitude": "27.40000000"
   },
   {
      "name": "Shabla",
      "countryCode": "BG",
      "stateCode": "08",
      "latitude": "43.53983000",
      "longitude": "28.53429000"
   },
   {
      "name": "Tervel",
      "countryCode": "BG",
      "stateCode": "08",
      "latitude": "43.74789000",
      "longitude": "27.40911000"
   }
]