[
   {
      "name": "Chambishi",
      "countryCode": "ZM",
      "stateCode": "08",
      "latitude": "-12.63247000",
      "longitude": "28.05367000"
   },
   {
      "name": "Chililabombwe",
      "countryCode": "ZM",
      "stateCode": "08",
      "latitude": "-12.36475000",
      "longitude": "27.82286000"
   },
   {
      "name": "Chingola",
      "countryCode": "ZM",
      "stateCode": "08",
      "latitude": "-12.52897000",
      "longitude": "27.88382000"
   },
   {
      "name": "Chingola District",
      "countryCode": "ZM",
      "stateCode": "08",
      "latitude": "-12.48478000",
      "longitude": "27.66313000"
   },
   {
      "name": "Kalulushi",
      "countryCode": "ZM",
      "stateCode": "08",
      "latitude": "-12.84151000",
      "longitude": "28.09479000"
   },
   {
      "name": "Kataba",
      "countryCode": "ZM",
      "stateCode": "08",
      "latitude": "-11.88333000",
      "longitude": "29.78333000"
   },
   {
      "name": "Kitwe",
      "countryCode": "ZM",
      "stateCode": "08",
      "latitude": "-12.80243000",
      "longitude": "28.21323000"
   },
   {
      "name": "Luanshya",
      "countryCode": "ZM",
      "stateCode": "08",
      "latitude": "-13.13667000",
      "longitude": "28.41661000"
   },
   {
      "name": "Mpongwe",
      "countryCode": "ZM",
      "stateCode": "08",
      "latitude": "-13.50914000",
      "longitude": "28.15504000"
   },
   {
      "name": "Mufulira",
      "countryCode": "ZM",
      "stateCode": "08",
      "latitude": "-12.54982000",
      "longitude": "28.24071000"
   },
   {
      "name": "Ndola",
      "countryCode": "ZM",
      "stateCode": "08",
      "latitude": "-12.95867000",
      "longitude": "28.63659000"
   }
]