[
   {
      "name": "Bahşılı İlçesi",
      "countryCode": "TR",
      "stateCode": "71",
      "latitude": "39.80979000",
      "longitude": "33.44080000"
   },
   {
      "name": "Balışeyh",
      "countryCode": "TR",
      "stateCode": "71",
      "latitude": "39.91411000",
      "longitude": "33.72333000"
   },
   {
      "name": "Delice",
      "countryCode": "TR",
      "stateCode": "71",
      "latitude": "39.95371000",
      "longitude": "34.02587000"
   },
   {
      "name": "Karakeçili",
      "countryCode": "TR",
      "stateCode": "71",
      "latitude": "39.59417000",
      "longitude": "33.37778000"
   },
   {
      "name": "Keskin",
      "countryCode": "TR",
      "stateCode": "71",
      "latitude": "39.67306000",
      "longitude": "33.61361000"
   },
   {
      "name": "Kırıkkale",
      "countryCode": "TR",
      "stateCode": "71",
      "latitude": "39.84528000",
      "longitude": "33.50639000"
   },
   {
      "name": "Sulakyurt",
      "countryCode": "TR",
      "stateCode": "71",
      "latitude": "40.15733000",
      "longitude": "33.71600000"
   },
   {
      "name": "Yahşihan İlçesi",
      "countryCode": "TR",
      "stateCode": "71",
      "latitude": "39.85992000",
      "longitude": "33.45615000"
   },
   {
      "name": "Çelebi İlçesi",
      "countryCode": "TR",
      "stateCode": "71",
      "latitude": "39.47470000",
      "longitude": "33.52895000"
   }
]