[
   {
      "name": "Brightwater",
      "countryCode": "NZ",
      "stateCode": "TAS",
      "latitude": "-41.38333000",
      "longitude": "173.11667000"
   },
   {
      "name": "Mapua",
      "countryCode": "NZ",
      "stateCode": "TAS",
      "latitude": "-41.25000000",
      "longitude": "173.10000000"
   },
   {
      "name": "Motueka",
      "countryCode": "NZ",
      "stateCode": "TAS",
      "latitude": "-41.13333000",
      "longitude": "173.01667000"
   },
   {
      "name": "Richmond",
      "countryCode": "NZ",
      "stateCode": "TAS",
      "latitude": "-41.33333000",
      "longitude": "173.18333000"
   },
   {
      "name": "Takaka",
      "countryCode": "NZ",
      "stateCode": "TAS",
      "latitude": "-40.85000000",
      "longitude": "172.80000000"
   },
   {
      "name": "Wakefield",
      "countryCode": "NZ",
      "stateCode": "TAS",
      "latitude": "-41.40000000",
      "longitude": "173.05000000"
   }
]