[
   {
      "name": "Al Kiswah",
      "countryCode": "SY",
      "stateCode": "RD",
      "latitude": "33.35810000",
      "longitude": "36.24190000"
   },
   {
      "name": "Al Quţayfah",
      "countryCode": "SY",
      "stateCode": "RD",
      "latitude": "33.73848000",
      "longitude": "36.60071000"
   },
   {
      "name": "Al-Zabadani District",
      "countryCode": "SY",
      "stateCode": "RD",
      "latitude": "33.70819000",
      "longitude": "36.11198000"
   },
   {
      "name": "An Nabk",
      "countryCode": "SY",
      "stateCode": "RD",
      "latitude": "34.02403000",
      "longitude": "36.72848000"
   },
   {
      "name": "At Tall",
      "countryCode": "SY",
      "stateCode": "RD",
      "latitude": "33.61033000",
      "longitude": "36.31070000"
   },
   {
      "name": "Az Zabadānī",
      "countryCode": "SY",
      "stateCode": "RD",
      "latitude": "33.72488000",
      "longitude": "36.10050000"
   },
   {
      "name": "Dayr al ‘Aşāfīr",
      "countryCode": "SY",
      "stateCode": "RD",
      "latitude": "33.46585000",
      "longitude": "36.42044000"
   },
   {
      "name": "Douma",
      "countryCode": "SY",
      "stateCode": "RD",
      "latitude": "33.57175000",
      "longitude": "36.40270000"
   },
   {
      "name": "Dārayyā",
      "countryCode": "SY",
      "stateCode": "RD",
      "latitude": "33.45835000",
      "longitude": "36.23256000"
   },
   {
      "name": "Jaramānā",
      "countryCode": "SY",
      "stateCode": "RD",
      "latitude": "33.48620000",
      "longitude": "36.34614000"
   },
   {
      "name": "Jayrūd",
      "countryCode": "SY",
      "stateCode": "RD",
      "latitude": "33.80709000",
      "longitude": "36.73861000"
   },
   {
      "name": "Ma‘lūlā",
      "countryCode": "SY",
      "stateCode": "RD",
      "latitude": "33.84529000",
      "longitude": "36.54514000"
   },
   {
      "name": "Medaya",
      "countryCode": "SY",
      "stateCode": "RD",
      "latitude": "33.69032000",
      "longitude": "36.10354000"
   },
   {
      "name": "Qaţanā",
      "countryCode": "SY",
      "stateCode": "RD",
      "latitude": "33.43757000",
      "longitude": "36.07888000"
   },
   {
      "name": "Qārah",
      "countryCode": "SY",
      "stateCode": "RD",
      "latitude": "34.15558000",
      "longitude": "36.74284000"
   },
   {
      "name": "Yabrūd",
      "countryCode": "SY",
      "stateCode": "RD",
      "latitude": "33.96921000",
      "longitude": "36.65729000"
   },
   {
      "name": "Şaydnāyā",
      "countryCode": "SY",
      "stateCode": "RD",
      "latitude": "33.69473000",
      "longitude": "36.37146000"
   },
   {
      "name": "Ḩarastā",
      "countryCode": "SY",
      "stateCode": "RD",
      "latitude": "33.55869000",
      "longitude": "36.36515000"
   },
   {
      "name": "‘Irbīn",
      "countryCode": "SY",
      "stateCode": "RD",
      "latitude": "33.53719000",
      "longitude": "36.36635000"
   }
]