[
   {
      "name": "Chivacoa",
      "countryCode": "VE",
      "stateCode": "U",
      "latitude": "10.15951000",
      "longitude": "-68.89453000"
   },
   {
      "name": "Municipio Independencia",
      "countryCode": "VE",
      "stateCode": "U",
      "latitude": "10.33472000",
      "longitude": "-68.75555000"
   },
   {
      "name": "Nirgua",
      "countryCode": "VE",
      "stateCode": "U",
      "latitude": "10.15039000",
      "longitude": "-68.56478000"
   },
   {
      "name": "San Felipe",
      "countryCode": "VE",
      "stateCode": "U",
      "latitude": "10.33991000",
      "longitude": "-68.74247000"
   },
   {
      "name": "Yaritagua",
      "countryCode": "VE",
      "stateCode": "U",
      "latitude": "10.08081000",
      "longitude": "-69.12420000"
   }
]