[
   {
      "name": "Enontekiö",
      "countryCode": "FI",
      "stateCode": "LL",
      "latitude": "68.38573000",
      "longitude": "23.63215000"
   },
   {
      "name": "Inari",
      "countryCode": "FI",
      "stateCode": "LL",
      "latitude": "68.90596000",
      "longitude": "27.02881000"
   },
   {
      "name": "Ivalo",
      "countryCode": "FI",
      "stateCode": "LL",
      "latitude": "68.65986000",
      "longitude": "27.53891000"
   },
   {
      "name": "Kemi",
      "countryCode": "FI",
      "stateCode": "LL",
      "latitude": "65.73641000",
      "longitude": "24.56371000"
   },
   {
      "name": "Kemijärvi",
      "countryCode": "FI",
      "stateCode": "LL",
      "latitude": "66.71309000",
      "longitude": "27.43056000"
   },
   {
      "name": "Keminmaa",
      "countryCode": "FI",
      "stateCode": "LL",
      "latitude": "65.80158000",
      "longitude": "24.54483000"
   },
   {
      "name": "Kittilä",
      "countryCode": "FI",
      "stateCode": "LL",
      "latitude": "67.66474000",
      "longitude": "24.89356000"
   },
   {
      "name": "Kolari",
      "countryCode": "FI",
      "stateCode": "LL",
      "latitude": "67.33047000",
      "longitude": "23.77785000"
   },
   {
      "name": "Muonio",
      "countryCode": "FI",
      "stateCode": "LL",
      "latitude": "67.95000000",
      "longitude": "23.70000000"
   },
   {
      "name": "Pelkosenniemi",
      "countryCode": "FI",
      "stateCode": "LL",
      "latitude": "67.11083000",
      "longitude": "27.51056000"
   },
   {
      "name": "Pello",
      "countryCode": "FI",
      "stateCode": "LL",
      "latitude": "66.77364000",
      "longitude": "23.96255000"
   },
   {
      "name": "Posio",
      "countryCode": "FI",
      "stateCode": "LL",
      "latitude": "66.10856000",
      "longitude": "28.17186000"
   },
   {
      "name": "Pyhäjärvi",
      "countryCode": "FI",
      "stateCode": "LL",
      "latitude": "67.07010000",
      "longitude": "27.21763000"
   },
   {
      "name": "Ranua",
      "countryCode": "FI",
      "stateCode": "LL",
      "latitude": "65.91667000",
      "longitude": "26.53333000"
   },
   {
      "name": "Rovaniemi",
      "countryCode": "FI",
      "stateCode": "LL",
      "latitude": "66.50000000",
      "longitude": "25.71667000"
   },
   {
      "name": "Salla",
      "countryCode": "FI",
      "stateCode": "LL",
      "latitude": "66.83333000",
      "longitude": "28.66667000"
   },
   {
      "name": "Savukoski",
      "countryCode": "FI",
      "stateCode": "LL",
      "latitude": "67.29250000",
      "longitude": "28.15806000"
   },
   {
      "name": "Simo",
      "countryCode": "FI",
      "stateCode": "LL",
      "latitude": "65.66667000",
      "longitude": "25.05000000"
   },
   {
      "name": "Sodankylä",
      "countryCode": "FI",
      "stateCode": "LL",
      "latitude": "67.41667000",
      "longitude": "26.60000000"
   },
   {
      "name": "Tervola",
      "countryCode": "FI",
      "stateCode": "LL",
      "latitude": "66.08333000",
      "longitude": "24.80000000"
   },
   {
      "name": "Tornio",
      "countryCode": "FI",
      "stateCode": "LL",
      "latitude": "65.84811000",
      "longitude": "24.14662000"
   },
   {
      "name": "Utsjoki",
      "countryCode": "FI",
      "stateCode": "LL",
      "latitude": "69.90864000",
      "longitude": "27.02843000"
   },
   {
      "name": "Ylitornio",
      "countryCode": "FI",
      "stateCode": "LL",
      "latitude": "66.30893000",
      "longitude": "23.67734000"
   }
]