[
   {
      "name": "Baabda",
      "countryCode": "LB",
      "stateCode": "JL",
      "latitude": "33.83389000",
      "longitude": "35.54417000"
   },
   {
      "name": "Bhamdoun",
      "countryCode": "LB",
      "stateCode": "JL",
      "latitude": "33.79500000",
      "longitude": "35.65111000"
   },
   {
      "name": "Bhamdoûn el Mhatta",
      "countryCode": "LB",
      "stateCode": "JL",
      "latitude": "33.80861000",
      "longitude": "35.65972000"
   },
   {
      "name": "Caza de Baabda",
      "countryCode": "LB",
      "stateCode": "JL",
      "latitude": "33.84592000",
      "longitude": "35.66791000"
   },
   {
      "name": "Jbaïl",
      "countryCode": "LB",
      "stateCode": "JL",
      "latitude": "34.12111000",
      "longitude": "35.64806000"
   },
   {
      "name": "Jounieh",
      "countryCode": "LB",
      "stateCode": "JL",
      "latitude": "33.98083000",
      "longitude": "35.61778000"
   }
]