[
   {
      "name": "Agartala",
      "countryCode": "IN",
      "stateCode": "TR",
      "latitude": "23.83605000",
      "longitude": "91.27939000"
   },
   {
      "name": "Amarpur",
      "countryCode": "IN",
      "stateCode": "TR",
      "latitude": "23.52570000",
      "longitude": "91.65879000"
   },
   {
      "name": "Ambasa",
      "countryCode": "IN",
      "stateCode": "TR",
      "latitude": "23.93600000",
      "longitude": "91.85436000"
   },
   {
      "name": "Barjala",
      "countryCode": "IN",
      "stateCode": "TR",
      "latitude": "23.61820000",
      "longitude": "91.35596000"
   },
   {
      "name": "Belonia",
      "countryCode": "IN",
      "stateCode": "TR",
      "latitude": "23.25178000",
      "longitude": "91.45407000"
   },
   {
      "name": "Dhalai",
      "countryCode": "IN",
      "stateCode": "TR",
      "latitude": "23.84307000",
      "longitude": "91.92591000"
   },
   {
      "name": "Dharmanagar",
      "countryCode": "IN",
      "stateCode": "TR",
      "latitude": "24.36667000",
      "longitude": "92.16667000"
   },
   {
      "name": "Gomati",
      "countryCode": "IN",
      "stateCode": "TR",
      "latitude": "23.53399000",
      "longitude": "91.48122000"
   },
   {
      "name": "Kailashahar",
      "countryCode": "IN",
      "stateCode": "TR",
      "latitude": "24.33199000",
      "longitude": "92.00391000"
   },
   {
      "name": "Kamalpur",
      "countryCode": "IN",
      "stateCode": "TR",
      "latitude": "24.19593000",
      "longitude": "91.83438000"
   },
   {
      "name": "Khowai",
      "countryCode": "IN",
      "stateCode": "TR",
      "latitude": "24.07964000",
      "longitude": "91.59972000"
   },
   {
      "name": "North Tripura",
      "countryCode": "IN",
      "stateCode": "TR",
      "latitude": "24.13050000",
      "longitude": "92.15552000"
   },
   {
      "name": "Ranir Bazar",
      "countryCode": "IN",
      "stateCode": "TR",
      "latitude": "23.83463000",
      "longitude": "91.36614000"
   },
   {
      "name": "Sabrum",
      "countryCode": "IN",
      "stateCode": "TR",
      "latitude": "23.00153000",
      "longitude": "91.72427000"
   },
   {
      "name": "Sonamura",
      "countryCode": "IN",
      "stateCode": "TR",
      "latitude": "23.47547000",
      "longitude": "91.26590000"
   },
   {
      "name": "South Tripura",
      "countryCode": "IN",
      "stateCode": "TR",
      "latitude": "23.16710000",
      "longitude": "91.60953000"
   },
   {
      "name": "Udaipur",
      "countryCode": "IN",
      "stateCode": "TR",
      "latitude": "23.53333000",
      "longitude": "91.48333000"
   },
   {
      "name": "Unakoti",
      "countryCode": "IN",
      "stateCode": "TR",
      "latitude": "24.32781000",
      "longitude": "92.00377000"
   },
   {
      "name": "West Tripura",
      "countryCode": "IN",
      "stateCode": "TR",
      "latitude": "23.91667000",
      "longitude": "91.50000000"
   }
]