[
   {
      "name": "Acıgöl",
      "countryCode": "TR",
      "stateCode": "50",
      "latitude": "38.55028000",
      "longitude": "34.50917000"
   },
   {
      "name": "Avanos",
      "countryCode": "TR",
      "stateCode": "50",
      "latitude": "38.71500000",
      "longitude": "34.84667000"
   },
   {
      "name": "Derinkuyu",
      "countryCode": "TR",
      "stateCode": "50",
      "latitude": "38.37510000",
      "longitude": "34.73419000"
   },
   {
      "name": "Göreme",
      "countryCode": "TR",
      "stateCode": "50",
      "latitude": "38.64370000",
      "longitude": "34.83529000"
   },
   {
      "name": "Gülşehir",
      "countryCode": "TR",
      "stateCode": "50",
      "latitude": "38.74594000",
      "longitude": "34.62524000"
   },
   {
      "name": "Hacıbektaş",
      "countryCode": "TR",
      "stateCode": "50",
      "latitude": "38.94077000",
      "longitude": "34.55770000"
   },
   {
      "name": "Kozaklı İlçesi",
      "countryCode": "TR",
      "stateCode": "50",
      "latitude": "39.23204000",
      "longitude": "34.85585000"
   },
   {
      "name": "Merkez",
      "countryCode": "TR",
      "stateCode": "50",
      "latitude": "38.60039000",
      "longitude": "34.68537000"
   },
   {
      "name": "Nevşehir",
      "countryCode": "TR",
      "stateCode": "50",
      "latitude": "38.62500000",
      "longitude": "34.71222000"
   },
   {
      "name": "Ürgüp",
      "countryCode": "TR",
      "stateCode": "50",
      "latitude": "38.57342000",
      "longitude": "34.94020000"
   }
]