[
   {
      "name": "Agadez",
      "countryCode": "NE",
      "stateCode": "1",
      "latitude": "16.97333000",
      "longitude": "7.99111000"
   },
   {
      "name": "Alaghsas",
      "countryCode": "NE",
      "stateCode": "1",
      "latitude": "17.01870000",
      "longitude": "8.01680000"
   },
   {
      "name": "Arlit",
      "countryCode": "NE",
      "stateCode": "1",
      "latitude": "18.83409000",
      "longitude": "7.43327000"
   },
   {
      "name": "Bilma",
      "countryCode": "NE",
      "stateCode": "1",
      "latitude": "18.68532000",
      "longitude": "12.91643000"
   },
   {
      "name": "Département de Bilma",
      "countryCode": "NE",
      "stateCode": "1",
      "latitude": "20.50000000",
      "longitude": "13.25000000"
   },
   {
      "name": "Département de Tchirozérine",
      "countryCode": "NE",
      "stateCode": "1",
      "latitude": "17.43293000",
      "longitude": "7.89321000"
   }
]