[
   {
      "name": "Aceh",
      "isoCode": "AC",
      "countryCode": "ID",
      "latitude": "4.69513500",
      "longitude": "96.74939930"
   },
   {
      "name": "Bali",
      "isoCode": "BA",
      "countryCode": "ID",
      "latitude": "-8.34053890",
      "longitude": "115.09195090"
   },
   {
      "name": "Kepulauan Bangka Belitung",
      "isoCode": "BB",
      "countryCode": "ID",
      "latitude": "-2.74105130",
      "longitude": "106.44058720"
   },
   {
      "name": "Bengkulu",
      "isoCode": "BE",
      "countryCode": "ID",
      "latitude": "-3.79284510",
      "longitude": "102.26076410"
   },
   {
      "name": "Banten",
      "isoCode": "BT",
      "countryCode": "ID",
      "latitude": "-6.40581720",
      "longitude": "106.06401790"
   },
   {
      "name": "Gorontalo",
      "isoCode": "GO",
      "countryCode": "ID",
      "latitude": "0.54354420",
      "longitude": "123.05676930"
   },
   {
      "name": "Jambi",
      "isoCode": "JA",
      "countryCode": "ID",
      "latitude": "-1.61012290",
      "longitude": "103.61312030"
   },
   {
      "name": "Jawa Barat",
      "isoCode": "JB",
      "countryCode": "ID",
      "latitude": "-7.09091100",
      "longitude": "107.66888700"
   },
   {
      "name": "Jawa Timur",
      "isoCode": "JI",
      "countryCode": "ID",
      "latitude": "-7.53606390",
      "longitude": "112.23840170"
   },
   {
      "name": "DKI Jakarta",
      "isoCode": "JK",
      "countryCode": "ID",
      "latitude": "-6.20876340",
      "longitude": "106.84559900"
   },
   {
      "name": "Jawa Tengah",
      "isoCode": "JT",
      "countryCode": "ID",
      "latitude": "-7.15097500",
      "longitude": "110.14025940"
   },
   {
      "name": "Kalimantan Barat",
      "isoCode": "KA",
      "countryCode": "ID",
      "latitude": "0.96188340",
      "longitude": "114.55484950"
   },
   {
      "name": "Kalimantan Timur",
      "isoCode": "KI",
      "countryCode": "ID",
      "latitude": "0.53865860",
      "longitude": "116.41938900"
   },
   {
      "name": "Kepulauan Riau",
      "isoCode": "KR",
      "countryCode": "ID",
      "latitude": "3.94565140",
      "longitude": "108.14286690"
   },
   {
      "name": "Kalimantan Selatan",
      "isoCode": "KS",
      "countryCode": "ID",
      "latitude": "-3.09264150",
      "longitude": "115.28375850"
   },
   {
      "name": "Kalimantan Tengah",
      "isoCode": "KT",
      "countryCode": "ID",
      "latitude": "-1.68148780",
      "longitude": "113.38235450"
   },
   {
      "name": "Kalimantan Utara",
      "isoCode": "KU",
      "countryCode": "ID",
      "latitude": "3.07309290",
      "longitude": "116.04138890"
   },
   {
      "name": "Lampung",
      "isoCode": "LA",
      "countryCode": "ID",
      "latitude": "-4.55858490",
      "longitude": "105.40680790"
   },
   {
      "name": "Maluku",
      "isoCode": "MA",
      "countryCode": "ID",
      "latitude": "-3.23846160",
      "longitude": "130.14527340"
   },
   {
      "name": "Maluku Utara",
      "isoCode": "MU",
      "countryCode": "ID",
      "latitude": "1.57099930",
      "longitude": "127.80876930"
   },
   {
      "name": "Nusa Tenggara Barat",
      "isoCode": "NB",
      "countryCode": "ID",
      "latitude": "-8.65293340",
      "longitude": "117.36164760"
   },
   {
      "name": "Nusa Tenggara Timur",
      "isoCode": "NT",
      "countryCode": "ID",
      "latitude": "-8.65738190",
      "longitude": "121.07937050"
   },
   {
      "name": "Papua",
      "isoCode": "PA",
      "countryCode": "ID",
      "latitude": "-5.01222020",
      "longitude": "141.34701590"
   },
   {
      "name": "Papua Barat",
      "isoCode": "PB",
      "countryCode": "ID",
      "latitude": "-1.33611540",
      "longitude": "133.17471620"
   },
   {
      "name": "Riau",
      "isoCode": "RI",
      "countryCode": "ID",
      "latitude": "0.29334690",
      "longitude": "101.70682940"
   },
   {
      "name": "Sulawesi Utara",
      "isoCode": "SA",
      "countryCode": "ID",
      "latitude": "0.62469320",
      "longitude": "123.97500180"
   },
   {
      "name": "Sumatera Barat",
      "isoCode": "SB",
      "countryCode": "ID",
      "latitude": "-0.73993970",
      "longitude": "100.80000510"
   },
   {
      "name": "Sulawesi Tenggara",
      "isoCode": "SG",
      "countryCode": "ID",
      "latitude": "-4.14491000",
      "longitude": "122.17460500"
   },
   {
      "name": "Sulawesi Selatan",
      "isoCode": "SN",
      "countryCode": "ID",
      "latitude": "-3.66879940",
      "longitude": "119.97405340"
   },
   {
      "name": "Sulawesi Barat",
      "isoCode": "SR",
      "countryCode": "ID",
      "latitude": "-2.84413710",
      "longitude": "119.23207840"
   },
   {
      "name": "Sumatera Selatan",
      "isoCode": "SS",
      "countryCode": "ID",
      "latitude": "-3.31943740",
      "longitude": "103.91439900"
   },
   {
      "name": "Sulawesi Tengah",
      "isoCode": "ST",
      "countryCode": "ID",
      "latitude": "-1.43002540",
      "longitude": "121.44561790"
   },
   {
      "name": "Sumatera Utara",
      "isoCode": "SU",
      "countryCode": "ID",
      "latitude": "2.11535470",
      "longitude": "99.54509740"
   },
   {
      "name": "DI Yogyakarta",
      "isoCode": "YO",
      "countryCode": "ID",
      "latitude": "-7.87538490",
      "longitude": "110.42620880"
   }
]