[
   {
      "name": "Akseki",
      "countryCode": "TR",
      "stateCode": "07",
      "latitude": "37.04861000",
      "longitude": "31.79000000"
   },
   {
      "name": "Aksu",
      "countryCode": "TR",
      "stateCode": "07",
      "latitude": "36.95389000",
      "longitude": "30.84778000"
   },
   {
      "name": "Alanya",
      "countryCode": "TR",
      "stateCode": "07",
      "latitude": "36.54375000",
      "longitude": "31.99982000"
   },
   {
      "name": "Antalya",
      "countryCode": "TR",
      "stateCode": "07",
      "latitude": "36.90812000",
      "longitude": "30.69556000"
   },
   {
      "name": "Avsallar",
      "countryCode": "TR",
      "stateCode": "07",
      "latitude": "36.62448000",
      "longitude": "31.76941000"
   },
   {
      "name": "Belek",
      "countryCode": "TR",
      "stateCode": "07",
      "latitude": "36.86278000",
      "longitude": "31.05556000"
   },
   {
      "name": "Beykonak",
      "countryCode": "TR",
      "stateCode": "07",
      "latitude": "36.32573000",
      "longitude": "30.30302000"
   },
   {
      "name": "Boğazkent",
      "countryCode": "TR",
      "stateCode": "07",
      "latitude": "36.85319000",
      "longitude": "31.16388000"
   },
   {
      "name": "Demre",
      "countryCode": "TR",
      "stateCode": "07",
      "latitude": "36.24444000",
      "longitude": "29.98500000"
   },
   {
      "name": "Döşemealtı İlçesi",
      "countryCode": "TR",
      "stateCode": "07",
      "latitude": "37.02366000",
      "longitude": "30.59040000"
   },
   {
      "name": "Eksere",
      "countryCode": "TR",
      "stateCode": "07",
      "latitude": "36.81339000",
      "longitude": "31.99971000"
   },
   {
      "name": "Elmalı",
      "countryCode": "TR",
      "stateCode": "07",
      "latitude": "36.73583000",
      "longitude": "29.91775000"
   },
   {
      "name": "Evrenseki",
      "countryCode": "TR",
      "stateCode": "07",
      "latitude": "36.83868000",
      "longitude": "31.35559000"
   },
   {
      "name": "Finike",
      "countryCode": "TR",
      "stateCode": "07",
      "latitude": "36.42355000",
      "longitude": "30.06645000"
   },
   {
      "name": "Gazipaşa",
      "countryCode": "TR",
      "stateCode": "07",
      "latitude": "36.26942000",
      "longitude": "32.31792000"
   },
   {
      "name": "Göynük",
      "countryCode": "TR",
      "stateCode": "07",
      "latitude": "36.66000000",
      "longitude": "30.55000000"
   },
   {
      "name": "Gündoğmuş İlçesi",
      "countryCode": "TR",
      "stateCode": "07",
      "latitude": "36.82446000",
      "longitude": "32.00679000"
   },
   {
      "name": "Kalkan",
      "countryCode": "TR",
      "stateCode": "07",
      "latitude": "36.26510000",
      "longitude": "29.41369000"
   },
   {
      "name": "Kaş",
      "countryCode": "TR",
      "stateCode": "07",
      "latitude": "36.20176000",
      "longitude": "29.63766000"
   },
   {
      "name": "Kemer",
      "countryCode": "TR",
      "stateCode": "07",
      "latitude": "36.59778000",
      "longitude": "30.56056000"
   },
   {
      "name": "Kepez İlçesi",
      "countryCode": "TR",
      "stateCode": "07",
      "latitude": "37.01187000",
      "longitude": "30.75966000"
   },
   {
      "name": "Konyaaltı",
      "countryCode": "TR",
      "stateCode": "07",
      "latitude": "36.86424000",
      "longitude": "30.62714000"
   },
   {
      "name": "Korkuteli",
      "countryCode": "TR",
      "stateCode": "07",
      "latitude": "37.06498000",
      "longitude": "30.19565000"
   },
   {
      "name": "Kumköy",
      "countryCode": "TR",
      "stateCode": "07",
      "latitude": "36.88286000",
      "longitude": "30.95178000"
   },
   {
      "name": "Kumluca",
      "countryCode": "TR",
      "stateCode": "07",
      "latitude": "36.58000000",
      "longitude": "30.30000000"
   },
   {
      "name": "Kızılağaç",
      "countryCode": "TR",
      "stateCode": "07",
      "latitude": "36.73055000",
      "longitude": "31.53517000"
   },
   {
      "name": "Mahmutlar",
      "countryCode": "TR",
      "stateCode": "07",
      "latitude": "36.49463000",
      "longitude": "32.09085000"
   },
   {
      "name": "Manavgat",
      "countryCode": "TR",
      "stateCode": "07",
      "latitude": "36.78667000",
      "longitude": "31.44306000"
   },
   {
      "name": "Muratpaşa",
      "countryCode": "TR",
      "stateCode": "07",
      "latitude": "36.89157000",
      "longitude": "30.76498000"
   },
   {
      "name": "Okurcalar",
      "countryCode": "TR",
      "stateCode": "07",
      "latitude": "36.64876000",
      "longitude": "31.70387000"
   },
   {
      "name": "Payallar",
      "countryCode": "TR",
      "stateCode": "07",
      "latitude": "36.60160000",
      "longitude": "31.85057000"
   },
   {
      "name": "Serik",
      "countryCode": "TR",
      "stateCode": "07",
      "latitude": "37.07743000",
      "longitude": "31.00677000"
   },
   {
      "name": "Side",
      "countryCode": "TR",
      "stateCode": "07",
      "latitude": "36.76667000",
      "longitude": "31.38889000"
   },
   {
      "name": "Tekirova",
      "countryCode": "TR",
      "stateCode": "07",
      "latitude": "36.50170000",
      "longitude": "30.52723000"
   },
   {
      "name": "Turunçova",
      "countryCode": "TR",
      "stateCode": "07",
      "latitude": "36.36889000",
      "longitude": "30.13750000"
   },
   {
      "name": "Türkler",
      "countryCode": "TR",
      "stateCode": "07",
      "latitude": "36.60198000",
      "longitude": "31.82067000"
   },
   {
      "name": "İbradı",
      "countryCode": "TR",
      "stateCode": "07",
      "latitude": "37.09694000",
      "longitude": "31.59917000"
   }
]