[
   {
      "name": "Agogo",
      "countryCode": "GH",
      "stateCode": "AH",
      "latitude": "6.80004000",
      "longitude": "-1.08193000"
   },
   {
      "name": "Bekwai",
      "countryCode": "GH",
      "stateCode": "AH",
      "latitude": "6.45195000",
      "longitude": "-1.57866000"
   },
   {
      "name": "Ejura",
      "countryCode": "GH",
      "stateCode": "AH",
      "latitude": "7.38558000",
      "longitude": "-1.35617000"
   },
   {
      "name": "Konongo",
      "countryCode": "GH",
      "stateCode": "AH",
      "latitude": "6.61667000",
      "longitude": "-1.21667000"
   },
   {
      "name": "Kumasi",
      "countryCode": "GH",
      "stateCode": "AH",
      "latitude": "6.68848000",
      "longitude": "-1.62443000"
   },
   {
      "name": "Mampong",
      "countryCode": "GH",
      "stateCode": "AH",
      "latitude": "7.06273000",
      "longitude": "-1.40010000"
   },
   {
      "name": "Obuase",
      "countryCode": "GH",
      "stateCode": "AH",
      "latitude": "6.20228000",
      "longitude": "-1.66796000"
   },
   {
      "name": "Tafo",
      "countryCode": "GH",
      "stateCode": "AH",
      "latitude": "6.73156000",
      "longitude": "-1.61370000"
   }
]