[
   {
      "name": "Alaba Special Wereda",
      "countryCode": "ET",
      "stateCode": "SN",
      "latitude": "7.45347000",
      "longitude": "38.21189000"
   },
   {
      "name": "Arba Minch",
      "countryCode": "ET",
      "stateCode": "SN",
      "latitude": "6.03333000",
      "longitude": "37.55000000"
   },
   {
      "name": "Bako",
      "countryCode": "ET",
      "stateCode": "SN",
      "latitude": "5.78333000",
      "longitude": "36.56667000"
   },
   {
      "name": "Bench Maji Zone",
      "countryCode": "ET",
      "stateCode": "SN",
      "latitude": "6.45994000",
      "longitude": "35.30549000"
   },
   {
      "name": "Bodītī",
      "countryCode": "ET",
      "stateCode": "SN",
      "latitude": "6.96667000",
      "longitude": "37.86667000"
   },
   {
      "name": "Bonga",
      "countryCode": "ET",
      "stateCode": "SN",
      "latitude": "7.28333000",
      "longitude": "36.23333000"
   },
   {
      "name": "Butajīra",
      "countryCode": "ET",
      "stateCode": "SN",
      "latitude": "8.11667000",
      "longitude": "38.36667000"
   },
   {
      "name": "Dīla",
      "countryCode": "ET",
      "stateCode": "SN",
      "latitude": "6.41667000",
      "longitude": "38.31667000"
   },
   {
      "name": "Felege Neway",
      "countryCode": "ET",
      "stateCode": "SN",
      "latitude": "6.30000000",
      "longitude": "36.88333000"
   },
   {
      "name": "Gedeo Zone",
      "countryCode": "ET",
      "stateCode": "SN",
      "latitude": "6.12727000",
      "longitude": "38.27716000"
   },
   {
      "name": "Guraghe Zone",
      "countryCode": "ET",
      "stateCode": "SN",
      "latitude": "8.25000000",
      "longitude": "38.00000000"
   },
   {
      "name": "Gīdolē",
      "countryCode": "ET",
      "stateCode": "SN",
      "latitude": "5.65000000",
      "longitude": "37.36667000"
   },
   {
      "name": "Hadiya Zone",
      "countryCode": "ET",
      "stateCode": "SN",
      "latitude": "7.50000000",
      "longitude": "37.75000000"
   },
   {
      "name": "Hawassa",
      "countryCode": "ET",
      "stateCode": "SN",
      "latitude": "7.06205000",
      "longitude": "38.47635000"
   },
   {
      "name": "Hosa’ina",
      "countryCode": "ET",
      "stateCode": "SN",
      "latitude": "7.54978000",
      "longitude": "37.85374000"
   },
   {
      "name": "Hāgere Selam",
      "countryCode": "ET",
      "stateCode": "SN",
      "latitude": "6.48333000",
      "longitude": "38.51667000"
   },
   {
      "name": "Jinka",
      "countryCode": "ET",
      "stateCode": "SN",
      "latitude": "5.65000000",
      "longitude": "36.65000000"
   },
   {
      "name": "Kembata Alaba Tembaro Zone",
      "countryCode": "ET",
      "stateCode": "SN",
      "latitude": "7.27039000",
      "longitude": "37.77887000"
   },
   {
      "name": "Konso",
      "countryCode": "ET",
      "stateCode": "SN",
      "latitude": "5.25000000",
      "longitude": "37.48333000"
   },
   {
      "name": "K’olīto",
      "countryCode": "ET",
      "stateCode": "SN",
      "latitude": "7.31667000",
      "longitude": "38.08333000"
   },
   {
      "name": "Leku",
      "countryCode": "ET",
      "stateCode": "SN",
      "latitude": "6.87309000",
      "longitude": "38.44425000"
   },
   {
      "name": "Lobuni",
      "countryCode": "ET",
      "stateCode": "SN",
      "latitude": "4.83333000",
      "longitude": "36.10000000"
   },
   {
      "name": "Mīzan Teferī",
      "countryCode": "ET",
      "stateCode": "SN",
      "latitude": "6.99865000",
      "longitude": "35.58879000"
   },
   {
      "name": "Sheka Zone",
      "countryCode": "ET",
      "stateCode": "SN",
      "latitude": "7.56166000",
      "longitude": "35.40174000"
   },
   {
      "name": "Sidama Zone",
      "countryCode": "ET",
      "stateCode": "SN",
      "latitude": "6.71800000",
      "longitude": "38.44800000"
   },
   {
      "name": "Sodo",
      "countryCode": "ET",
      "stateCode": "SN",
      "latitude": "6.86000000",
      "longitude": "37.76159000"
   },
   {
      "name": "Tippi",
      "countryCode": "ET",
      "stateCode": "SN",
      "latitude": "7.20000000",
      "longitude": "35.45000000"
   },
   {
      "name": "Turmi",
      "countryCode": "ET",
      "stateCode": "SN",
      "latitude": "4.96667000",
      "longitude": "36.48333000"
   },
   {
      "name": "Wendo",
      "countryCode": "ET",
      "stateCode": "SN",
      "latitude": "6.60000000",
      "longitude": "38.41667000"
   },
   {
      "name": "Wolayita Zone",
      "countryCode": "ET",
      "stateCode": "SN",
      "latitude": "6.84312000",
      "longitude": "37.70051000"
   },
   {
      "name": "Yem",
      "countryCode": "ET",
      "stateCode": "SN",
      "latitude": "7.83333000",
      "longitude": "37.50000000"
   },
   {
      "name": "Yirga ‘Alem",
      "countryCode": "ET",
      "stateCode": "SN",
      "latitude": "6.75000000",
      "longitude": "38.41667000"
   },
   {
      "name": "Āreka",
      "countryCode": "ET",
      "stateCode": "SN",
      "latitude": "7.06667000",
      "longitude": "37.70000000"
   }
]