[
   {
      "name": "Alaçatı",
      "countryCode": "TR",
      "stateCode": "35",
      "latitude": "38.28246000",
      "longitude": "26.37459000"
   },
   {
      "name": "Aliağa",
      "countryCode": "TR",
      "stateCode": "35",
      "latitude": "38.80078000",
      "longitude": "27.04375000"
   },
   {
      "name": "Bademli",
      "countryCode": "TR",
      "stateCode": "35",
      "latitude": "38.08167000",
      "longitude": "28.05778000"
   },
   {
      "name": "Balçova",
      "countryCode": "TR",
      "stateCode": "35",
      "latitude": "38.37302000",
      "longitude": "27.08714000"
   },
   {
      "name": "Bayraklı",
      "countryCode": "TR",
      "stateCode": "35",
      "latitude": "38.46222000",
      "longitude": "27.16667000"
   },
   {
      "name": "Bayındır",
      "countryCode": "TR",
      "stateCode": "35",
      "latitude": "38.21741000",
      "longitude": "27.64744000"
   },
   {
      "name": "Belevi",
      "countryCode": "TR",
      "stateCode": "35",
      "latitude": "38.01500000",
      "longitude": "27.45028000"
   },
   {
      "name": "Bergama",
      "countryCode": "TR",
      "stateCode": "35",
      "latitude": "39.17088000",
      "longitude": "27.18918000"
   },
   {
      "name": "Beydağ",
      "countryCode": "TR",
      "stateCode": "35",
      "latitude": "38.08241000",
      "longitude": "28.21609000"
   },
   {
      "name": "Bornova",
      "countryCode": "TR",
      "stateCode": "35",
      "latitude": "38.48492000",
      "longitude": "27.25235000"
   },
   {
      "name": "Buca",
      "countryCode": "TR",
      "stateCode": "35",
      "latitude": "38.34813000",
      "longitude": "27.25053000"
   },
   {
      "name": "Dikili",
      "countryCode": "TR",
      "stateCode": "35",
      "latitude": "39.07100000",
      "longitude": "26.89017000"
   },
   {
      "name": "Foça",
      "countryCode": "TR",
      "stateCode": "35",
      "latitude": "38.67030000",
      "longitude": "26.75656000"
   },
   {
      "name": "Gaziemir",
      "countryCode": "TR",
      "stateCode": "35",
      "latitude": "38.31098000",
      "longitude": "27.15178000"
   },
   {
      "name": "Gökçen",
      "countryCode": "TR",
      "stateCode": "35",
      "latitude": "38.11367000",
      "longitude": "27.87144000"
   },
   {
      "name": "Güzelbahçe",
      "countryCode": "TR",
      "stateCode": "35",
      "latitude": "38.37046000",
      "longitude": "26.86930000"
   },
   {
      "name": "Karabağlar",
      "countryCode": "TR",
      "stateCode": "35",
      "latitude": "38.36912000",
      "longitude": "27.12696000"
   },
   {
      "name": "Karaburun",
      "countryCode": "TR",
      "stateCode": "35",
      "latitude": "38.63640000",
      "longitude": "26.51094000"
   },
   {
      "name": "Karşıyaka İlçesi",
      "countryCode": "TR",
      "stateCode": "35",
      "latitude": "38.46775000",
      "longitude": "27.11502000"
   },
   {
      "name": "Kaymakçı",
      "countryCode": "TR",
      "stateCode": "35",
      "latitude": "38.16778000",
      "longitude": "28.11528000"
   },
   {
      "name": "Kemalpaşa",
      "countryCode": "TR",
      "stateCode": "35",
      "latitude": "38.40883000",
      "longitude": "27.49100000"
   },
   {
      "name": "Kiraz",
      "countryCode": "TR",
      "stateCode": "35",
      "latitude": "38.23056000",
      "longitude": "28.20444000"
   },
   {
      "name": "Konak",
      "countryCode": "TR",
      "stateCode": "35",
      "latitude": "38.41448000",
      "longitude": "27.14412000"
   },
   {
      "name": "Konaklı",
      "countryCode": "TR",
      "stateCode": "35",
      "latitude": "38.11278000",
      "longitude": "27.99611000"
   },
   {
      "name": "Kınık",
      "countryCode": "TR",
      "stateCode": "35",
      "latitude": "39.08722000",
      "longitude": "27.38333000"
   },
   {
      "name": "Menderes",
      "countryCode": "TR",
      "stateCode": "35",
      "latitude": "38.24963000",
      "longitude": "27.13429000"
   },
   {
      "name": "Menemen",
      "countryCode": "TR",
      "stateCode": "35",
      "latitude": "38.61608000",
      "longitude": "27.06315000"
   },
   {
      "name": "Narlıdere",
      "countryCode": "TR",
      "stateCode": "35",
      "latitude": "38.38957000",
      "longitude": "27.02431000"
   },
   {
      "name": "Seferihisar",
      "countryCode": "TR",
      "stateCode": "35",
      "latitude": "38.18144000",
      "longitude": "26.88877000"
   },
   {
      "name": "Selçuk",
      "countryCode": "TR",
      "stateCode": "35",
      "latitude": "37.95137000",
      "longitude": "27.36849000"
   },
   {
      "name": "Tire",
      "countryCode": "TR",
      "stateCode": "35",
      "latitude": "38.06582000",
      "longitude": "27.72730000"
   },
   {
      "name": "Torbalı",
      "countryCode": "TR",
      "stateCode": "35",
      "latitude": "38.17603000",
      "longitude": "27.37182000"
   },
   {
      "name": "Urla",
      "countryCode": "TR",
      "stateCode": "35",
      "latitude": "38.32292000",
      "longitude": "26.76403000"
   },
   {
      "name": "Yenifoça",
      "countryCode": "TR",
      "stateCode": "35",
      "latitude": "38.73333000",
      "longitude": "26.83333000"
   },
   {
      "name": "Yenişakran",
      "countryCode": "TR",
      "stateCode": "35",
      "latitude": "38.88639000",
      "longitude": "27.06694000"
   },
   {
      "name": "Zeytindağ",
      "countryCode": "TR",
      "stateCode": "35",
      "latitude": "38.96722000",
      "longitude": "27.07222000"
   },
   {
      "name": "Çandarlı",
      "countryCode": "TR",
      "stateCode": "35",
      "latitude": "38.93503000",
      "longitude": "26.93400000"
   },
   {
      "name": "Çaylı",
      "countryCode": "TR",
      "stateCode": "35",
      "latitude": "38.15330000",
      "longitude": "28.14406000"
   },
   {
      "name": "Çeşme",
      "countryCode": "TR",
      "stateCode": "35",
      "latitude": "38.32614000",
      "longitude": "26.30574000"
   },
   {
      "name": "Çiğli",
      "countryCode": "TR",
      "stateCode": "35",
      "latitude": "38.48802000",
      "longitude": "26.96596000"
   },
   {
      "name": "Ödemiş",
      "countryCode": "TR",
      "stateCode": "35",
      "latitude": "38.22780000",
      "longitude": "27.96955000"
   },
   {
      "name": "Özdere",
      "countryCode": "TR",
      "stateCode": "35",
      "latitude": "38.01611000",
      "longitude": "27.12806000"
   },
   {
      "name": "İzmir",
      "countryCode": "TR",
      "stateCode": "35",
      "latitude": "38.41273000",
      "longitude": "27.13838000"
   }
]