[
   {
      "name": "Aboso",
      "countryCode": "GH",
      "stateCode": "WP",
      "latitude": "5.36073000",
      "longitude": "-1.94856000"
   },
   {
      "name": "Axim",
      "countryCode": "GH",
      "stateCode": "WP",
      "latitude": "4.86641000",
      "longitude": "-2.24181000"
   },
   {
      "name": "Bibiani",
      "countryCode": "GH",
      "stateCode": "WP",
      "latitude": "6.46346000",
      "longitude": "-2.31938000"
   },
   {
      "name": "Prestea",
      "countryCode": "GH",
      "stateCode": "WP",
      "latitude": "5.43385000",
      "longitude": "-2.14295000"
   },
   {
      "name": "Sekondi-Takoradi",
      "countryCode": "GH",
      "stateCode": "WP",
      "latitude": "4.92678000",
      "longitude": "-1.75773000"
   },
   {
      "name": "Shama Junction",
      "countryCode": "GH",
      "stateCode": "WP",
      "latitude": "5.01806000",
      "longitude": "-1.66437000"
   },
   {
      "name": "Takoradi",
      "countryCode": "GH",
      "stateCode": "WP",
      "latitude": "4.89816000",
      "longitude": "-1.76029000"
   },
   {
      "name": "Tarkwa",
      "countryCode": "GH",
      "stateCode": "WP",
      "latitude": "5.30383000",
      "longitude": "-1.98956000"
   }
]