[
   {
      "name": "Chortoq",
      "countryCode": "UZ",
      "stateCode": "NG",
      "latitude": "41.06924000",
      "longitude": "71.82372000"
   },
   {
      "name": "Chust",
      "countryCode": "UZ",
      "stateCode": "NG",
      "latitude": "41.00329000",
      "longitude": "71.23791000"
   },
   {
      "name": "Haqqulobod",
      "countryCode": "UZ",
      "stateCode": "NG",
      "latitude": "40.91667000",
      "longitude": "72.11667000"
   },
   {
      "name": "Kosonsoy",
      "countryCode": "UZ",
      "stateCode": "NG",
      "latitude": "41.24944000",
      "longitude": "71.54738000"
   },
   {
      "name": "Namangan",
      "countryCode": "UZ",
      "stateCode": "NG",
      "latitude": "40.99830000",
      "longitude": "71.67257000"
   },
   {
      "name": "Pop",
      "countryCode": "UZ",
      "stateCode": "NG",
      "latitude": "40.87361000",
      "longitude": "71.10889000"
   },
   {
      "name": "Toshbuloq",
      "countryCode": "UZ",
      "stateCode": "NG",
      "latitude": "40.91617000",
      "longitude": "71.57819000"
   },
   {
      "name": "To‘rqao‘rg‘on",
      "countryCode": "UZ",
      "stateCode": "NG",
      "latitude": "40.99984000",
      "longitude": "71.51162000"
   },
   {
      "name": "Uchqŭrghon Shahri",
      "countryCode": "UZ",
      "stateCode": "NG",
      "latitude": "41.11371000",
      "longitude": "72.07915000"
   },
   {
      "name": "Uychi",
      "countryCode": "UZ",
      "stateCode": "NG",
      "latitude": "41.08073000",
      "longitude": "71.92331000"
   },
   {
      "name": "Yangiqo‘rg‘on",
      "countryCode": "UZ",
      "stateCode": "NG",
      "latitude": "41.19474000",
      "longitude": "71.72385000"
   }
]