[
   {
      "name": "Amazonas",
      "isoCode": "AMA",
      "countryCode": "PE",
      "latitude": null,
      "longitude": null
   },
   {
      "name": "Áncash",
      "isoCode": "ANC",
      "countryCode": "PE",
      "latitude": "-9.32504970",
      "longitude": "-77.56194190"
   },
   {
      "name": "Apurímac",
      "isoCode": "APU",
      "countryCode": "PE",
      "latitude": "-14.05045330",
      "longitude": "-73.08774900"
   },
   {
      "name": "Arequipa",
      "isoCode": "ARE",
      "countryCode": "PE",
      "latitude": "-16.40904740",
      "longitude": "-71.53745100"
   },
   {
      "name": "Ayacucho",
      "isoCode": "AYA",
      "countryCode": "PE",
      "latitude": "-13.16387370",
      "longitude": "-74.22356410"
   },
   {
      "name": "Cajamarca",
      "isoCode": "CAJ",
      "countryCode": "PE",
      "latitude": "-7.16174650",
      "longitude": "-78.51278550"
   },
   {
      "name": "Callao",
      "isoCode": "CAL",
      "countryCode": "PE",
      "latitude": "-12.05084910",
      "longitude": "-77.12598430"
   },
   {
      "name": "Cusco",
      "isoCode": "CUS",
      "countryCode": "PE",
      "latitude": "-13.53195000",
      "longitude": "-71.96746260"
   },
   {
      "name": "Huanuco",
      "isoCode": "HUC",
      "countryCode": "PE",
      "latitude": "-9.92076480",
      "longitude": "-76.24108430"
   },
   {
      "name": "Huancavelica",
      "isoCode": "HUV",
      "countryCode": "PE",
      "latitude": "-12.78619780",
      "longitude": "-74.97640240"
   },
   {
      "name": "Ica",
      "isoCode": "ICA",
      "countryCode": "PE",
      "latitude": "42.35288320",
      "longitude": "-71.04300970"
   },
   {
      "name": "Junín",
      "isoCode": "JUN",
      "countryCode": "PE",
      "latitude": "-11.15819250",
      "longitude": "-75.99263060"
   },
   {
      "name": "La Libertad",
      "isoCode": "LAL",
      "countryCode": "PE",
      "latitude": "13.49069700",
      "longitude": "-89.30846070"
   },
   {
      "name": "Lambayeque",
      "isoCode": "LAM",
      "countryCode": "PE",
      "latitude": "-6.71976660",
      "longitude": "-79.90807570"
   },
   {
      "name": "Lima",
      "isoCode": "LIM",
      "countryCode": "PE",
      "latitude": "-12.04637310",
      "longitude": "-77.04275400"
   },
   {
      "name": "Loreto",
      "isoCode": "LOR",
      "countryCode": "PE",
      "latitude": "-4.37416430",
      "longitude": "-76.13042640"
   },
   {
      "name": "Madre de Dios",
      "isoCode": "MDD",
      "countryCode": "PE",
      "latitude": "-11.76687050",
      "longitude": "-70.81199530"
   },
   {
      "name": "Moquegua",
      "isoCode": "MOQ",
      "countryCode": "PE",
      "latitude": "-17.19273610",
      "longitude": "-70.93281380"
   },
   {
      "name": "Pasco",
      "isoCode": "PAS",
      "countryCode": "PE",
      "latitude": "46.23050490",
      "longitude": "-119.09223160"
   },
   {
      "name": "Piura",
      "isoCode": "PIU",
      "countryCode": "PE",
      "latitude": "-5.17828840",
      "longitude": "-80.65488820"
   },
   {
      "name": "Puno",
      "isoCode": "PUN",
      "countryCode": "PE",
      "latitude": "-15.84022180",
      "longitude": "-70.02188050"
   },
   {
      "name": "San Martín",
      "isoCode": "SAM",
      "countryCode": "PE",
      "latitude": "37.08494640",
      "longitude": "-121.61022160"
   },
   {
      "name": "Tacna",
      "isoCode": "TAC",
      "countryCode": "PE",
      "latitude": "-18.00656790",
      "longitude": "-70.24627410"
   },
   {
      "name": "Tumbes",
      "isoCode": "TUM",
      "countryCode": "PE",
      "latitude": "-3.55649210",
      "longitude": "-80.42708850"
   },
   {
      "name": "Ucayali",
      "isoCode": "UCA",
      "countryCode": "PE",
      "latitude": "-9.82511830",
      "longitude": "-73.08774900"
   }
]