[
   {
      "name": "Ahuy",
      "countryCode": "FR",
      "stateCode": "BFC",
      "latitude": "47.36944000",
      "longitude": "5.02089000"
   },
   {
      "name": "Aillant-sur-Tholon",
      "countryCode": "FR",
      "stateCode": "BFC",
      "latitude": "47.87426000",
      "longitude": "3.35049000"
   },
   {
      "name": "Aillevillers-et-Lyaumont",
      "countryCode": "FR",
      "stateCode": "BFC",
      "latitude": "47.92033000",
      "longitude": "6.33775000"
   },
   {
      "name": "Aiserey",
      "countryCode": "FR",
      "stateCode": "BFC",
      "latitude": "47.17229000",
      "longitude": "5.16260000"
   },
   {
      "name": "Ancy-le-Franc",
      "countryCode": "FR",
      "stateCode": "BFC",
      "latitude": "47.77586000",
      "longitude": "4.16361000"
   },
   {
      "name": "Andelnans",
      "countryCode": "FR",
      "stateCode": "BFC",
      "latitude": "47.60267000",
      "longitude": "6.86621000"
   },
   {
      "name": "Appoigny",
      "countryCode": "FR",
      "stateCode": "BFC",
      "latitude": "47.87467000",
      "longitude": "3.52524000"
   },
   {
      "name": "Arbois",
      "countryCode": "FR",
      "stateCode": "BFC",
      "latitude": "46.90311000",
      "longitude": "5.77454000"
   },
   {
      "name": "Arbouans",
      "countryCode": "FR",
      "stateCode": "BFC",
      "latitude": "47.49944000",
      "longitude": "6.79505000"
   },
   {
      "name": "Arc-et-Senans",
      "countryCode": "FR",
      "stateCode": "BFC",
      "latitude": "47.03127000",
      "longitude": "5.77027000"
   },
   {
      "name": "Arc-lès-Gray",
      "countryCode": "FR",
      "stateCode": "BFC",
      "latitude": "47.45701000",
      "longitude": "5.58547000"
   },
   {
      "name": "Arc-sur-Tille",
      "countryCode": "FR",
      "stateCode": "BFC",
      "latitude": "47.34349000",
      "longitude": "5.18666000"
   },
   {
      "name": "Arcey",
      "countryCode": "FR",
      "stateCode": "BFC",
      "latitude": "47.52258000",
      "longitude": "6.66222000"
   },
   {
      "name": "Arinthod",
      "countryCode": "FR",
      "stateCode": "BFC",
      "latitude": "46.39339000",
      "longitude": "5.56616000"
   },
   {
      "name": "Arnay-le-Duc",
      "countryCode": "FR",
      "stateCode": "BFC",
      "latitude": "47.13202000",
      "longitude": "4.48595000"
   },
   {
      "name": "Audincourt",
      "countryCode": "FR",
      "stateCode": "BFC",
      "latitude": "47.48327000",
      "longitude": "6.85341000"
   },
   {
      "name": "Augy",
      "countryCode": "FR",
      "stateCode": "BFC",
      "latitude": "47.76640000",
      "longitude": "3.61051000"
   },
   {
      "name": "Autun",
      "countryCode": "FR",
      "stateCode": "BFC",
      "latitude": "46.95104000",
      "longitude": "4.29869000"
   },
   {
      "name": "Auxerre",
      "countryCode": "FR",
      "stateCode": "BFC",
      "latitude": "47.79960000",
      "longitude": "3.57033000"
   },
   {
      "name": "Auxon-Dessous",
      "countryCode": "FR",
      "stateCode": "BFC",
      "latitude": "47.30000000",
      "longitude": "5.95000000"
   },
   {
      "name": "Auxonne",
      "countryCode": "FR",
      "stateCode": "BFC",
      "latitude": "47.19255000",
      "longitude": "5.38726000"
   },
   {
      "name": "Auxy",
      "countryCode": "FR",
      "stateCode": "BFC",
      "latitude": "46.94940000",
      "longitude": "4.40440000"
   },
   {
      "name": "Avallon",
      "countryCode": "FR",
      "stateCode": "BFC",
      "latitude": "47.49002000",
      "longitude": "3.90832000"
   },
   {
      "name": "Avanne-Aveney",
      "countryCode": "FR",
      "stateCode": "BFC",
      "latitude": "47.20000000",
      "longitude": "5.96667000"
   },
   {
      "name": "Bart",
      "countryCode": "FR",
      "stateCode": "BFC",
      "latitude": "47.48861000",
      "longitude": "6.77090000"
   },
   {
      "name": "Baume-les-Dames",
      "countryCode": "FR",
      "stateCode": "BFC",
      "latitude": "47.35295000",
      "longitude": "6.36117000"
   },
   {
      "name": "Bavans",
      "countryCode": "FR",
      "stateCode": "BFC",
      "latitude": "47.48528000",
      "longitude": "6.73324000"
   },
   {
      "name": "Bavilliers",
      "countryCode": "FR",
      "stateCode": "BFC",
      "latitude": "47.62235000",
      "longitude": "6.83543000"
   },
   {
      "name": "Beaucourt",
      "countryCode": "FR",
      "stateCode": "BFC",
      "latitude": "47.48878000",
      "longitude": "6.92214000"
   },
   {
      "name": "Beaune",
      "countryCode": "FR",
      "stateCode": "BFC",
      "latitude": "47.02413000",
      "longitude": "4.83887000"
   },
   {
      "name": "Belfort",
      "countryCode": "FR",
      "stateCode": "BFC",
      "latitude": "47.64218000",
      "longitude": "6.85385000"
   },
   {
      "name": "Belleneuve",
      "countryCode": "FR",
      "stateCode": "BFC",
      "latitude": "47.36224000",
      "longitude": "5.26393000"
   },
   {
      "name": "Besançon",
      "countryCode": "FR",
      "stateCode": "BFC",
      "latitude": "47.24878000",
      "longitude": "6.01815000"
   },
   {
      "name": "Bethoncourt",
      "countryCode": "FR",
      "stateCode": "BFC",
      "latitude": "47.53512000",
      "longitude": "6.80504000"
   },
   {
      "name": "Beure",
      "countryCode": "FR",
      "stateCode": "BFC",
      "latitude": "47.20690000",
      "longitude": "6.00548000"
   },
   {
      "name": "Blamont",
      "countryCode": "FR",
      "stateCode": "BFC",
      "latitude": "47.38513000",
      "longitude": "6.84800000"
   },
   {
      "name": "Blanzy",
      "countryCode": "FR",
      "stateCode": "BFC",
      "latitude": "46.70012000",
      "longitude": "4.38833000"
   },
   {
      "name": "Bletterans",
      "countryCode": "FR",
      "stateCode": "BFC",
      "latitude": "46.74673000",
      "longitude": "5.45444000"
   },
   {
      "name": "Bligny-lès-Beaune",
      "countryCode": "FR",
      "stateCode": "BFC",
      "latitude": "46.98631000",
      "longitude": "4.82620000"
   },
   {
      "name": "Bléneau",
      "countryCode": "FR",
      "stateCode": "BFC",
      "latitude": "47.70000000",
      "longitude": "2.95000000"
   },
   {
      "name": "Bois-d’Amont",
      "countryCode": "FR",
      "stateCode": "BFC",
      "latitude": "46.53280000",
      "longitude": "6.13750000"
   },
   {
      "name": "Bourbon-Lancy",
      "countryCode": "FR",
      "stateCode": "BFC",
      "latitude": "46.62214000",
      "longitude": "3.76953000"
   },
   {
      "name": "Bourogne",
      "countryCode": "FR",
      "stateCode": "BFC",
      "latitude": "47.56307000",
      "longitude": "6.91654000"
   },
   {
      "name": "Boussières",
      "countryCode": "FR",
      "stateCode": "BFC",
      "latitude": "47.15866000",
      "longitude": "5.90314000"
   },
   {
      "name": "Branges",
      "countryCode": "FR",
      "stateCode": "BFC",
      "latitude": "46.64441000",
      "longitude": "5.18465000"
   },
   {
      "name": "Brazey-en-Plaine",
      "countryCode": "FR",
      "stateCode": "BFC",
      "latitude": "47.13784000",
      "longitude": "5.21538000"
   },
   {
      "name": "Brienon-sur-Armançon",
      "countryCode": "FR",
      "stateCode": "BFC",
      "latitude": "47.99009000",
      "longitude": "3.61628000"
   },
   {
      "name": "Buxy",
      "countryCode": "FR",
      "stateCode": "BFC",
      "latitude": "46.71369000",
      "longitude": "4.70427000"
   },
   {
      "name": "Cercy-la-Tour",
      "countryCode": "FR",
      "stateCode": "BFC",
      "latitude": "46.86203000",
      "longitude": "3.64652000"
   },
   {
      "name": "Chablis",
      "countryCode": "FR",
      "stateCode": "BFC",
      "latitude": "47.81386000",
      "longitude": "3.79835000"
   },
   {
      "name": "Chagny",
      "countryCode": "FR",
      "stateCode": "BFC",
      "latitude": "46.90953000",
      "longitude": "4.75190000"
   },
   {
      "name": "Challuy",
      "countryCode": "FR",
      "stateCode": "BFC",
      "latitude": "46.94971000",
      "longitude": "3.14807000"
   },
   {
      "name": "Chalon-sur-Saône",
      "countryCode": "FR",
      "stateCode": "BFC",
      "latitude": "46.78112000",
      "longitude": "4.85372000"
   },
   {
      "name": "Champagney",
      "countryCode": "FR",
      "stateCode": "BFC",
      "latitude": "47.70504000",
      "longitude": "6.68173000"
   },
   {
      "name": "Champagnole",
      "countryCode": "FR",
      "stateCode": "BFC",
      "latitude": "46.74452000",
      "longitude": "5.91354000"
   },
   {
      "name": "Champforgeuil",
      "countryCode": "FR",
      "stateCode": "BFC",
      "latitude": "46.81857000",
      "longitude": "4.83357000"
   },
   {
      "name": "Champignelles",
      "countryCode": "FR",
      "stateCode": "BFC",
      "latitude": "47.78009000",
      "longitude": "3.07457000"
   },
   {
      "name": "Champigny",
      "countryCode": "FR",
      "stateCode": "BFC",
      "latitude": "48.31667000",
      "longitude": "3.13333000"
   },
   {
      "name": "Champlitte",
      "countryCode": "FR",
      "stateCode": "BFC",
      "latitude": "47.61667000",
      "longitude": "5.51667000"
   },
   {
      "name": "Champlitte-la-Ville",
      "countryCode": "FR",
      "stateCode": "BFC",
      "latitude": "47.61333000",
      "longitude": "5.53191000"
   },
   {
      "name": "Champs-sur-Yonne",
      "countryCode": "FR",
      "stateCode": "BFC",
      "latitude": "47.73333000",
      "longitude": "3.60000000"
   },
   {
      "name": "Champvans",
      "countryCode": "FR",
      "stateCode": "BFC",
      "latitude": "47.10466000",
      "longitude": "5.43760000"
   },
   {
      "name": "Chantenay-Saint-Imbert",
      "countryCode": "FR",
      "stateCode": "BFC",
      "latitude": "46.73333000",
      "longitude": "3.18333000"
   },
   {
      "name": "Charbuy",
      "countryCode": "FR",
      "stateCode": "BFC",
      "latitude": "47.82282000",
      "longitude": "3.46617000"
   },
   {
      "name": "Charnay-lès-Mâcon",
      "countryCode": "FR",
      "stateCode": "BFC",
      "latitude": "46.30751000",
      "longitude": "4.78479000"
   },
   {
      "name": "Charny",
      "countryCode": "FR",
      "stateCode": "BFC",
      "latitude": "47.88661000",
      "longitude": "3.09583000"
   },
   {
      "name": "Charolles",
      "countryCode": "FR",
      "stateCode": "BFC",
      "latitude": "46.43451000",
      "longitude": "4.27527000"
   },
   {
      "name": "Charquemont",
      "countryCode": "FR",
      "stateCode": "BFC",
      "latitude": "47.21417000",
      "longitude": "6.81980000"
   },
   {
      "name": "Chauffailles",
      "countryCode": "FR",
      "stateCode": "BFC",
      "latitude": "46.20726000",
      "longitude": "4.33932000"
   },
   {
      "name": "Chaulgnes",
      "countryCode": "FR",
      "stateCode": "BFC",
      "latitude": "47.12889000",
      "longitude": "3.10348000"
   },
   {
      "name": "Chaussin",
      "countryCode": "FR",
      "stateCode": "BFC",
      "latitude": "46.96612000",
      "longitude": "5.40791000"
   },
   {
      "name": "Chemaudin",
      "countryCode": "FR",
      "stateCode": "BFC",
      "latitude": "47.22392000",
      "longitude": "5.89419000"
   },
   {
      "name": "Cheny",
      "countryCode": "FR",
      "stateCode": "BFC",
      "latitude": "47.95166000",
      "longitude": "3.53340000"
   },
   {
      "name": "Chenôve",
      "countryCode": "FR",
      "stateCode": "BFC",
      "latitude": "47.29323000",
      "longitude": "5.00457000"
   },
   {
      "name": "Chevigny-Saint-Sauveur",
      "countryCode": "FR",
      "stateCode": "BFC",
      "latitude": "47.29908000",
      "longitude": "5.13367000"
   },
   {
      "name": "Choisey",
      "countryCode": "FR",
      "stateCode": "BFC",
      "latitude": "47.06389000",
      "longitude": "5.45911000"
   },
   {
      "name": "Châlonvillars",
      "countryCode": "FR",
      "stateCode": "BFC",
      "latitude": "47.64055000",
      "longitude": "6.78407000"
   },
   {
      "name": "Château-Chinon(Ville)",
      "countryCode": "FR",
      "stateCode": "BFC",
      "latitude": "47.06667000",
      "longitude": "3.93333000"
   },
   {
      "name": "Châtenois-les-Forges",
      "countryCode": "FR",
      "stateCode": "BFC",
      "latitude": "47.55875000",
      "longitude": "6.84871000"
   },
   {
      "name": "Châtenoy-le-Royal",
      "countryCode": "FR",
      "stateCode": "BFC",
      "latitude": "46.79797000",
      "longitude": "4.81190000"
   },
   {
      "name": "Châtillon-en-Bazois",
      "countryCode": "FR",
      "stateCode": "BFC",
      "latitude": "47.05464000",
      "longitude": "3.65893000"
   },
   {
      "name": "Châtillon-le-Duc",
      "countryCode": "FR",
      "stateCode": "BFC",
      "latitude": "47.30486000",
      "longitude": "6.00792000"
   },
   {
      "name": "Châtillon-sur-Seine",
      "countryCode": "FR",
      "stateCode": "BFC",
      "latitude": "47.85851000",
      "longitude": "4.57375000"
   },
   {
      "name": "Chèvremont",
      "countryCode": "FR",
      "stateCode": "BFC",
      "latitude": "47.62912000",
      "longitude": "6.92056000"
   },
   {
      "name": "Chéroy",
      "countryCode": "FR",
      "stateCode": "BFC",
      "latitude": "48.20076000",
      "longitude": "3.00011000"
   },
   {
      "name": "Ciry-le-Noble",
      "countryCode": "FR",
      "stateCode": "BFC",
      "latitude": "46.60607000",
      "longitude": "4.29869000"
   },
   {
      "name": "Clairvaux-les-Lacs",
      "countryCode": "FR",
      "stateCode": "BFC",
      "latitude": "46.57473000",
      "longitude": "5.74825000"
   },
   {
      "name": "Clamecy",
      "countryCode": "FR",
      "stateCode": "BFC",
      "latitude": "47.46017000",
      "longitude": "3.51940000"
   },
   {
      "name": "Clerval",
      "countryCode": "FR",
      "stateCode": "BFC",
      "latitude": "47.39167000",
      "longitude": "6.49925000"
   },
   {
      "name": "Cluny",
      "countryCode": "FR",
      "stateCode": "BFC",
      "latitude": "46.43318000",
      "longitude": "4.65845000"
   },
   {
      "name": "Colombier-Fontaine",
      "countryCode": "FR",
      "stateCode": "BFC",
      "latitude": "47.45224000",
      "longitude": "6.69010000"
   },
   {
      "name": "Corbenay",
      "countryCode": "FR",
      "stateCode": "BFC",
      "latitude": "47.89275000",
      "longitude": "6.33047000"
   },
   {
      "name": "Corbigny",
      "countryCode": "FR",
      "stateCode": "BFC",
      "latitude": "47.25678000",
      "longitude": "3.68285000"
   },
   {
      "name": "Corpeau",
      "countryCode": "FR",
      "stateCode": "BFC",
      "latitude": "46.92917000",
      "longitude": "4.75226000"
   },
   {
      "name": "Cosne-Cours-sur-Loire",
      "countryCode": "FR",
      "stateCode": "BFC",
      "latitude": "47.41101000",
      "longitude": "2.92528000"
   },
   {
      "name": "Couches",
      "countryCode": "FR",
      "stateCode": "BFC",
      "latitude": "46.86667000",
      "longitude": "4.56667000"
   },
   {
      "name": "Couchey",
      "countryCode": "FR",
      "stateCode": "BFC",
      "latitude": "47.25991000",
      "longitude": "4.98257000"
   },
   {
      "name": "Coulanges-lès-Nevers",
      "countryCode": "FR",
      "stateCode": "BFC",
      "latitude": "47.00509000",
      "longitude": "3.18756000"
   },
   {
      "name": "Courcelles-lès-Montbéliard",
      "countryCode": "FR",
      "stateCode": "BFC",
      "latitude": "47.50113000",
      "longitude": "6.78461000"
   },
   {
      "name": "Courlon-sur-Yonne",
      "countryCode": "FR",
      "stateCode": "BFC",
      "latitude": "48.33927000",
      "longitude": "3.16660000"
   },
   {
      "name": "Cousance",
      "countryCode": "FR",
      "stateCode": "BFC",
      "latitude": "46.53324000",
      "longitude": "5.39214000"
   },
   {
      "name": "Couternon",
      "countryCode": "FR",
      "stateCode": "BFC",
      "latitude": "47.33333000",
      "longitude": "5.15000000"
   },
   {
      "name": "Cravanche",
      "countryCode": "FR",
      "stateCode": "BFC",
      "latitude": "47.65346000",
      "longitude": "6.83197000"
   },
   {
      "name": "Crissey",
      "countryCode": "FR",
      "stateCode": "BFC",
      "latitude": "46.81652000",
      "longitude": "4.88185000"
   },
   {
      "name": "Crêches-sur-Saône",
      "countryCode": "FR",
      "stateCode": "BFC",
      "latitude": "46.24475000",
      "longitude": "4.78678000"
   },
   {
      "name": "Cuiseaux",
      "countryCode": "FR",
      "stateCode": "BFC",
      "latitude": "46.49473000",
      "longitude": "5.38931000"
   },
   {
      "name": "Cuisery",
      "countryCode": "FR",
      "stateCode": "BFC",
      "latitude": "46.55696000",
      "longitude": "4.99797000"
   },
   {
      "name": "Curgy",
      "countryCode": "FR",
      "stateCode": "BFC",
      "latitude": "46.98714000",
      "longitude": "4.38452000"
   },
   {
      "name": "Cézy",
      "countryCode": "FR",
      "stateCode": "BFC",
      "latitude": "47.99265000",
      "longitude": "3.34067000"
   },
   {
      "name": "Daix",
      "countryCode": "FR",
      "stateCode": "BFC",
      "latitude": "47.35081000",
      "longitude": "5.00052000"
   },
   {
      "name": "Damparis",
      "countryCode": "FR",
      "stateCode": "BFC",
      "latitude": "47.07556000",
      "longitude": "5.41398000"
   },
   {
      "name": "Dampierre",
      "countryCode": "FR",
      "stateCode": "BFC",
      "latitude": "47.15498000",
      "longitude": "5.74167000"
   },
   {
      "name": "Dampierre-les-Bois",
      "countryCode": "FR",
      "stateCode": "BFC",
      "latitude": "47.50639000",
      "longitude": "6.91279000"
   },
   {
      "name": "Dampierre-sur-Salon",
      "countryCode": "FR",
      "stateCode": "BFC",
      "latitude": "47.55719000",
      "longitude": "5.67970000"
   },
   {
      "name": "Damprichard",
      "countryCode": "FR",
      "stateCode": "BFC",
      "latitude": "47.24413000",
      "longitude": "6.88121000"
   },
   {
      "name": "Danjoutin",
      "countryCode": "FR",
      "stateCode": "BFC",
      "latitude": "47.61822000",
      "longitude": "6.86204000"
   },
   {
      "name": "Dannemarie-sur-Crête",
      "countryCode": "FR",
      "stateCode": "BFC",
      "latitude": "47.20488000",
      "longitude": "5.87018000"
   },
   {
      "name": "Dasle",
      "countryCode": "FR",
      "stateCode": "BFC",
      "latitude": "47.47843000",
      "longitude": "6.89728000"
   },
   {
      "name": "Decize",
      "countryCode": "FR",
      "stateCode": "BFC",
      "latitude": "46.82852000",
      "longitude": "3.46192000"
   },
   {
      "name": "Delle",
      "countryCode": "FR",
      "stateCode": "BFC",
      "latitude": "47.50797000",
      "longitude": "6.99975000"
   },
   {
      "name": "Demigny",
      "countryCode": "FR",
      "stateCode": "BFC",
      "latitude": "46.93048000",
      "longitude": "4.83381000"
   },
   {
      "name": "Devecey",
      "countryCode": "FR",
      "stateCode": "BFC",
      "latitude": "47.32169000",
      "longitude": "6.01900000"
   },
   {
      "name": "Diges",
      "countryCode": "FR",
      "stateCode": "BFC",
      "latitude": "47.72862000",
      "longitude": "3.39786000"
   },
   {
      "name": "Digoin",
      "countryCode": "FR",
      "stateCode": "BFC",
      "latitude": "46.48124000",
      "longitude": "3.97946000"
   },
   {
      "name": "Dijon",
      "countryCode": "FR",
      "stateCode": "BFC",
      "latitude": "47.31667000",
      "longitude": "5.01667000"
   },
   {
      "name": "Dole",
      "countryCode": "FR",
      "stateCode": "BFC",
      "latitude": "47.09225000",
      "longitude": "5.48966000"
   },
   {
      "name": "Donzy",
      "countryCode": "FR",
      "stateCode": "BFC",
      "latitude": "47.37066000",
      "longitude": "3.12548000"
   },
   {
      "name": "Dornes",
      "countryCode": "FR",
      "stateCode": "BFC",
      "latitude": "46.71600000",
      "longitude": "3.35343000"
   },
   {
      "name": "Doubs",
      "countryCode": "FR",
      "stateCode": "BFC",
      "latitude": "47.19967000",
      "longitude": "6.43487000"
   },
   {
      "name": "Dracy-le-Fort",
      "countryCode": "FR",
      "stateCode": "BFC",
      "latitude": "46.79750000",
      "longitude": "4.76215000"
   },
   {
      "name": "Département de Saône-et-Loire",
      "countryCode": "FR",
      "stateCode": "BFC",
      "latitude": "46.63646000",
      "longitude": "4.58819000"
   },
   {
      "name": "Département de l'Yonne",
      "countryCode": "FR",
      "stateCode": "BFC",
      "latitude": "47.91667000",
      "longitude": "3.75000000"
   },
   {
      "name": "Département de la Côte-d'Or",
      "countryCode": "FR",
      "stateCode": "BFC",
      "latitude": "47.50000000",
      "longitude": "4.83333000"
   },
   {
      "name": "Département de la Haute-Saône",
      "countryCode": "FR",
      "stateCode": "BFC",
      "latitude": "47.67625000",
      "longitude": "6.10066000"
   },
   {
      "name": "Département de la Nièvre",
      "countryCode": "FR",
      "stateCode": "BFC",
      "latitude": "47.11695000",
      "longitude": "3.49192000"
   },
   {
      "name": "Essert",
      "countryCode": "FR",
      "stateCode": "BFC",
      "latitude": "47.63342000",
      "longitude": "6.81702000"
   },
   {
      "name": "Exincourt",
      "countryCode": "FR",
      "stateCode": "BFC",
      "latitude": "47.49465000",
      "longitude": "6.83169000"
   },
   {
      "name": "Faverney",
      "countryCode": "FR",
      "stateCode": "BFC",
      "latitude": "47.76713000",
      "longitude": "6.10428000"
   },
   {
      "name": "Fesches-le-Châtel",
      "countryCode": "FR",
      "stateCode": "BFC",
      "latitude": "47.52415000",
      "longitude": "6.90535000"
   },
   {
      "name": "Fleurey-sur-Ouche",
      "countryCode": "FR",
      "stateCode": "BFC",
      "latitude": "47.31182000",
      "longitude": "4.85911000"
   },
   {
      "name": "Fleury-la-Vallée",
      "countryCode": "FR",
      "stateCode": "BFC",
      "latitude": "47.86672000",
      "longitude": "3.44908000"
   },
   {
      "name": "Flogny-la-Chapelle",
      "countryCode": "FR",
      "stateCode": "BFC",
      "latitude": "47.95000000",
      "longitude": "3.86667000"
   },
   {
      "name": "Fontaine-lès-Dijon",
      "countryCode": "FR",
      "stateCode": "BFC",
      "latitude": "47.34238000",
      "longitude": "5.02007000"
   },
   {
      "name": "Fontaine-lès-Luxeuil",
      "countryCode": "FR",
      "stateCode": "BFC",
      "latitude": "47.85592000",
      "longitude": "6.33482000"
   },
   {
      "name": "Fontaines",
      "countryCode": "FR",
      "stateCode": "BFC",
      "latitude": "46.84905000",
      "longitude": "4.77036000"
   },
   {
      "name": "Foucherans",
      "countryCode": "FR",
      "stateCode": "BFC",
      "latitude": "47.08094000",
      "longitude": "5.45503000"
   },
   {
      "name": "Fougerolles",
      "countryCode": "FR",
      "stateCode": "BFC",
      "latitude": "47.88542000",
      "longitude": "6.40454000"
   },
   {
      "name": "Fourchambault",
      "countryCode": "FR",
      "stateCode": "BFC",
      "latitude": "47.01667000",
      "longitude": "3.08333000"
   },
   {
      "name": "Frahier-et-Chatebier",
      "countryCode": "FR",
      "stateCode": "BFC",
      "latitude": "47.66667000",
      "longitude": "6.75000000"
   },
   {
      "name": "Fraisans",
      "countryCode": "FR",
      "stateCode": "BFC",
      "latitude": "47.14857000",
      "longitude": "5.76051000"
   },
   {
      "name": "Franois",
      "countryCode": "FR",
      "stateCode": "BFC",
      "latitude": "47.23055000",
      "longitude": "5.92869000"
   },
   {
      "name": "Frasne",
      "countryCode": "FR",
      "stateCode": "BFC",
      "latitude": "46.85641000",
      "longitude": "6.15940000"
   },
   {
      "name": "Froideconche",
      "countryCode": "FR",
      "stateCode": "BFC",
      "latitude": "47.82121000",
      "longitude": "6.41523000"
   },
   {
      "name": "Frotey-lès-Vesoul",
      "countryCode": "FR",
      "stateCode": "BFC",
      "latitude": "47.62078000",
      "longitude": "6.18831000"
   },
   {
      "name": "Fénay",
      "countryCode": "FR",
      "stateCode": "BFC",
      "latitude": "47.23185000",
      "longitude": "5.06211000"
   },
   {
      "name": "Garchizy",
      "countryCode": "FR",
      "stateCode": "BFC",
      "latitude": "47.04786000",
      "longitude": "3.09625000"
   },
   {
      "name": "Genlis",
      "countryCode": "FR",
      "stateCode": "BFC",
      "latitude": "47.24203000",
      "longitude": "5.22415000"
   },
   {
      "name": "Gergy",
      "countryCode": "FR",
      "stateCode": "BFC",
      "latitude": "46.87557000",
      "longitude": "4.94527000"
   },
   {
      "name": "Gevrey-Chambertin",
      "countryCode": "FR",
      "stateCode": "BFC",
      "latitude": "47.22614000",
      "longitude": "4.96806000"
   },
   {
      "name": "Gilley",
      "countryCode": "FR",
      "stateCode": "BFC",
      "latitude": "47.04740000",
      "longitude": "6.48257000"
   },
   {
      "name": "Giromagny",
      "countryCode": "FR",
      "stateCode": "BFC",
      "latitude": "47.74272000",
      "longitude": "6.82733000"
   },
   {
      "name": "Givry",
      "countryCode": "FR",
      "stateCode": "BFC",
      "latitude": "46.78202000",
      "longitude": "4.74262000"
   },
   {
      "name": "Grand-Charmont",
      "countryCode": "FR",
      "stateCode": "BFC",
      "latitude": "47.52674000",
      "longitude": "6.82604000"
   },
   {
      "name": "Grandfontaine",
      "countryCode": "FR",
      "stateCode": "BFC",
      "latitude": "47.19763000",
      "longitude": "5.90079000"
   },
   {
      "name": "Grandvillars",
      "countryCode": "FR",
      "stateCode": "BFC",
      "latitude": "47.53929000",
      "longitude": "6.97100000"
   },
   {
      "name": "Gray",
      "countryCode": "FR",
      "stateCode": "BFC",
      "latitude": "47.44575000",
      "longitude": "5.59215000"
   },
   {
      "name": "Gray-la-Ville",
      "countryCode": "FR",
      "stateCode": "BFC",
      "latitude": "47.43932000",
      "longitude": "5.57252000"
   },
   {
      "name": "Gron",
      "countryCode": "FR",
      "stateCode": "BFC",
      "latitude": "48.15967000",
      "longitude": "3.26345000"
   },
   {
      "name": "Gueugnon",
      "countryCode": "FR",
      "stateCode": "BFC",
      "latitude": "46.60357000",
      "longitude": "4.06286000"
   },
   {
      "name": "Gurgy",
      "countryCode": "FR",
      "stateCode": "BFC",
      "latitude": "47.86712000",
      "longitude": "3.56341000"
   },
   {
      "name": "Guérigny",
      "countryCode": "FR",
      "stateCode": "BFC",
      "latitude": "47.08703000",
      "longitude": "3.20182000"
   },
   {
      "name": "Gy",
      "countryCode": "FR",
      "stateCode": "BFC",
      "latitude": "47.40588000",
      "longitude": "5.81226000"
   },
   {
      "name": "Génelard",
      "countryCode": "FR",
      "stateCode": "BFC",
      "latitude": "46.58119000",
      "longitude": "4.23619000"
   },
   {
      "name": "Hauteville-lès-Dijon",
      "countryCode": "FR",
      "stateCode": "BFC",
      "latitude": "47.36602000",
      "longitude": "4.99375000"
   },
   {
      "name": "Hurigny",
      "countryCode": "FR",
      "stateCode": "BFC",
      "latitude": "46.34722000",
      "longitude": "4.79676000"
   },
   {
      "name": "Héricourt",
      "countryCode": "FR",
      "stateCode": "BFC",
      "latitude": "47.57305000",
      "longitude": "6.76139000"
   },
   {
      "name": "Hérimoncourt",
      "countryCode": "FR",
      "stateCode": "BFC",
      "latitude": "47.44284000",
      "longitude": "6.88242000"
   },
   {
      "name": "Héry",
      "countryCode": "FR",
      "stateCode": "BFC",
      "latitude": "47.90146000",
      "longitude": "3.62868000"
   },
   {
      "name": "Imphy",
      "countryCode": "FR",
      "stateCode": "BFC",
      "latitude": "46.93619000",
      "longitude": "3.26037000"
   },
   {
      "name": "Is-sur-Tille",
      "countryCode": "FR",
      "stateCode": "BFC",
      "latitude": "47.52670000",
      "longitude": "5.10649000"
   },
   {
      "name": "Joigny",
      "countryCode": "FR",
      "stateCode": "BFC",
      "latitude": "47.98288000",
      "longitude": "3.40096000"
   },
   {
      "name": "Joncherey",
      "countryCode": "FR",
      "stateCode": "BFC",
      "latitude": "47.52895000",
      "longitude": "7.00323000"
   },
   {
      "name": "Jougne",
      "countryCode": "FR",
      "stateCode": "BFC",
      "latitude": "46.76291000",
      "longitude": "6.38838000"
   },
   {
      "name": "Joux-la-Ville",
      "countryCode": "FR",
      "stateCode": "BFC",
      "latitude": "47.62241000",
      "longitude": "3.86217000"
   },
   {
      "name": "Jura",
      "countryCode": "FR",
      "stateCode": "BFC",
      "latitude": "46.73431000",
      "longitude": "5.72349000"
   },
   {
      "name": "Jussey",
      "countryCode": "FR",
      "stateCode": "BFC",
      "latitude": "47.82536000",
      "longitude": "5.90193000"
   },
   {
      "name": "La Chapelle-de-Guinchay",
      "countryCode": "FR",
      "stateCode": "BFC",
      "latitude": "46.20841000",
      "longitude": "4.76245000"
   },
   {
      "name": "La Charité-sur-Loire",
      "countryCode": "FR",
      "stateCode": "BFC",
      "latitude": "47.18333000",
      "longitude": "3.01667000"
   },
   {
      "name": "La Clayette",
      "countryCode": "FR",
      "stateCode": "BFC",
      "latitude": "46.29002000",
      "longitude": "4.30422000"
   },
   {
      "name": "La Cluse-et-Mijoux",
      "countryCode": "FR",
      "stateCode": "BFC",
      "latitude": "46.88333000",
      "longitude": "6.38333000"
   },
   {
      "name": "La Machine",
      "countryCode": "FR",
      "stateCode": "BFC",
      "latitude": "46.89226000",
      "longitude": "3.46426000"
   },
   {
      "name": "La Motte-Saint-Jean",
      "countryCode": "FR",
      "stateCode": "BFC",
      "latitude": "46.49594000",
      "longitude": "3.96396000"
   },
   {
      "name": "La Roche-Vineuse",
      "countryCode": "FR",
      "stateCode": "BFC",
      "latitude": "46.34524000",
      "longitude": "4.72023000"
   },
   {
      "name": "Ladoix-Serrigny",
      "countryCode": "FR",
      "stateCode": "BFC",
      "latitude": "47.06667000",
      "longitude": "4.88333000"
   },
   {
      "name": "Lamarche-sur-Saône",
      "countryCode": "FR",
      "stateCode": "BFC",
      "latitude": "47.26946000",
      "longitude": "5.38589000"
   },
   {
      "name": "Laroche-Saint-Cydroine",
      "countryCode": "FR",
      "stateCode": "BFC",
      "latitude": "47.96801000",
      "longitude": "3.48467000"
   },
   {
      "name": "Lavans-lès-Saint-Claude",
      "countryCode": "FR",
      "stateCode": "BFC",
      "latitude": "46.38484000",
      "longitude": "5.78172000"
   },
   {
      "name": "Le Breuil",
      "countryCode": "FR",
      "stateCode": "BFC",
      "latitude": "46.80654000",
      "longitude": "4.46953000"
   },
   {
      "name": "Le Creusot",
      "countryCode": "FR",
      "stateCode": "BFC",
      "latitude": "46.80714000",
      "longitude": "4.41632000"
   },
   {
      "name": "Le Russey",
      "countryCode": "FR",
      "stateCode": "BFC",
      "latitude": "47.16055000",
      "longitude": "6.72912000"
   },
   {
      "name": "Lepuix",
      "countryCode": "FR",
      "stateCode": "BFC",
      "latitude": "47.76050000",
      "longitude": "6.81434000"
   },
   {
      "name": "Les Fins",
      "countryCode": "FR",
      "stateCode": "BFC",
      "latitude": "47.07764000",
      "longitude": "6.63002000"
   },
   {
      "name": "Les Fourgs",
      "countryCode": "FR",
      "stateCode": "BFC",
      "latitude": "46.83455000",
      "longitude": "6.39953000"
   },
   {
      "name": "Les Rousses",
      "countryCode": "FR",
      "stateCode": "BFC",
      "latitude": "46.48412000",
      "longitude": "6.06330000"
   },
   {
      "name": "Levier",
      "countryCode": "FR",
      "stateCode": "BFC",
      "latitude": "46.95302000",
      "longitude": "6.12059000"
   },
   {
      "name": "Ligny-le-Châtel",
      "countryCode": "FR",
      "stateCode": "BFC",
      "latitude": "47.90022000",
      "longitude": "3.75760000"
   },
   {
      "name": "Longchamp",
      "countryCode": "FR",
      "stateCode": "BFC",
      "latitude": "47.25973000",
      "longitude": "5.28694000"
   },
   {
      "name": "Longchaumois",
      "countryCode": "FR",
      "stateCode": "BFC",
      "latitude": "46.46228000",
      "longitude": "5.93052000"
   },
   {
      "name": "Longecourt-en-Plaine",
      "countryCode": "FR",
      "stateCode": "BFC",
      "latitude": "47.19783000",
      "longitude": "5.14956000"
   },
   {
      "name": "Longvic",
      "countryCode": "FR",
      "stateCode": "BFC",
      "latitude": "47.28754000",
      "longitude": "5.06341000"
   },
   {
      "name": "Lons-le-Saunier",
      "countryCode": "FR",
      "stateCode": "BFC",
      "latitude": "46.67535000",
      "longitude": "5.55575000"
   },
   {
      "name": "Lormes",
      "countryCode": "FR",
      "stateCode": "BFC",
      "latitude": "47.28964000",
      "longitude": "3.81714000"
   },
   {
      "name": "Losne",
      "countryCode": "FR",
      "stateCode": "BFC",
      "latitude": "47.09850000",
      "longitude": "5.26216000"
   },
   {
      "name": "Louhans",
      "countryCode": "FR",
      "stateCode": "BFC",
      "latitude": "46.62637000",
      "longitude": "5.22468000"
   },
   {
      "name": "Lucenay-lès-Aix",
      "countryCode": "FR",
      "stateCode": "BFC",
      "latitude": "46.70274000",
      "longitude": "3.48308000"
   },
   {
      "name": "Lure",
      "countryCode": "FR",
      "stateCode": "BFC",
      "latitude": "47.68294000",
      "longitude": "6.49658000"
   },
   {
      "name": "Luxeuil-les-Bains",
      "countryCode": "FR",
      "stateCode": "BFC",
      "latitude": "47.81710000",
      "longitude": "6.36500000"
   },
   {
      "name": "Luzy",
      "countryCode": "FR",
      "stateCode": "BFC",
      "latitude": "46.79011000",
      "longitude": "3.97036000"
   },
   {
      "name": "Magny-Cours",
      "countryCode": "FR",
      "stateCode": "BFC",
      "latitude": "46.88333000",
      "longitude": "3.15000000"
   },
   {
      "name": "Magny-Vernois",
      "countryCode": "FR",
      "stateCode": "BFC",
      "latitude": "47.66997000",
      "longitude": "6.47545000"
   },
   {
      "name": "Maillot",
      "countryCode": "FR",
      "stateCode": "BFC",
      "latitude": "48.17557000",
      "longitude": "3.30784000"
   },
   {
      "name": "Malay-le-Grand",
      "countryCode": "FR",
      "stateCode": "BFC",
      "latitude": "48.17589000",
      "longitude": "3.34189000"
   },
   {
      "name": "Mamirolle",
      "countryCode": "FR",
      "stateCode": "BFC",
      "latitude": "47.19857000",
      "longitude": "6.15924000"
   },
   {
      "name": "Mandeure",
      "countryCode": "FR",
      "stateCode": "BFC",
      "latitude": "47.44921000",
      "longitude": "6.80762000"
   },
   {
      "name": "Marcigny",
      "countryCode": "FR",
      "stateCode": "BFC",
      "latitude": "46.27627000",
      "longitude": "4.03957000"
   },
   {
      "name": "Marcilly-sur-Tille",
      "countryCode": "FR",
      "stateCode": "BFC",
      "latitude": "47.51700000",
      "longitude": "5.12979000"
   },
   {
      "name": "Marmagne",
      "countryCode": "FR",
      "stateCode": "BFC",
      "latitude": "46.83666000",
      "longitude": "4.35892000"
   },
   {
      "name": "Marnay",
      "countryCode": "FR",
      "stateCode": "BFC",
      "latitude": "47.29088000",
      "longitude": "5.77277000"
   },
   {
      "name": "Marsannay-la-Côte",
      "countryCode": "FR",
      "stateCode": "BFC",
      "latitude": "47.27095000",
      "longitude": "4.98895000"
   },
   {
      "name": "Marzy",
      "countryCode": "FR",
      "stateCode": "BFC",
      "latitude": "46.98125000",
      "longitude": "3.09352000"
   },
   {
      "name": "Mathay",
      "countryCode": "FR",
      "stateCode": "BFC",
      "latitude": "47.43905000",
      "longitude": "6.78487000"
   },
   {
      "name": "Matour",
      "countryCode": "FR",
      "stateCode": "BFC",
      "latitude": "46.30654000",
      "longitude": "4.48178000"
   },
   {
      "name": "Maîche",
      "countryCode": "FR",
      "stateCode": "BFC",
      "latitude": "47.25160000",
      "longitude": "6.80309000"
   },
   {
      "name": "Mellecey",
      "countryCode": "FR",
      "stateCode": "BFC",
      "latitude": "46.81084000",
      "longitude": "4.72822000"
   },
   {
      "name": "Mercurey",
      "countryCode": "FR",
      "stateCode": "BFC",
      "latitude": "46.84035000",
      "longitude": "4.71743000"
   },
   {
      "name": "Mervans",
      "countryCode": "FR",
      "stateCode": "BFC",
      "latitude": "46.79923000",
      "longitude": "5.18430000"
   },
   {
      "name": "Messigny-et-Vantoux",
      "countryCode": "FR",
      "stateCode": "BFC",
      "latitude": "47.40666000",
      "longitude": "5.01715000"
   },
   {
      "name": "Meursault",
      "countryCode": "FR",
      "stateCode": "BFC",
      "latitude": "46.97822000",
      "longitude": "4.76952000"
   },
   {
      "name": "Migennes",
      "countryCode": "FR",
      "stateCode": "BFC",
      "latitude": "47.96548000",
      "longitude": "3.51787000"
   },
   {
      "name": "Mirebeau-sur-Bèze",
      "countryCode": "FR",
      "stateCode": "BFC",
      "latitude": "47.39828000",
      "longitude": "5.32093000"
   },
   {
      "name": "Miserey-Salines",
      "countryCode": "FR",
      "stateCode": "BFC",
      "latitude": "47.28638000",
      "longitude": "5.97387000"
   },
   {
      "name": "Moirans-en-Montagne",
      "countryCode": "FR",
      "stateCode": "BFC",
      "latitude": "46.43381000",
      "longitude": "5.72643000"
   },
   {
      "name": "Mont-sous-Vaudrey",
      "countryCode": "FR",
      "stateCode": "BFC",
      "latitude": "46.97874000",
      "longitude": "5.60295000"
   },
   {
      "name": "Montbard",
      "countryCode": "FR",
      "stateCode": "BFC",
      "latitude": "47.62294000",
      "longitude": "4.33700000"
   },
   {
      "name": "Montbéliard",
      "countryCode": "FR",
      "stateCode": "BFC",
      "latitude": "47.50957000",
      "longitude": "6.79823000"
   },
   {
      "name": "Montceau-les-Mines",
      "countryCode": "FR",
      "stateCode": "BFC",
      "latitude": "46.66667000",
      "longitude": "4.36667000"
   },
   {
      "name": "Montcenis",
      "countryCode": "FR",
      "stateCode": "BFC",
      "latitude": "46.78785000",
      "longitude": "4.38738000"
   },
   {
      "name": "Montchanin",
      "countryCode": "FR",
      "stateCode": "BFC",
      "latitude": "46.74964000",
      "longitude": "4.47070000"
   },
   {
      "name": "Montenois",
      "countryCode": "FR",
      "stateCode": "BFC",
      "latitude": "47.49222000",
      "longitude": "6.66561000"
   },
   {
      "name": "Montfaucon",
      "countryCode": "FR",
      "stateCode": "BFC",
      "latitude": "47.23562000",
      "longitude": "6.08162000"
   },
   {
      "name": "Montferrand-le-Château",
      "countryCode": "FR",
      "stateCode": "BFC",
      "latitude": "47.17536000",
      "longitude": "5.91534000"
   },
   {
      "name": "Montlebon",
      "countryCode": "FR",
      "stateCode": "BFC",
      "latitude": "47.03778000",
      "longitude": "6.61111000"
   },
   {
      "name": "Montmorot",
      "countryCode": "FR",
      "stateCode": "BFC",
      "latitude": "46.67541000",
      "longitude": "5.52283000"
   },
   {
      "name": "Montpont-en-Bresse",
      "countryCode": "FR",
      "stateCode": "BFC",
      "latitude": "46.55630000",
      "longitude": "5.16459000"
   },
   {
      "name": "Montreux-Château",
      "countryCode": "FR",
      "stateCode": "BFC",
      "latitude": "47.61003000",
      "longitude": "6.99923000"
   },
   {
      "name": "Monéteau",
      "countryCode": "FR",
      "stateCode": "BFC",
      "latitude": "47.84923000",
      "longitude": "3.58178000"
   },
   {
      "name": "Morbier",
      "countryCode": "FR",
      "stateCode": "BFC",
      "latitude": "46.53693000",
      "longitude": "6.01532000"
   },
   {
      "name": "Morez",
      "countryCode": "FR",
      "stateCode": "BFC",
      "latitude": "46.52540000",
      "longitude": "6.02589000"
   },
   {
      "name": "Morre",
      "countryCode": "FR",
      "stateCode": "BFC",
      "latitude": "47.22595000",
      "longitude": "6.07512000"
   },
   {
      "name": "Morteau",
      "countryCode": "FR",
      "stateCode": "BFC",
      "latitude": "47.05784000",
      "longitude": "6.60716000"
   },
   {
      "name": "Morvillars",
      "countryCode": "FR",
      "stateCode": "BFC",
      "latitude": "47.54854000",
      "longitude": "6.93450000"
   },
   {
      "name": "Mouchard",
      "countryCode": "FR",
      "stateCode": "BFC",
      "latitude": "46.97259000",
      "longitude": "5.79626000"
   },
   {
      "name": "Moulins-Engilbert",
      "countryCode": "FR",
      "stateCode": "BFC",
      "latitude": "46.98821000",
      "longitude": "3.81084000"
   },
   {
      "name": "Mâcon",
      "countryCode": "FR",
      "stateCode": "BFC",
      "latitude": "46.31407000",
      "longitude": "4.82823000"
   },
   {
      "name": "Mélisey",
      "countryCode": "FR",
      "stateCode": "BFC",
      "latitude": "47.75229000",
      "longitude": "6.58014000"
   },
   {
      "name": "Méziré",
      "countryCode": "FR",
      "stateCode": "BFC",
      "latitude": "47.53336000",
      "longitude": "6.92072000"
   },
   {
      "name": "Nancray",
      "countryCode": "FR",
      "stateCode": "BFC",
      "latitude": "47.24536000",
      "longitude": "6.18283000"
   },
   {
      "name": "Navenne",
      "countryCode": "FR",
      "stateCode": "BFC",
      "latitude": "47.60873000",
      "longitude": "6.16176000"
   },
   {
      "name": "Neuilly-lès-Dijon",
      "countryCode": "FR",
      "stateCode": "BFC",
      "latitude": "47.27943000",
      "longitude": "5.10645000"
   },
   {
      "name": "Neuvy-Sautour",
      "countryCode": "FR",
      "stateCode": "BFC",
      "latitude": "48.04190000",
      "longitude": "3.79472000"
   },
   {
      "name": "Neuvy-sur-Loire",
      "countryCode": "FR",
      "stateCode": "BFC",
      "latitude": "47.52323000",
      "longitude": "2.88333000"
   },
   {
      "name": "Nevers",
      "countryCode": "FR",
      "stateCode": "BFC",
      "latitude": "46.98956000",
      "longitude": "3.15900000"
   },
   {
      "name": "Noidans-lès-Vesoul",
      "countryCode": "FR",
      "stateCode": "BFC",
      "latitude": "47.61299000",
      "longitude": "6.12571000"
   },
   {
      "name": "Nolay",
      "countryCode": "FR",
      "stateCode": "BFC",
      "latitude": "46.95202000",
      "longitude": "4.63405000"
   },
   {
      "name": "Nommay",
      "countryCode": "FR",
      "stateCode": "BFC",
      "latitude": "47.53780000",
      "longitude": "6.84219000"
   },
   {
      "name": "Novillars",
      "countryCode": "FR",
      "stateCode": "BFC",
      "latitude": "47.28465000",
      "longitude": "6.12878000"
   },
   {
      "name": "Nuits-Saint-Georges",
      "countryCode": "FR",
      "stateCode": "BFC",
      "latitude": "47.13683000",
      "longitude": "4.94900000"
   },
   {
      "name": "Offemont",
      "countryCode": "FR",
      "stateCode": "BFC",
      "latitude": "47.66278000",
      "longitude": "6.87764000"
   },
   {
      "name": "Orchamps",
      "countryCode": "FR",
      "stateCode": "BFC",
      "latitude": "47.14751000",
      "longitude": "5.65873000"
   },
   {
      "name": "Orchamps-Vennes",
      "countryCode": "FR",
      "stateCode": "BFC",
      "latitude": "47.13042000",
      "longitude": "6.52468000"
   },
   {
      "name": "Orgelet",
      "countryCode": "FR",
      "stateCode": "BFC",
      "latitude": "46.52096000",
      "longitude": "5.61049000"
   },
   {
      "name": "Ornans",
      "countryCode": "FR",
      "stateCode": "BFC",
      "latitude": "47.10749000",
      "longitude": "6.14306000"
   },
   {
      "name": "Ouges",
      "countryCode": "FR",
      "stateCode": "BFC",
      "latitude": "47.26164000",
      "longitude": "5.07395000"
   },
   {
      "name": "Ouroux-sur-Saône",
      "countryCode": "FR",
      "stateCode": "BFC",
      "latitude": "46.72147000",
      "longitude": "4.95262000"
   },
   {
      "name": "Palinges",
      "countryCode": "FR",
      "stateCode": "BFC",
      "latitude": "46.55357000",
      "longitude": "4.21964000"
   },
   {
      "name": "Paray-le-Monial",
      "countryCode": "FR",
      "stateCode": "BFC",
      "latitude": "46.45457000",
      "longitude": "4.11584000"
   },
   {
      "name": "Paron",
      "countryCode": "FR",
      "stateCode": "BFC",
      "latitude": "48.17888000",
      "longitude": "3.25075000"
   },
   {
      "name": "Pelousey",
      "countryCode": "FR",
      "stateCode": "BFC",
      "latitude": "47.27538000",
      "longitude": "5.92263000"
   },
   {
      "name": "Perrecy-les-Forges",
      "countryCode": "FR",
      "stateCode": "BFC",
      "latitude": "46.61453000",
      "longitude": "4.21380000"
   },
   {
      "name": "Perrigny",
      "countryCode": "FR",
      "stateCode": "BFC",
      "latitude": "46.66744000",
      "longitude": "5.58456000"
   },
   {
      "name": "Perrigny-lès-Dijon",
      "countryCode": "FR",
      "stateCode": "BFC",
      "latitude": "47.26648000",
      "longitude": "5.00628000"
   },
   {
      "name": "Pesmes",
      "countryCode": "FR",
      "stateCode": "BFC",
      "latitude": "47.28008000",
      "longitude": "5.56698000"
   },
   {
      "name": "Petit-Noir",
      "countryCode": "FR",
      "stateCode": "BFC",
      "latitude": "46.93333000",
      "longitude": "5.33333000"
   },
   {
      "name": "Pierre-de-Bresse",
      "countryCode": "FR",
      "stateCode": "BFC",
      "latitude": "46.88333000",
      "longitude": "5.25000000"
   },
   {
      "name": "Pierrefontaine-les-Varans",
      "countryCode": "FR",
      "stateCode": "BFC",
      "latitude": "47.21601000",
      "longitude": "6.54030000"
   },
   {
      "name": "Pirey",
      "countryCode": "FR",
      "stateCode": "BFC",
      "latitude": "47.26136000",
      "longitude": "5.96466000"
   },
   {
      "name": "Plancher-Bas",
      "countryCode": "FR",
      "stateCode": "BFC",
      "latitude": "47.71977000",
      "longitude": "6.73041000"
   },
   {
      "name": "Plancher-les-Mines",
      "countryCode": "FR",
      "stateCode": "BFC",
      "latitude": "47.76150000",
      "longitude": "6.74308000"
   },
   {
      "name": "Plombières-lès-Dijon",
      "countryCode": "FR",
      "stateCode": "BFC",
      "latitude": "47.33333000",
      "longitude": "4.96667000"
   },
   {
      "name": "Poligny",
      "countryCode": "FR",
      "stateCode": "BFC",
      "latitude": "46.83712000",
      "longitude": "5.70505000"
   },
   {
      "name": "Pont-de-Roide",
      "countryCode": "FR",
      "stateCode": "BFC",
      "latitude": "47.38738000",
      "longitude": "6.76840000"
   },
   {
      "name": "Pont-sur-Yonne",
      "countryCode": "FR",
      "stateCode": "BFC",
      "latitude": "48.28297000",
      "longitude": "3.20198000"
   },
   {
      "name": "Pontailler-sur-Saône",
      "countryCode": "FR",
      "stateCode": "BFC",
      "latitude": "47.30455000",
      "longitude": "5.41479000"
   },
   {
      "name": "Pontarlier",
      "countryCode": "FR",
      "stateCode": "BFC",
      "latitude": "46.90347000",
      "longitude": "6.35542000"
   },
   {
      "name": "Port-sur-Saône",
      "countryCode": "FR",
      "stateCode": "BFC",
      "latitude": "47.68774000",
      "longitude": "6.05011000"
   },
   {
      "name": "Pougues-les-Eaux",
      "countryCode": "FR",
      "stateCode": "BFC",
      "latitude": "47.07518000",
      "longitude": "3.10150000"
   },
   {
      "name": "Pouilley-les-Vignes",
      "countryCode": "FR",
      "stateCode": "BFC",
      "latitude": "47.25770000",
      "longitude": "5.93581000"
   },
   {
      "name": "Pouilly-en-Auxois",
      "countryCode": "FR",
      "stateCode": "BFC",
      "latitude": "47.26238000",
      "longitude": "4.55583000"
   },
   {
      "name": "Pouilly-sur-Loire",
      "countryCode": "FR",
      "stateCode": "BFC",
      "latitude": "47.28377000",
      "longitude": "2.95442000"
   },
   {
      "name": "Pourrain",
      "countryCode": "FR",
      "stateCode": "BFC",
      "latitude": "47.75615000",
      "longitude": "3.41193000"
   },
   {
      "name": "Prissé",
      "countryCode": "FR",
      "stateCode": "BFC",
      "latitude": "46.32130000",
      "longitude": "4.74469000"
   },
   {
      "name": "Prémery",
      "countryCode": "FR",
      "stateCode": "BFC",
      "latitude": "47.16952000",
      "longitude": "3.32743000"
   },
   {
      "name": "Pusey",
      "countryCode": "FR",
      "stateCode": "BFC",
      "latitude": "47.65243000",
      "longitude": "6.12615000"
   },
   {
      "name": "Quetigny",
      "countryCode": "FR",
      "stateCode": "BFC",
      "latitude": "47.31667000",
      "longitude": "5.11667000"
   },
   {
      "name": "Quincey",
      "countryCode": "FR",
      "stateCode": "BFC",
      "latitude": "47.61165000",
      "longitude": "6.18556000"
   },
   {
      "name": "Quingey",
      "countryCode": "FR",
      "stateCode": "BFC",
      "latitude": "47.10250000",
      "longitude": "5.88312000"
   },
   {
      "name": "Ravières",
      "countryCode": "FR",
      "stateCode": "BFC",
      "latitude": "47.73475000",
      "longitude": "4.22777000"
   },
   {
      "name": "Rioz",
      "countryCode": "FR",
      "stateCode": "BFC",
      "latitude": "47.42521000",
      "longitude": "6.06598000"
   },
   {
      "name": "Roche-lez-Beaupré",
      "countryCode": "FR",
      "stateCode": "BFC",
      "latitude": "47.28333000",
      "longitude": "6.11667000"
   },
   {
      "name": "Romanèche-Thorins",
      "countryCode": "FR",
      "stateCode": "BFC",
      "latitude": "46.18402000",
      "longitude": "4.74242000"
   },
   {
      "name": "Romenay",
      "countryCode": "FR",
      "stateCode": "BFC",
      "latitude": "46.50208000",
      "longitude": "5.06904000"
   },
   {
      "name": "Ronchamp",
      "countryCode": "FR",
      "stateCode": "BFC",
      "latitude": "47.70063000",
      "longitude": "6.63591000"
   },
   {
      "name": "Rougemont",
      "countryCode": "FR",
      "stateCode": "BFC",
      "latitude": "47.48211000",
      "longitude": "6.35574000"
   },
   {
      "name": "Rougemont-le-Château",
      "countryCode": "FR",
      "stateCode": "BFC",
      "latitude": "47.73532000",
      "longitude": "6.96690000"
   },
   {
      "name": "Roulans",
      "countryCode": "FR",
      "stateCode": "BFC",
      "latitude": "47.31553000",
      "longitude": "6.22901000"
   },
   {
      "name": "Roye",
      "countryCode": "FR",
      "stateCode": "BFC",
      "latitude": "47.66995000",
      "longitude": "6.54139000"
   },
   {
      "name": "Ruffey-lès-Echirey",
      "countryCode": "FR",
      "stateCode": "BFC",
      "latitude": "47.36667000",
      "longitude": "5.08333000"
   },
   {
      "name": "Rully",
      "countryCode": "FR",
      "stateCode": "BFC",
      "latitude": "46.87499000",
      "longitude": "4.74322000"
   },
   {
      "name": "Sagy",
      "countryCode": "FR",
      "stateCode": "BFC",
      "latitude": "46.60129000",
      "longitude": "5.31045000"
   },
   {
      "name": "Saint-Amand-en-Puisaye",
      "countryCode": "FR",
      "stateCode": "BFC",
      "latitude": "47.52913000",
      "longitude": "3.07400000"
   },
   {
      "name": "Saint-Amour",
      "countryCode": "FR",
      "stateCode": "BFC",
      "latitude": "46.43638000",
      "longitude": "5.34416000"
   },
   {
      "name": "Saint-Apollinaire",
      "countryCode": "FR",
      "stateCode": "BFC",
      "latitude": "47.33333000",
      "longitude": "5.08333000"
   },
   {
      "name": "Saint-Aubin",
      "countryCode": "FR",
      "stateCode": "BFC",
      "latitude": "47.03336000",
      "longitude": "5.32666000"
   },
   {
      "name": "Saint-Benin-d’Azy",
      "countryCode": "FR",
      "stateCode": "BFC",
      "latitude": "46.99914000",
      "longitude": "3.39267000"
   },
   {
      "name": "Saint-Berain-sous-Sanvignes",
      "countryCode": "FR",
      "stateCode": "BFC",
      "latitude": "46.70678000",
      "longitude": "4.29405000"
   },
   {
      "name": "Saint-Bris-le-Vineux",
      "countryCode": "FR",
      "stateCode": "BFC",
      "latitude": "47.74396000",
      "longitude": "3.64922000"
   },
   {
      "name": "Saint-Claude",
      "countryCode": "FR",
      "stateCode": "BFC",
      "latitude": "46.38679000",
      "longitude": "5.86473000"
   },
   {
      "name": "Saint-Clément",
      "countryCode": "FR",
      "stateCode": "BFC",
      "latitude": "48.21724000",
      "longitude": "3.29609000"
   },
   {
      "name": "Saint-Eusèbe",
      "countryCode": "FR",
      "stateCode": "BFC",
      "latitude": "46.71346000",
      "longitude": "4.46203000"
   },
   {
      "name": "Saint-Fargeau",
      "countryCode": "FR",
      "stateCode": "BFC",
      "latitude": "47.64133000",
      "longitude": "3.07066000"
   },
   {
      "name": "Saint-Florentin",
      "countryCode": "FR",
      "stateCode": "BFC",
      "latitude": "48.00057000",
      "longitude": "3.72489000"
   },
   {
      "name": "Saint-Gengoux-le-National",
      "countryCode": "FR",
      "stateCode": "BFC",
      "latitude": "46.61476000",
      "longitude": "4.66261000"
   },
   {
      "name": "Saint-Georges-sur-Baulche",
      "countryCode": "FR",
      "stateCode": "BFC",
      "latitude": "47.80039000",
      "longitude": "3.53144000"
   },
   {
      "name": "Saint-Germain",
      "countryCode": "FR",
      "stateCode": "BFC",
      "latitude": "47.72496000",
      "longitude": "6.53117000"
   },
   {
      "name": "Saint-Germain-du-Bois",
      "countryCode": "FR",
      "stateCode": "BFC",
      "latitude": "46.75287000",
      "longitude": "5.24530000"
   },
   {
      "name": "Saint-Germain-du-Plain",
      "countryCode": "FR",
      "stateCode": "BFC",
      "latitude": "46.69938000",
      "longitude": "4.98510000"
   },
   {
      "name": "Saint-Hippolyte",
      "countryCode": "FR",
      "stateCode": "BFC",
      "latitude": "47.31880000",
      "longitude": "6.81617000"
   },
   {
      "name": "Saint-Jean-de-Losne",
      "countryCode": "FR",
      "stateCode": "BFC",
      "latitude": "47.10247000",
      "longitude": "5.26556000"
   },
   {
      "name": "Saint-Julien",
      "countryCode": "FR",
      "stateCode": "BFC",
      "latitude": "47.40029000",
      "longitude": "5.14163000"
   },
   {
      "name": "Saint-Julien-du-Sault",
      "countryCode": "FR",
      "stateCode": "BFC",
      "latitude": "48.03188000",
      "longitude": "3.29556000"
   },
   {
      "name": "Saint-Laurent-en-Grandvaux",
      "countryCode": "FR",
      "stateCode": "BFC",
      "latitude": "46.58333000",
      "longitude": "5.95000000"
   },
   {
      "name": "Saint-Leu",
      "countryCode": "FR",
      "stateCode": "BFC",
      "latitude": "46.73060000",
      "longitude": "4.50083000"
   },
   {
      "name": "Saint-Loup-sur-Semouse",
      "countryCode": "FR",
      "stateCode": "BFC",
      "latitude": "47.88345000",
      "longitude": "6.27530000"
   },
   {
      "name": "Saint-Lupicin",
      "countryCode": "FR",
      "stateCode": "BFC",
      "latitude": "46.40034000",
      "longitude": "5.79220000"
   },
   {
      "name": "Saint-Léger-des-Vignes",
      "countryCode": "FR",
      "stateCode": "BFC",
      "latitude": "46.84063000",
      "longitude": "3.45488000"
   },
   {
      "name": "Saint-Léger-sur-Dheune",
      "countryCode": "FR",
      "stateCode": "BFC",
      "latitude": "46.84548000",
      "longitude": "4.63607000"
   },
   {
      "name": "Saint-Marcel",
      "countryCode": "FR",
      "stateCode": "BFC",
      "latitude": "46.77371000",
      "longitude": "4.89205000"
   },
   {
      "name": "Saint-Martin-Belle-Roche",
      "countryCode": "FR",
      "stateCode": "BFC",
      "latitude": "46.38312000",
      "longitude": "4.85539000"
   },
   {
      "name": "Saint-Martin-du-Tertre",
      "countryCode": "FR",
      "stateCode": "BFC",
      "latitude": "48.21659000",
      "longitude": "3.26151000"
   },
   {
      "name": "Saint-Martin-en-Bresse",
      "countryCode": "FR",
      "stateCode": "BFC",
      "latitude": "46.81725000",
      "longitude": "5.06027000"
   },
   {
      "name": "Saint-Parize-le-Châtel",
      "countryCode": "FR",
      "stateCode": "BFC",
      "latitude": "46.85447000",
      "longitude": "3.18267000"
   },
   {
      "name": "Saint-Pierre-le-Moûtier",
      "countryCode": "FR",
      "stateCode": "BFC",
      "latitude": "46.79277000",
      "longitude": "3.11657000"
   },
   {
      "name": "Saint-Rémy",
      "countryCode": "FR",
      "stateCode": "BFC",
      "latitude": "46.76334000",
      "longitude": "4.83928000"
   },
   {
      "name": "Saint-Sauveur",
      "countryCode": "FR",
      "stateCode": "BFC",
      "latitude": "47.80530000",
      "longitude": "6.38583000"
   },
   {
      "name": "Saint-Sernin-du-Bois",
      "countryCode": "FR",
      "stateCode": "BFC",
      "latitude": "46.84074000",
      "longitude": "4.43271000"
   },
   {
      "name": "Saint-Usage",
      "countryCode": "FR",
      "stateCode": "BFC",
      "latitude": "47.11009000",
      "longitude": "5.26044000"
   },
   {
      "name": "Saint-Usuge",
      "countryCode": "FR",
      "stateCode": "BFC",
      "latitude": "46.67900000",
      "longitude": "5.25089000"
   },
   {
      "name": "Saint-Vallier",
      "countryCode": "FR",
      "stateCode": "BFC",
      "latitude": "46.64107000",
      "longitude": "4.37107000"
   },
   {
      "name": "Saint-Valérien",
      "countryCode": "FR",
      "stateCode": "BFC",
      "latitude": "48.17805000",
      "longitude": "3.09523000"
   },
   {
      "name": "Saint-Vit",
      "countryCode": "FR",
      "stateCode": "BFC",
      "latitude": "47.18333000",
      "longitude": "5.81667000"
   },
   {
      "name": "Saint-Yan",
      "countryCode": "FR",
      "stateCode": "BFC",
      "latitude": "46.41147000",
      "longitude": "4.03876000"
   },
   {
      "name": "Saint-Éloi",
      "countryCode": "FR",
      "stateCode": "BFC",
      "latitude": "46.97342000",
      "longitude": "3.22228000"
   },
   {
      "name": "Sainte-Suzanne",
      "countryCode": "FR",
      "stateCode": "BFC",
      "latitude": "47.50017000",
      "longitude": "6.76775000"
   },
   {
      "name": "Salbert",
      "countryCode": "FR",
      "stateCode": "BFC",
      "latitude": "47.66959000",
      "longitude": "6.81269000"
   },
   {
      "name": "Salins-les-Bains",
      "countryCode": "FR",
      "stateCode": "BFC",
      "latitude": "46.94663000",
      "longitude": "5.87763000"
   },
   {
      "name": "Sancey-le-Grand",
      "countryCode": "FR",
      "stateCode": "BFC",
      "latitude": "47.29489000",
      "longitude": "6.58287000"
   },
   {
      "name": "Sancé",
      "countryCode": "FR",
      "stateCode": "BFC",
      "latitude": "46.33926000",
      "longitude": "4.83049000"
   },
   {
      "name": "Sanvignes-les-Mines",
      "countryCode": "FR",
      "stateCode": "BFC",
      "latitude": "46.66444000",
      "longitude": "4.29188000"
   },
   {
      "name": "Sassenay",
      "countryCode": "FR",
      "stateCode": "BFC",
      "latitude": "46.83074000",
      "longitude": "4.92523000"
   },
   {
      "name": "Saulieu",
      "countryCode": "FR",
      "stateCode": "BFC",
      "latitude": "47.28023000",
      "longitude": "4.22857000"
   },
   {
      "name": "Sauvigny-les-Bois",
      "countryCode": "FR",
      "stateCode": "BFC",
      "latitude": "46.96676000",
      "longitude": "3.27190000"
   },
   {
      "name": "Savigny-lès-Beaune",
      "countryCode": "FR",
      "stateCode": "BFC",
      "latitude": "47.06357000",
      "longitude": "4.81821000"
   },
   {
      "name": "Saône",
      "countryCode": "FR",
      "stateCode": "BFC",
      "latitude": "47.22311000",
      "longitude": "6.11682000"
   },
   {
      "name": "Scey-sur-Saône-et-Saint-Albin",
      "countryCode": "FR",
      "stateCode": "BFC",
      "latitude": "47.66398000",
      "longitude": "5.97451000"
   },
   {
      "name": "Seignelay",
      "countryCode": "FR",
      "stateCode": "BFC",
      "latitude": "47.90542000",
      "longitude": "3.60136000"
   },
   {
      "name": "Seloncourt",
      "countryCode": "FR",
      "stateCode": "BFC",
      "latitude": "47.45989000",
      "longitude": "6.85535000"
   },
   {
      "name": "Selongey",
      "countryCode": "FR",
      "stateCode": "BFC",
      "latitude": "47.58846000",
      "longitude": "5.18483000"
   },
   {
      "name": "Semur-en-Auxois",
      "countryCode": "FR",
      "stateCode": "BFC",
      "latitude": "47.48333000",
      "longitude": "4.33333000"
   },
   {
      "name": "Sennecey-le-Grand",
      "countryCode": "FR",
      "stateCode": "BFC",
      "latitude": "46.64137000",
      "longitude": "4.86707000"
   },
   {
      "name": "Sennecey-lès-Dijon",
      "countryCode": "FR",
      "stateCode": "BFC",
      "latitude": "47.28984000",
      "longitude": "5.10485000"
   },
   {
      "name": "Sens",
      "countryCode": "FR",
      "stateCode": "BFC",
      "latitude": "48.19738000",
      "longitude": "3.28328000"
   },
   {
      "name": "Sergines",
      "countryCode": "FR",
      "stateCode": "BFC",
      "latitude": "48.34203000",
      "longitude": "3.26213000"
   },
   {
      "name": "Sermoise-sur-Loire",
      "countryCode": "FR",
      "stateCode": "BFC",
      "latitude": "46.95000000",
      "longitude": "3.18333000"
   },
   {
      "name": "Serre-les-Sapins",
      "countryCode": "FR",
      "stateCode": "BFC",
      "latitude": "47.25000000",
      "longitude": "5.93333000"
   },
   {
      "name": "Seurre",
      "countryCode": "FR",
      "stateCode": "BFC",
      "latitude": "46.99923000",
      "longitude": "5.15138000"
   },
   {
      "name": "Sevrey",
      "countryCode": "FR",
      "stateCode": "BFC",
      "latitude": "46.73825000",
      "longitude": "4.84030000"
   },
   {
      "name": "Simandre",
      "countryCode": "FR",
      "stateCode": "BFC",
      "latitude": "46.62364000",
      "longitude": "4.98777000"
   },
   {
      "name": "Sochaux",
      "countryCode": "FR",
      "stateCode": "BFC",
      "latitude": "47.50808000",
      "longitude": "6.82748000"
   },
   {
      "name": "Sornay",
      "countryCode": "FR",
      "stateCode": "BFC",
      "latitude": "46.63023000",
      "longitude": "5.17999000"
   },
   {
      "name": "Soucy",
      "countryCode": "FR",
      "stateCode": "BFC",
      "latitude": "48.24956000",
      "longitude": "3.32385000"
   },
   {
      "name": "Taillecourt",
      "countryCode": "FR",
      "stateCode": "BFC",
      "latitude": "47.49521000",
      "longitude": "6.85442000"
   },
   {
      "name": "Talant",
      "countryCode": "FR",
      "stateCode": "BFC",
      "latitude": "47.33693000",
      "longitude": "5.00888000"
   },
   {
      "name": "Tanlay",
      "countryCode": "FR",
      "stateCode": "BFC",
      "latitude": "47.84488000",
      "longitude": "4.08504000"
   },
   {
      "name": "Tavaux",
      "countryCode": "FR",
      "stateCode": "BFC",
      "latitude": "47.03376000",
      "longitude": "5.40500000"
   },
   {
      "name": "Territoire de Belfort",
      "countryCode": "FR",
      "stateCode": "BFC",
      "latitude": "47.63578000",
      "longitude": "6.88843000"
   },
   {
      "name": "Thise",
      "countryCode": "FR",
      "stateCode": "BFC",
      "latitude": "47.28486000",
      "longitude": "6.08127000"
   },
   {
      "name": "Thorigny-sur-Oreuse",
      "countryCode": "FR",
      "stateCode": "BFC",
      "latitude": "48.29297000",
      "longitude": "3.40128000"
   },
   {
      "name": "Tonnerre",
      "countryCode": "FR",
      "stateCode": "BFC",
      "latitude": "47.85628000",
      "longitude": "3.97369000"
   },
   {
      "name": "Torcy",
      "countryCode": "FR",
      "stateCode": "BFC",
      "latitude": "46.76857000",
      "longitude": "4.45333000"
   },
   {
      "name": "Toucy",
      "countryCode": "FR",
      "stateCode": "BFC",
      "latitude": "47.73602000",
      "longitude": "3.29502000"
   },
   {
      "name": "Toulon-sur-Arroux",
      "countryCode": "FR",
      "stateCode": "BFC",
      "latitude": "46.69345000",
      "longitude": "4.13869000"
   },
   {
      "name": "Tournus",
      "countryCode": "FR",
      "stateCode": "BFC",
      "latitude": "46.56758000",
      "longitude": "4.90574000"
   },
   {
      "name": "Urzy",
      "countryCode": "FR",
      "stateCode": "BFC",
      "latitude": "47.04877000",
      "longitude": "3.20295000"
   },
   {
      "name": "Vaivre-et-Montoille",
      "countryCode": "FR",
      "stateCode": "BFC",
      "latitude": "47.63021000",
      "longitude": "6.10362000"
   },
   {
      "name": "Valdahon",
      "countryCode": "FR",
      "stateCode": "BFC",
      "latitude": "47.15000000",
      "longitude": "6.35000000"
   },
   {
      "name": "Valdoie",
      "countryCode": "FR",
      "stateCode": "BFC",
      "latitude": "47.67041000",
      "longitude": "6.84203000"
   },
   {
      "name": "Valentigney",
      "countryCode": "FR",
      "stateCode": "BFC",
      "latitude": "47.46388000",
      "longitude": "6.83168000"
   },
   {
      "name": "Valfin-lès-Saint-Claude",
      "countryCode": "FR",
      "stateCode": "BFC",
      "latitude": "46.43758000",
      "longitude": "5.85513000"
   },
   {
      "name": "Varennes-Saint-Sauveur",
      "countryCode": "FR",
      "stateCode": "BFC",
      "latitude": "46.48226000",
      "longitude": "5.24349000"
   },
   {
      "name": "Varennes-Vauzelles",
      "countryCode": "FR",
      "stateCode": "BFC",
      "latitude": "47.01678000",
      "longitude": "3.14037000"
   },
   {
      "name": "Varennes-le-Grand",
      "countryCode": "FR",
      "stateCode": "BFC",
      "latitude": "46.71868000",
      "longitude": "4.86872000"
   },
   {
      "name": "Varois-et-Chaignot",
      "countryCode": "FR",
      "stateCode": "BFC",
      "latitude": "47.35059000",
      "longitude": "5.12838000"
   },
   {
      "name": "Varzy",
      "countryCode": "FR",
      "stateCode": "BFC",
      "latitude": "47.35810000",
      "longitude": "3.38619000"
   },
   {
      "name": "Velars-sur-Ouche",
      "countryCode": "FR",
      "stateCode": "BFC",
      "latitude": "47.31960000",
      "longitude": "4.90594000"
   },
   {
      "name": "Venarey-les-Laumes",
      "countryCode": "FR",
      "stateCode": "BFC",
      "latitude": "47.54202000",
      "longitude": "4.46022000"
   },
   {
      "name": "Venoy",
      "countryCode": "FR",
      "stateCode": "BFC",
      "latitude": "47.80518000",
      "longitude": "3.63695000"
   },
   {
      "name": "Vercel-Villedieu-le-Camp",
      "countryCode": "FR",
      "stateCode": "BFC",
      "latitude": "47.18318000",
      "longitude": "6.40082000"
   },
   {
      "name": "Verdun-sur-le-Doubs",
      "countryCode": "FR",
      "stateCode": "BFC",
      "latitude": "46.89692000",
      "longitude": "5.02127000"
   },
   {
      "name": "Vergigny",
      "countryCode": "FR",
      "stateCode": "BFC",
      "latitude": "47.97059000",
      "longitude": "3.71861000"
   },
   {
      "name": "Vermenton",
      "countryCode": "FR",
      "stateCode": "BFC",
      "latitude": "47.66459000",
      "longitude": "3.73501000"
   },
   {
      "name": "Vesoul",
      "countryCode": "FR",
      "stateCode": "BFC",
      "latitude": "47.62604000",
      "longitude": "6.14251000"
   },
   {
      "name": "Vieux-Charmont",
      "countryCode": "FR",
      "stateCode": "BFC",
      "latitude": "47.52190000",
      "longitude": "6.83738000"
   },
   {
      "name": "Villeblevin",
      "countryCode": "FR",
      "stateCode": "BFC",
      "latitude": "48.32446000",
      "longitude": "3.08038000"
   },
   {
      "name": "Villeneuve-la-Guyard",
      "countryCode": "FR",
      "stateCode": "BFC",
      "latitude": "48.34093000",
      "longitude": "3.06176000"
   },
   {
      "name": "Villeneuve-sur-Yonne",
      "countryCode": "FR",
      "stateCode": "BFC",
      "latitude": "48.08247000",
      "longitude": "3.29688000"
   },
   {
      "name": "Villers-le-Lac",
      "countryCode": "FR",
      "stateCode": "BFC",
      "latitude": "47.06319000",
      "longitude": "6.66699000"
   },
   {
      "name": "Villersexel",
      "countryCode": "FR",
      "stateCode": "BFC",
      "latitude": "47.55070000",
      "longitude": "6.43273000"
   },
   {
      "name": "Vinneuf",
      "countryCode": "FR",
      "stateCode": "BFC",
      "latitude": "48.34795000",
      "longitude": "3.14013000"
   },
   {
      "name": "Virey-le-Grand",
      "countryCode": "FR",
      "stateCode": "BFC",
      "latitude": "46.83333000",
      "longitude": "4.86667000"
   },
   {
      "name": "Vitteaux",
      "countryCode": "FR",
      "stateCode": "BFC",
      "latitude": "47.39732000",
      "longitude": "4.54190000"
   },
   {
      "name": "Voujeaucourt",
      "countryCode": "FR",
      "stateCode": "BFC",
      "latitude": "47.47513000",
      "longitude": "6.77431000"
   },
   {
      "name": "Véron",
      "countryCode": "FR",
      "stateCode": "BFC",
      "latitude": "48.12853000",
      "longitude": "3.30773000"
   },
   {
      "name": "Échenoz-la-Méline",
      "countryCode": "FR",
      "stateCode": "BFC",
      "latitude": "47.60086000",
      "longitude": "6.13544000"
   },
   {
      "name": "École-Valentin",
      "countryCode": "FR",
      "stateCode": "BFC",
      "latitude": "47.26667000",
      "longitude": "5.98333000"
   },
   {
      "name": "Écuisses",
      "countryCode": "FR",
      "stateCode": "BFC",
      "latitude": "46.75631000",
      "longitude": "4.53845000"
   },
   {
      "name": "Égriselles-le-Bocage",
      "countryCode": "FR",
      "stateCode": "BFC",
      "latitude": "48.12103000",
      "longitude": "3.18233000"
   },
   {
      "name": "Épervans",
      "countryCode": "FR",
      "stateCode": "BFC",
      "latitude": "46.75247000",
      "longitude": "4.89930000"
   },
   {
      "name": "Épinac",
      "countryCode": "FR",
      "stateCode": "BFC",
      "latitude": "46.98333000",
      "longitude": "4.51667000"
   },
   {
      "name": "Étalans",
      "countryCode": "FR",
      "stateCode": "BFC",
      "latitude": "47.15125000",
      "longitude": "6.27315000"
   },
   {
      "name": "Étang-sur-Arroux",
      "countryCode": "FR",
      "stateCode": "BFC",
      "latitude": "46.86560000",
      "longitude": "4.18988000"
   },
   {
      "name": "Étupes",
      "countryCode": "FR",
      "stateCode": "BFC",
      "latitude": "47.50525000",
      "longitude": "6.87075000"
   }
]