[
   {
      "name": "Chong-Alay District",
      "countryCode": "KG",
      "stateCode": "O",
      "latitude": "39.47614000",
      "longitude": "72.33017000"
   },
   {
      "name": "Daroot-Korgon",
      "countryCode": "KG",
      "stateCode": "O",
      "latitude": "39.55274000",
      "longitude": "72.20518000"
   },
   {
      "name": "Kara Kulja",
      "countryCode": "KG",
      "stateCode": "O",
      "latitude": "40.64095000",
      "longitude": "73.49411000"
   },
   {
      "name": "Kara Suu",
      "countryCode": "KG",
      "stateCode": "O",
      "latitude": "40.70460000",
      "longitude": "72.86666000"
   },
   {
      "name": "Kyzyl-Eshme",
      "countryCode": "KG",
      "stateCode": "O",
      "latitude": "39.56559000",
      "longitude": "72.27153000"
   },
   {
      "name": "Nookat",
      "countryCode": "KG",
      "stateCode": "O",
      "latitude": "40.26597000",
      "longitude": "72.61834000"
   },
   {
      "name": "Osh",
      "countryCode": "KG",
      "stateCode": "O",
      "latitude": "40.52828000",
      "longitude": "72.79850000"
   },
   {
      "name": "Uzgen",
      "countryCode": "KG",
      "stateCode": "O",
      "latitude": "40.76994000",
      "longitude": "73.30068000"
   },
   {
      "name": "Uzgen District",
      "countryCode": "KG",
      "stateCode": "O",
      "latitude": "40.55000000",
      "longitude": "73.30000000"
   }
]