[
   {
      "name": "Ilembula",
      "countryCode": "TZ",
      "stateCode": "29",
      "latitude": "-8.90000000",
      "longitude": "34.58333000"
   },
   {
      "name": "Makumbako",
      "countryCode": "TZ",
      "stateCode": "29",
      "latitude": "-8.85000000",
      "longitude": "34.83333000"
   },
   {
      "name": "Manda",
      "countryCode": "TZ",
      "stateCode": "29",
      "latitude": "-10.46667000",
      "longitude": "34.58333000"
   },
   {
      "name": "Matamba",
      "countryCode": "TZ",
      "stateCode": "29",
      "latitude": "-8.98333000",
      "longitude": "33.96667000"
   },
   {
      "name": "Mlangali",
      "countryCode": "TZ",
      "stateCode": "29",
      "latitude": "-9.78333000",
      "longitude": "34.51667000"
   },
   {
      "name": "Mtwango",
      "countryCode": "TZ",
      "stateCode": "29",
      "latitude": "-9.01667000",
      "longitude": "34.80000000"
   },
   {
      "name": "Njombe",
      "countryCode": "TZ",
      "stateCode": "29",
      "latitude": "-9.34917000",
      "longitude": "34.77167000"
   }
]