[
   {
      "name": "Kaputa",
      "countryCode": "ZM",
      "stateCode": "05",
      "latitude": "-8.46887000",
      "longitude": "29.66193000"
   },
   {
      "name": "Kasama",
      "countryCode": "ZM",
      "stateCode": "05",
      "latitude": "-10.21289000",
      "longitude": "31.18084000"
   },
   {
      "name": "Luwingu",
      "countryCode": "ZM",
      "stateCode": "05",
      "latitude": "-10.26210000",
      "longitude": "29.92712000"
   },
   {
      "name": "Mbala",
      "countryCode": "ZM",
      "stateCode": "05",
      "latitude": "-8.84024000",
      "longitude": "31.36587000"
   },
   {
      "name": "Mporokoso",
      "countryCode": "ZM",
      "stateCode": "05",
      "latitude": "-9.37273000",
      "longitude": "30.12501000"
   },
   {
      "name": "Mpulungu",
      "countryCode": "ZM",
      "stateCode": "05",
      "latitude": "-8.76234000",
      "longitude": "31.11405000"
   },
   {
      "name": "Mungwi",
      "countryCode": "ZM",
      "stateCode": "05",
      "latitude": "-10.17320000",
      "longitude": "31.36942000"
   }
]