[
   {
      "name": "Aden",
      "countryCode": "YE",
      "stateCode": "AD",
      "latitude": "12.77944000",
      "longitude": "45.03667000"
   },
   {
      "name": "Al Buraiqeh",
      "countryCode": "YE",
      "stateCode": "AD",
      "latitude": "12.80377000",
      "longitude": "44.77615000"
   },
   {
      "name": "Al Mansura",
      "countryCode": "YE",
      "stateCode": "AD",
      "latitude": "12.85320000",
      "longitude": "44.97240000"
   },
   {
      "name": "Al Mualla",
      "countryCode": "YE",
      "stateCode": "AD",
      "latitude": "12.65843000",
      "longitude": "43.42743000"
   },
   {
      "name": "Ash Shaikh Outhman",
      "countryCode": "YE",
      "stateCode": "AD",
      "latitude": "12.88640000",
      "longitude": "45.01560000"
   },
   {
      "name": "Attawahi",
      "countryCode": "YE",
      "stateCode": "AD",
      "latitude": "12.77410000",
      "longitude": "44.99410000"
   },
   {
      "name": "Craiter",
      "countryCode": "YE",
      "stateCode": "AD",
      "latitude": "12.77310000",
      "longitude": "45.03810000"
   },
   {
      "name": "Dar Sad",
      "countryCode": "YE",
      "stateCode": "AD",
      "latitude": "12.90700000",
      "longitude": "44.97840000"
   }
]