[
   {
      "name": "Central Province",
      "isoCode": "CE",
      "countryCode": "SB",
      "latitude": null,
      "longitude": null
   },
   {
      "name": "Choiseul Province",
      "isoCode": "CH",
      "countryCode": "SB",
      "latitude": "-7.05014940",
      "longitude": "156.95114590"
   },
   {
      "name": "Honiara",
      "isoCode": "CT",
      "countryCode": "SB",
      "latitude": "-9.44563810",
      "longitude": "159.97289990"
   },
   {
      "name": "Guadalcanal Province",
      "isoCode": "GU",
      "countryCode": "SB",
      "latitude": "-9.57732840",
      "longitude": "160.14558050"
   },
   {
      "name": "Isabel Province",
      "isoCode": "IS",
      "countryCode": "SB",
      "latitude": "-8.05923530",
      "longitude": "159.14470810"
   },
   {
      "name": "Makira-Ulawa Province",
      "isoCode": "MK",
      "countryCode": "SB",
      "latitude": "-10.57374470",
      "longitude": "161.80969410"
   },
   {
      "name": "Malaita Province",
      "isoCode": "ML",
      "countryCode": "SB",
      "latitude": "-8.94461680",
      "longitude": "160.90712360"
   },
   {
      "name": "Rennell and Bellona Province",
      "isoCode": "RB",
      "countryCode": "SB",
      "latitude": "-11.61314350",
      "longitude": "160.16939490"
   },
   {
      "name": "Temotu Province",
      "isoCode": "TE",
      "countryCode": "SB",
      "latitude": "-10.68692900",
      "longitude": "166.06239790"
   },
   {
      "name": "Western Province",
      "isoCode": "WE",
      "countryCode": "SB",
      "latitude": null,
      "longitude": null
   }
]