[
   {
      "name": "Addis Ababa",
      "isoCode": "AA",
      "countryCode": "ET",
      "latitude": "8.98060340",
      "longitude": "38.75776050"
   },
   {
      "name": "Afar Region",
      "isoCode": "AF",
      "countryCode": "ET",
      "latitude": "11.75593880",
      "longitude": "40.95868800"
   },
   {
      "name": "Amhara Region",
      "isoCode": "AM",
      "countryCode": "ET",
      "latitude": "11.34942470",
      "longitude": "37.97845850"
   },
   {
      "name": "Benishangul-Gumuz Region",
      "isoCode": "BE",
      "countryCode": "ET",
      "latitude": "10.78028890",
      "longitude": "35.56578620"
   },
   {
      "name": "Dire Dawa",
      "isoCode": "DD",
      "countryCode": "ET",
      "latitude": "9.60087470",
      "longitude": "41.85014200"
   },
   {
      "name": "Gambela Region",
      "isoCode": "GA",
      "countryCode": "ET",
      "latitude": "7.92196870",
      "longitude": "34.15319470"
   },
   {
      "name": "Harari Region",
      "isoCode": "HA",
      "countryCode": "ET",
      "latitude": "9.31486600",
      "longitude": "42.19677160"
   },
   {
      "name": "Oromia Region",
      "isoCode": "OR",
      "countryCode": "ET",
      "latitude": "7.54603770",
      "longitude": "40.63468510"
   },
   {
      "name": "Southern Nations, Nationalities, and Peoples' Region",
      "isoCode": "SN",
      "countryCode": "ET",
      "latitude": "6.51569110",
      "longitude": "36.95410700"
   },
   {
      "name": "Somali Region",
      "isoCode": "SO",
      "countryCode": "ET",
      "latitude": "6.66122930",
      "longitude": "43.79084530"
   },
   {
      "name": "Tigray Region",
      "isoCode": "TI",
      "countryCode": "ET",
      "latitude": "14.03233360",
      "longitude": "38.31657250"
   }
]