[
   {
      "name": "Galesong",
      "countryCode": "ID",
      "stateCode": "SN",
      "latitude": "-5.31660000",
      "longitude": "119.36610000"
   },
   {
      "name": "Kabupaten Bantaeng",
      "countryCode": "ID",
      "stateCode": "SN",
      "latitude": "-5.48333000",
      "longitude": "119.98333000"
   },
   {
      "name": "Kabupaten Barru",
      "countryCode": "ID",
      "stateCode": "SN",
      "latitude": "-4.43333000",
      "longitude": "119.68333000"
   },
   {
      "name": "Kabupaten Bone",
      "countryCode": "ID",
      "stateCode": "SN",
      "latitude": "-4.70000000",
      "longitude": "120.13333000"
   },
   {
      "name": "Kabupaten Bulukumba",
      "countryCode": "ID",
      "stateCode": "SN",
      "latitude": "-5.41667000",
      "longitude": "120.23333000"
   },
   {
      "name": "Kabupaten Enrekang",
      "countryCode": "ID",
      "stateCode": "SN",
      "latitude": "-3.50000000",
      "longitude": "119.86667000"
   },
   {
      "name": "Kabupaten Gowa",
      "countryCode": "ID",
      "stateCode": "SN",
      "latitude": "-5.31667000",
      "longitude": "119.75000000"
   },
   {
      "name": "Kabupaten Jeneponto",
      "countryCode": "ID",
      "stateCode": "SN",
      "latitude": "-5.63333000",
      "longitude": "119.73333000"
   },
   {
      "name": "Kabupaten Luwu",
      "countryCode": "ID",
      "stateCode": "SN",
      "latitude": "-2.55770000",
      "longitude": "121.32420000"
   },
   {
      "name": "Kabupaten Luwu Timur",
      "countryCode": "ID",
      "stateCode": "SN",
      "latitude": "-2.50957000",
      "longitude": "120.39780000"
   },
   {
      "name": "Kabupaten Luwu Utara",
      "countryCode": "ID",
      "stateCode": "SN",
      "latitude": "-2.60000000",
      "longitude": "120.25000000"
   },
   {
      "name": "Kabupaten Maros",
      "countryCode": "ID",
      "stateCode": "SN",
      "latitude": "-5.05000000",
      "longitude": "119.71667000"
   },
   {
      "name": "Kabupaten Pangkajene Dan Kepulauan",
      "countryCode": "ID",
      "stateCode": "SN",
      "latitude": "-4.78270000",
      "longitude": "119.55060000"
   },
   {
      "name": "Kabupaten Pinrang",
      "countryCode": "ID",
      "stateCode": "SN",
      "latitude": "-3.61667000",
      "longitude": "119.60000000"
   },
   {
      "name": "Kabupaten Sidenreng Rappang",
      "countryCode": "ID",
      "stateCode": "SN",
      "latitude": "-3.85000000",
      "longitude": "119.96667000"
   },
   {
      "name": "Kabupaten Sinjai",
      "countryCode": "ID",
      "stateCode": "SN",
      "latitude": "-5.21667000",
      "longitude": "120.15000000"
   },
   {
      "name": "Kabupaten Soppeng",
      "countryCode": "ID",
      "stateCode": "SN",
      "latitude": "-4.38420000",
      "longitude": "119.89000000"
   },
   {
      "name": "Kabupaten Takalar",
      "countryCode": "ID",
      "stateCode": "SN",
      "latitude": "-5.41667000",
      "longitude": "119.51667000"
   },
   {
      "name": "Kabupaten Tana Toraja",
      "countryCode": "ID",
      "stateCode": "SN",
      "latitude": "-3.00240000",
      "longitude": "119.79655000"
   },
   {
      "name": "Kabupaten Toraja Utara",
      "countryCode": "ID",
      "stateCode": "SN",
      "latitude": "-2.92738000",
      "longitude": "119.79218000"
   },
   {
      "name": "Kabupaten Wajo",
      "countryCode": "ID",
      "stateCode": "SN",
      "latitude": "-4.00000000",
      "longitude": "120.16667000"
   },
   {
      "name": "Kota Makassar",
      "countryCode": "ID",
      "stateCode": "SN",
      "latitude": "-5.15000000",
      "longitude": "119.45000000"
   },
   {
      "name": "Kota Palopo",
      "countryCode": "ID",
      "stateCode": "SN",
      "latitude": "-2.97841000",
      "longitude": "120.11078000"
   },
   {
      "name": "Kota Parepare",
      "countryCode": "ID",
      "stateCode": "SN",
      "latitude": "-4.03333000",
      "longitude": "119.65000000"
   },
   {
      "name": "Makassar",
      "countryCode": "ID",
      "stateCode": "SN",
      "latitude": "-5.14861000",
      "longitude": "119.43194000"
   },
   {
      "name": "Maros",
      "countryCode": "ID",
      "stateCode": "SN",
      "latitude": "-5.00600000",
      "longitude": "119.57270000"
   },
   {
      "name": "Palopo",
      "countryCode": "ID",
      "stateCode": "SN",
      "latitude": "-2.99250000",
      "longitude": "120.19694000"
   },
   {
      "name": "Parepare",
      "countryCode": "ID",
      "stateCode": "SN",
      "latitude": "-4.01350000",
      "longitude": "119.62550000"
   },
   {
      "name": "Rantepao",
      "countryCode": "ID",
      "stateCode": "SN",
      "latitude": "-2.97010000",
      "longitude": "119.89780000"
   },
   {
      "name": "Selayar Islands Regency",
      "countryCode": "ID",
      "stateCode": "SN",
      "latitude": "-6.81667000",
      "longitude": "120.80000000"
   },
   {
      "name": "Sengkang",
      "countryCode": "ID",
      "stateCode": "SN",
      "latitude": "-4.12790000",
      "longitude": "120.02970000"
   },
   {
      "name": "Sinjai",
      "countryCode": "ID",
      "stateCode": "SN",
      "latitude": "-5.12410000",
      "longitude": "120.25300000"
   },
   {
      "name": "Watampone",
      "countryCode": "ID",
      "stateCode": "SN",
      "latitude": "-4.53860000",
      "longitude": "120.32790000"
   }
]