[
   {
      "name": "Agăş",
      "countryCode": "RO",
      "stateCode": "BC",
      "latitude": "46.48333000",
      "longitude": "26.21667000"
   },
   {
      "name": "Apa Asău",
      "countryCode": "RO",
      "stateCode": "BC",
      "latitude": "46.48747000",
      "longitude": "26.37888000"
   },
   {
      "name": "Ardeoani",
      "countryCode": "RO",
      "stateCode": "BC",
      "latitude": "46.53333000",
      "longitude": "26.60000000"
   },
   {
      "name": "Arini",
      "countryCode": "RO",
      "stateCode": "BC",
      "latitude": "46.35000000",
      "longitude": "27.18333000"
   },
   {
      "name": "Asău",
      "countryCode": "RO",
      "stateCode": "BC",
      "latitude": "46.43333000",
      "longitude": "26.40000000"
   },
   {
      "name": "Bacău",
      "countryCode": "RO",
      "stateCode": "BC",
      "latitude": "46.56718000",
      "longitude": "26.91384000"
   },
   {
      "name": "Balcani",
      "countryCode": "RO",
      "stateCode": "BC",
      "latitude": "46.63333000",
      "longitude": "26.55000000"
   },
   {
      "name": "Barați",
      "countryCode": "RO",
      "stateCode": "BC",
      "latitude": "46.57569000",
      "longitude": "26.87118000"
   },
   {
      "name": "Bereşti-Bistriţa",
      "countryCode": "RO",
      "stateCode": "BC",
      "latitude": "46.71667000",
      "longitude": "26.83333000"
   },
   {
      "name": "Bereşti-Tazlău",
      "countryCode": "RO",
      "stateCode": "BC",
      "latitude": "46.46667000",
      "longitude": "26.66667000"
   },
   {
      "name": "Berești",
      "countryCode": "RO",
      "stateCode": "BC",
      "latitude": "46.20329000",
      "longitude": "27.14476000"
   },
   {
      "name": "Berzunţi",
      "countryCode": "RO",
      "stateCode": "BC",
      "latitude": "46.40000000",
      "longitude": "26.63333000"
   },
   {
      "name": "Bijghir",
      "countryCode": "RO",
      "stateCode": "BC",
      "latitude": "46.60185000",
      "longitude": "27.01859000"
   },
   {
      "name": "Blăgeşti",
      "countryCode": "RO",
      "stateCode": "BC",
      "latitude": "46.68333000",
      "longitude": "26.65000000"
   },
   {
      "name": "Bogdăneşti",
      "countryCode": "RO",
      "stateCode": "BC",
      "latitude": "46.21667000",
      "longitude": "26.68333000"
   },
   {
      "name": "Bolovăniș",
      "countryCode": "RO",
      "stateCode": "BC",
      "latitude": "46.61633000",
      "longitude": "26.05263000"
   },
   {
      "name": "Bolătău",
      "countryCode": "RO",
      "stateCode": "BC",
      "latitude": "46.63345000",
      "longitude": "26.40149000"
   },
   {
      "name": "Brusturoasa",
      "countryCode": "RO",
      "stateCode": "BC",
      "latitude": "46.51667000",
      "longitude": "26.20000000"
   },
   {
      "name": "Brătești",
      "countryCode": "RO",
      "stateCode": "BC",
      "latitude": "46.32540000",
      "longitude": "26.64333000"
   },
   {
      "name": "Brătila",
      "countryCode": "RO",
      "stateCode": "BC",
      "latitude": "46.32348000",
      "longitude": "26.77442000"
   },
   {
      "name": "Buciumi",
      "countryCode": "RO",
      "stateCode": "BC",
      "latitude": "46.20230000",
      "longitude": "26.78445000"
   },
   {
      "name": "Bucșești",
      "countryCode": "RO",
      "stateCode": "BC",
      "latitude": "46.48381000",
      "longitude": "26.58230000"
   },
   {
      "name": "Buda",
      "countryCode": "RO",
      "stateCode": "BC",
      "latitude": "46.67111000",
      "longitude": "26.71953000"
   },
   {
      "name": "Buhoci",
      "countryCode": "RO",
      "stateCode": "BC",
      "latitude": "46.56667000",
      "longitude": "27.01667000"
   },
   {
      "name": "Buhuşi",
      "countryCode": "RO",
      "stateCode": "BC",
      "latitude": "46.71667000",
      "longitude": "26.70000000"
   },
   {
      "name": "Bârsăneşti",
      "countryCode": "RO",
      "stateCode": "BC",
      "latitude": "46.33333000",
      "longitude": "26.70000000"
   },
   {
      "name": "Băcioiu",
      "countryCode": "RO",
      "stateCode": "BC",
      "latitude": "46.31431000",
      "longitude": "27.15745000"
   },
   {
      "name": "Caraclău",
      "countryCode": "RO",
      "stateCode": "BC",
      "latitude": "46.30696000",
      "longitude": "26.71641000"
   },
   {
      "name": "Caşin",
      "countryCode": "RO",
      "stateCode": "BC",
      "latitude": "46.20000000",
      "longitude": "26.75000000"
   },
   {
      "name": "Cerdac",
      "countryCode": "RO",
      "stateCode": "BC",
      "latitude": "46.23794000",
      "longitude": "26.51638000"
   },
   {
      "name": "Cernu",
      "countryCode": "RO",
      "stateCode": "BC",
      "latitude": "46.46999000",
      "longitude": "26.58477000"
   },
   {
      "name": "Cireșoaia",
      "countryCode": "RO",
      "stateCode": "BC",
      "latitude": "46.24816000",
      "longitude": "26.54929000"
   },
   {
      "name": "Ciugheș",
      "countryCode": "RO",
      "stateCode": "BC",
      "latitude": "46.52220000",
      "longitude": "26.11970000"
   },
   {
      "name": "Cleja",
      "countryCode": "RO",
      "stateCode": "BC",
      "latitude": "46.41667000",
      "longitude": "26.90000000"
   },
   {
      "name": "Coloneşti",
      "countryCode": "RO",
      "stateCode": "BC",
      "latitude": "46.56667000",
      "longitude": "27.30000000"
   },
   {
      "name": "Comuna Agăş",
      "countryCode": "RO",
      "stateCode": "BC",
      "latitude": "46.46458000",
      "longitude": "26.22962000"
   },
   {
      "name": "Comuna Ardeoani",
      "countryCode": "RO",
      "stateCode": "BC",
      "latitude": "46.52183000",
      "longitude": "26.60165000"
   },
   {
      "name": "Comuna Asău",
      "countryCode": "RO",
      "stateCode": "BC",
      "latitude": "46.46495000",
      "longitude": "26.37497000"
   },
   {
      "name": "Comuna Balcani",
      "countryCode": "RO",
      "stateCode": "BC",
      "latitude": "46.64108000",
      "longitude": "26.54412000"
   },
   {
      "name": "Comuna Bereşti-Bistriţa",
      "countryCode": "RO",
      "stateCode": "BC",
      "latitude": "46.70870000",
      "longitude": "26.85648000"
   },
   {
      "name": "Comuna Bereşti-Tazlău",
      "countryCode": "RO",
      "stateCode": "BC",
      "latitude": "46.48302000",
      "longitude": "26.67877000"
   },
   {
      "name": "Comuna Berzunţi",
      "countryCode": "RO",
      "stateCode": "BC",
      "latitude": "46.41360000",
      "longitude": "26.62237000"
   },
   {
      "name": "Comuna Blăgeşti",
      "countryCode": "RO",
      "stateCode": "BC",
      "latitude": "46.68668000",
      "longitude": "26.64835000"
   },
   {
      "name": "Comuna Bogdăneşti",
      "countryCode": "RO",
      "stateCode": "BC",
      "latitude": "46.21790000",
      "longitude": "26.69950000"
   },
   {
      "name": "Comuna Brusturoasa",
      "countryCode": "RO",
      "stateCode": "BC",
      "latitude": "46.51898000",
      "longitude": "26.19352000"
   },
   {
      "name": "Comuna Buciumi",
      "countryCode": "RO",
      "stateCode": "BC",
      "latitude": "46.21353000",
      "longitude": "26.78584000"
   },
   {
      "name": "Comuna Buhoci",
      "countryCode": "RO",
      "stateCode": "BC",
      "latitude": "46.56581000",
      "longitude": "27.00824000"
   },
   {
      "name": "Comuna Bârsăneşti",
      "countryCode": "RO",
      "stateCode": "BC",
      "latitude": "46.33290000",
      "longitude": "26.68192000"
   },
   {
      "name": "Comuna Cleja",
      "countryCode": "RO",
      "stateCode": "BC",
      "latitude": "46.40183000",
      "longitude": "26.92104000"
   },
   {
      "name": "Comuna Coloneşti",
      "countryCode": "RO",
      "stateCode": "BC",
      "latitude": "46.60471000",
      "longitude": "27.26584000"
   },
   {
      "name": "Comuna Corbasca",
      "countryCode": "RO",
      "stateCode": "BC",
      "latitude": "46.29728000",
      "longitude": "27.13675000"
   },
   {
      "name": "Comuna Coţofăneşti",
      "countryCode": "RO",
      "stateCode": "BC",
      "latitude": "46.14808000",
      "longitude": "26.98644000"
   },
   {
      "name": "Comuna Căiuţi",
      "countryCode": "RO",
      "stateCode": "BC",
      "latitude": "46.17987000",
      "longitude": "26.91633000"
   },
   {
      "name": "Comuna Dealu Morii",
      "countryCode": "RO",
      "stateCode": "BC",
      "latitude": "46.30877000",
      "longitude": "27.29511000"
   },
   {
      "name": "Comuna Dofteana",
      "countryCode": "RO",
      "stateCode": "BC",
      "latitude": "46.32282000",
      "longitude": "26.53081000"
   },
   {
      "name": "Comuna Dămieneşti",
      "countryCode": "RO",
      "stateCode": "BC",
      "latitude": "46.74310000",
      "longitude": "27.00649000"
   },
   {
      "name": "Comuna Faraoani",
      "countryCode": "RO",
      "stateCode": "BC",
      "latitude": "46.43375000",
      "longitude": "26.89835000"
   },
   {
      "name": "Comuna Filipeni",
      "countryCode": "RO",
      "stateCode": "BC",
      "latitude": "46.53357000",
      "longitude": "27.19114000"
   },
   {
      "name": "Comuna Filipeşti",
      "countryCode": "RO",
      "stateCode": "BC",
      "latitude": "46.76821000",
      "longitude": "26.89338000"
   },
   {
      "name": "Comuna Ghimeş-Făget",
      "countryCode": "RO",
      "stateCode": "BC",
      "latitude": "46.60483000",
      "longitude": "26.05354000"
   },
   {
      "name": "Comuna Gioseni",
      "countryCode": "RO",
      "stateCode": "BC",
      "latitude": "46.42925000",
      "longitude": "26.99239000"
   },
   {
      "name": "Comuna Glăvăneşti",
      "countryCode": "RO",
      "stateCode": "BC",
      "latitude": "46.26329000",
      "longitude": "27.38778000"
   },
   {
      "name": "Comuna Gura Văii",
      "countryCode": "RO",
      "stateCode": "BC",
      "latitude": "46.27305000",
      "longitude": "26.82312000"
   },
   {
      "name": "Comuna Gârleni",
      "countryCode": "RO",
      "stateCode": "BC",
      "latitude": "46.66251000",
      "longitude": "26.78819000"
   },
   {
      "name": "Comuna Găiceana",
      "countryCode": "RO",
      "stateCode": "BC",
      "latitude": "46.35060000",
      "longitude": "27.22154000"
   },
   {
      "name": "Comuna Helegiu",
      "countryCode": "RO",
      "stateCode": "BC",
      "latitude": "46.34967000",
      "longitude": "26.76690000"
   },
   {
      "name": "Comuna Hemeiuşi",
      "countryCode": "RO",
      "stateCode": "BC",
      "latitude": "46.61927000",
      "longitude": "26.85729000"
   },
   {
      "name": "Comuna Horgeşti",
      "countryCode": "RO",
      "stateCode": "BC",
      "latitude": "46.39837000",
      "longitude": "27.05603000"
   },
   {
      "name": "Comuna Huruieşti",
      "countryCode": "RO",
      "stateCode": "BC",
      "latitude": "46.25297000",
      "longitude": "27.23828000"
   },
   {
      "name": "Comuna Iteşti",
      "countryCode": "RO",
      "stateCode": "BC",
      "latitude": "46.67368000",
      "longitude": "26.85555000"
   },
   {
      "name": "Comuna Izvoru Berheciului",
      "countryCode": "RO",
      "stateCode": "BC",
      "latitude": "46.57693000",
      "longitude": "27.22842000"
   },
   {
      "name": "Comuna Letea Veche",
      "countryCode": "RO",
      "stateCode": "BC",
      "latitude": "46.54236000",
      "longitude": "26.96869000"
   },
   {
      "name": "Comuna Lipova",
      "countryCode": "RO",
      "stateCode": "BC",
      "latitude": "46.72016000",
      "longitude": "27.23238000"
   },
   {
      "name": "Comuna Livezi",
      "countryCode": "RO",
      "stateCode": "BC",
      "latitude": "46.39932000",
      "longitude": "26.72438000"
   },
   {
      "name": "Comuna Luizi-Cãlugãra",
      "countryCode": "RO",
      "stateCode": "BC",
      "latitude": "46.53604000",
      "longitude": "26.84012000"
   },
   {
      "name": "Comuna Motoşeni",
      "countryCode": "RO",
      "stateCode": "BC",
      "latitude": "46.32779000",
      "longitude": "27.41721000"
   },
   {
      "name": "Comuna Mânăstirea Caşin",
      "countryCode": "RO",
      "stateCode": "BC",
      "latitude": "46.19394000",
      "longitude": "26.72923000"
   },
   {
      "name": "Comuna Măgireşti",
      "countryCode": "RO",
      "stateCode": "BC",
      "latitude": "46.50965000",
      "longitude": "26.53727000"
   },
   {
      "name": "Comuna Măgura",
      "countryCode": "RO",
      "stateCode": "BC",
      "latitude": "46.56065000",
      "longitude": "26.83900000"
   },
   {
      "name": "Comuna Mărgineni",
      "countryCode": "RO",
      "stateCode": "BC",
      "latitude": "46.59779000",
      "longitude": "26.80505000"
   },
   {
      "name": "Comuna Negri",
      "countryCode": "RO",
      "stateCode": "BC",
      "latitude": "46.70500000",
      "longitude": "26.97216000"
   },
   {
      "name": "Comuna Nicolae Bălcescu",
      "countryCode": "RO",
      "stateCode": "BC",
      "latitude": "46.46687000",
      "longitude": "26.88837000"
   },
   {
      "name": "Comuna Odobeşti",
      "countryCode": "RO",
      "stateCode": "BC",
      "latitude": "46.66902000",
      "longitude": "27.13224000"
   },
   {
      "name": "Comuna Oituz",
      "countryCode": "RO",
      "stateCode": "BC",
      "latitude": "46.19045000",
      "longitude": "26.56043000"
   },
   {
      "name": "Comuna Onceşti",
      "countryCode": "RO",
      "stateCode": "BC",
      "latitude": "46.47537000",
      "longitude": "27.25835000"
   },
   {
      "name": "Comuna Orbeni",
      "countryCode": "RO",
      "stateCode": "BC",
      "latitude": "46.26934000",
      "longitude": "27.01872000"
   },
   {
      "name": "Comuna Palanca",
      "countryCode": "RO",
      "stateCode": "BC",
      "latitude": "46.50647000",
      "longitude": "26.11239000"
   },
   {
      "name": "Comuna Parava",
      "countryCode": "RO",
      "stateCode": "BC",
      "latitude": "46.30993000",
      "longitude": "26.96787000"
   },
   {
      "name": "Comuna Parincea",
      "countryCode": "RO",
      "stateCode": "BC",
      "latitude": "46.47841000",
      "longitude": "27.12877000"
   },
   {
      "name": "Comuna Plopana",
      "countryCode": "RO",
      "stateCode": "BC",
      "latitude": "46.66549000",
      "longitude": "27.24403000"
   },
   {
      "name": "Comuna Podu Turcului",
      "countryCode": "RO",
      "stateCode": "BC",
      "latitude": "46.19703000",
      "longitude": "27.38796000"
   },
   {
      "name": "Comuna Poduri",
      "countryCode": "RO",
      "stateCode": "BC",
      "latitude": "46.47888000",
      "longitude": "26.56593000"
   },
   {
      "name": "Comuna Prăjeşti",
      "countryCode": "RO",
      "stateCode": "BC",
      "latitude": "46.65469000",
      "longitude": "26.97631000"
   },
   {
      "name": "Comuna Pârgăreşti",
      "countryCode": "RO",
      "stateCode": "BC",
      "latitude": "46.24414000",
      "longitude": "26.65017000"
   },
   {
      "name": "Comuna Pârjol",
      "countryCode": "RO",
      "stateCode": "BC",
      "latitude": "46.59014000",
      "longitude": "26.60903000"
   },
   {
      "name": "Comuna Pănceşti",
      "countryCode": "RO",
      "stateCode": "BC",
      "latitude": "46.36459000",
      "longitude": "27.11377000"
   },
   {
      "name": "Comuna Racova",
      "countryCode": "RO",
      "stateCode": "BC",
      "latitude": "46.69790000",
      "longitude": "26.78097000"
   },
   {
      "name": "Comuna Roşiori",
      "countryCode": "RO",
      "stateCode": "BC",
      "latitude": "46.72620000",
      "longitude": "27.10446000"
   },
   {
      "name": "Comuna Răchitoasa",
      "countryCode": "RO",
      "stateCode": "BC",
      "latitude": "46.44772000",
      "longitude": "27.36875000"
   },
   {
      "name": "Comuna Răcăciuni",
      "countryCode": "RO",
      "stateCode": "BC",
      "latitude": "46.35011000",
      "longitude": "26.96705000"
   },
   {
      "name": "Comuna Sascut",
      "countryCode": "RO",
      "stateCode": "BC",
      "latitude": "46.19288000",
      "longitude": "27.09163000"
   },
   {
      "name": "Comuna Scorţeni",
      "countryCode": "RO",
      "stateCode": "BC",
      "latitude": "46.58037000",
      "longitude": "26.68543000"
   },
   {
      "name": "Comuna Secuieni",
      "countryCode": "RO",
      "stateCode": "BC",
      "latitude": "46.65329000",
      "longitude": "27.09674000"
   },
   {
      "name": "Comuna Solonţ",
      "countryCode": "RO",
      "stateCode": "BC",
      "latitude": "46.56929000",
      "longitude": "26.53863000"
   },
   {
      "name": "Comuna Strugari",
      "countryCode": "RO",
      "stateCode": "BC",
      "latitude": "46.52715000",
      "longitude": "26.73578000"
   },
   {
      "name": "Comuna Stănişeşti",
      "countryCode": "RO",
      "stateCode": "BC",
      "latitude": "46.42760000",
      "longitude": "27.31055000"
   },
   {
      "name": "Comuna Sănduleni",
      "countryCode": "RO",
      "stateCode": "BC",
      "latitude": "46.45082000",
      "longitude": "26.74185000"
   },
   {
      "name": "Comuna Sărata",
      "countryCode": "RO",
      "stateCode": "BC",
      "latitude": "46.49582000",
      "longitude": "26.86916000"
   },
   {
      "name": "Comuna Săuceşti",
      "countryCode": "RO",
      "stateCode": "BC",
      "latitude": "46.65781000",
      "longitude": "26.93368000"
   },
   {
      "name": "Comuna Tamaşi",
      "countryCode": "RO",
      "stateCode": "BC",
      "latitude": "46.48841000",
      "longitude": "26.99549000"
   },
   {
      "name": "Comuna Traian",
      "countryCode": "RO",
      "stateCode": "BC",
      "latitude": "46.64706000",
      "longitude": "27.03533000"
   },
   {
      "name": "Comuna Târgu Trotuş",
      "countryCode": "RO",
      "stateCode": "BC",
      "latitude": "46.26789000",
      "longitude": "26.67587000"
   },
   {
      "name": "Comuna Tătărăşti",
      "countryCode": "RO",
      "stateCode": "BC",
      "latitude": "46.22823000",
      "longitude": "27.19631000"
   },
   {
      "name": "Comuna Ungureni",
      "countryCode": "RO",
      "stateCode": "BC",
      "latitude": "46.54522000",
      "longitude": "27.10680000"
   },
   {
      "name": "Comuna Urecheşti",
      "countryCode": "RO",
      "stateCode": "BC",
      "latitude": "46.12425000",
      "longitude": "27.07070000"
   },
   {
      "name": "Comuna Valea Seacă",
      "countryCode": "RO",
      "stateCode": "BC",
      "latitude": "46.24851000",
      "longitude": "27.04535000"
   },
   {
      "name": "Comuna Vultureni",
      "countryCode": "RO",
      "stateCode": "BC",
      "latitude": "46.41385000",
      "longitude": "27.23668000"
   },
   {
      "name": "Comuna Zemeş",
      "countryCode": "RO",
      "stateCode": "BC",
      "latitude": "46.59171000",
      "longitude": "26.43381000"
   },
   {
      "name": "Comuna Ştefan Cel Mare",
      "countryCode": "RO",
      "stateCode": "BC",
      "latitude": "46.20645000",
      "longitude": "26.85488000"
   },
   {
      "name": "Comăneşti",
      "countryCode": "RO",
      "stateCode": "BC",
      "latitude": "46.42135000",
      "longitude": "26.43645000"
   },
   {
      "name": "Corbasca",
      "countryCode": "RO",
      "stateCode": "BC",
      "latitude": "46.28333000",
      "longitude": "27.16667000"
   },
   {
      "name": "Cotumba",
      "countryCode": "RO",
      "stateCode": "BC",
      "latitude": "46.49743000",
      "longitude": "26.19112000"
   },
   {
      "name": "Coţofăneşti",
      "countryCode": "RO",
      "stateCode": "BC",
      "latitude": "46.15000000",
      "longitude": "26.98333000"
   },
   {
      "name": "Cucuieți",
      "countryCode": "RO",
      "stateCode": "BC",
      "latitude": "46.32731000",
      "longitude": "26.55504000"
   },
   {
      "name": "Cârligi",
      "countryCode": "RO",
      "stateCode": "BC",
      "latitude": "46.76583000",
      "longitude": "26.85053000"
   },
   {
      "name": "Căiuţi-Sat",
      "countryCode": "RO",
      "stateCode": "BC",
      "latitude": "46.18333000",
      "longitude": "26.93333000"
   },
   {
      "name": "Căiuți",
      "countryCode": "RO",
      "stateCode": "BC",
      "latitude": "46.18057000",
      "longitude": "26.92571000"
   },
   {
      "name": "Dealu Morii",
      "countryCode": "RO",
      "stateCode": "BC",
      "latitude": "46.31667000",
      "longitude": "27.23333000"
   },
   {
      "name": "Deleni",
      "countryCode": "RO",
      "stateCode": "BC",
      "latitude": "46.35360000",
      "longitude": "26.77628000"
   },
   {
      "name": "Dofteana",
      "countryCode": "RO",
      "stateCode": "BC",
      "latitude": "46.31667000",
      "longitude": "26.51667000"
   },
   {
      "name": "Dragomir",
      "countryCode": "RO",
      "stateCode": "BC",
      "latitude": "46.41373000",
      "longitude": "26.63163000"
   },
   {
      "name": "Drăgugești",
      "countryCode": "RO",
      "stateCode": "BC",
      "latitude": "46.36796000",
      "longitude": "26.77433000"
   },
   {
      "name": "Dumbrava",
      "countryCode": "RO",
      "stateCode": "BC",
      "latitude": "46.30969000",
      "longitude": "26.89087000"
   },
   {
      "name": "Dămieneşti",
      "countryCode": "RO",
      "stateCode": "BC",
      "latitude": "46.73333000",
      "longitude": "26.98333000"
   },
   {
      "name": "Dămoc",
      "countryCode": "RO",
      "stateCode": "BC",
      "latitude": "46.46667000",
      "longitude": "26.86667000"
   },
   {
      "name": "Dărmăneşti",
      "countryCode": "RO",
      "stateCode": "BC",
      "latitude": "46.36667000",
      "longitude": "26.48333000"
   },
   {
      "name": "Faraoaní",
      "countryCode": "RO",
      "stateCode": "BC",
      "latitude": "46.43333000",
      "longitude": "26.90000000"
   },
   {
      "name": "Ferestrău-Oituz",
      "countryCode": "RO",
      "stateCode": "BC",
      "latitude": "46.20249000",
      "longitude": "26.57629000"
   },
   {
      "name": "Filipeni",
      "countryCode": "RO",
      "stateCode": "BC",
      "latitude": "46.53333000",
      "longitude": "27.18333000"
   },
   {
      "name": "Filipeşti",
      "countryCode": "RO",
      "stateCode": "BC",
      "latitude": "46.75000000",
      "longitude": "26.88333000"
   },
   {
      "name": "Frumoasa",
      "countryCode": "RO",
      "stateCode": "BC",
      "latitude": "46.66298000",
      "longitude": "26.54196000"
   },
   {
      "name": "Frumușelu",
      "countryCode": "RO",
      "stateCode": "BC",
      "latitude": "46.27796000",
      "longitude": "27.35203000"
   },
   {
      "name": "Fundu Răcăciuni",
      "countryCode": "RO",
      "stateCode": "BC",
      "latitude": "46.35864000",
      "longitude": "26.88987000"
   },
   {
      "name": "Făget",
      "countryCode": "RO",
      "stateCode": "BC",
      "latitude": "46.58891000",
      "longitude": "26.05349000"
   },
   {
      "name": "Galbeni",
      "countryCode": "RO",
      "stateCode": "BC",
      "latitude": "46.45661000",
      "longitude": "26.94664000"
   },
   {
      "name": "Gheorghe Doja",
      "countryCode": "RO",
      "stateCode": "BC",
      "latitude": "46.37831000",
      "longitude": "26.96248000"
   },
   {
      "name": "Ghimeş-Făget",
      "countryCode": "RO",
      "stateCode": "BC",
      "latitude": "46.58333000",
      "longitude": "26.06667000"
   },
   {
      "name": "Ghimeș",
      "countryCode": "RO",
      "stateCode": "BC",
      "latitude": "46.56821000",
      "longitude": "26.08886000"
   },
   {
      "name": "Gioseni",
      "countryCode": "RO",
      "stateCode": "BC",
      "latitude": "46.42925000",
      "longitude": "26.99239000"
   },
   {
      "name": "Glăvăneşti",
      "countryCode": "RO",
      "stateCode": "BC",
      "latitude": "46.25000000",
      "longitude": "27.38333000"
   },
   {
      "name": "Gura Văii",
      "countryCode": "RO",
      "stateCode": "BC",
      "latitude": "46.27234000",
      "longitude": "26.82604000"
   },
   {
      "name": "Gârleni",
      "countryCode": "RO",
      "stateCode": "BC",
      "latitude": "46.66667000",
      "longitude": "26.80000000"
   },
   {
      "name": "Gârlenii de Sus",
      "countryCode": "RO",
      "stateCode": "BC",
      "latitude": "46.65414000",
      "longitude": "26.79491000"
   },
   {
      "name": "Găiceana",
      "countryCode": "RO",
      "stateCode": "BC",
      "latitude": "46.33333000",
      "longitude": "27.21667000"
   },
   {
      "name": "Găzărie",
      "countryCode": "RO",
      "stateCode": "BC",
      "latitude": "46.48928000",
      "longitude": "26.51877000"
   },
   {
      "name": "Helegiu",
      "countryCode": "RO",
      "stateCode": "BC",
      "latitude": "46.35000000",
      "longitude": "26.75000000"
   },
   {
      "name": "Hemeiuș",
      "countryCode": "RO",
      "stateCode": "BC",
      "latitude": "46.62643000",
      "longitude": "26.85440000"
   },
   {
      "name": "Holt",
      "countryCode": "RO",
      "stateCode": "BC",
      "latitude": "46.57856000",
      "longitude": "26.97499000"
   },
   {
      "name": "Horgeşti",
      "countryCode": "RO",
      "stateCode": "BC",
      "latitude": "46.43333000",
      "longitude": "27.06667000"
   },
   {
      "name": "Huruiești",
      "countryCode": "RO",
      "stateCode": "BC",
      "latitude": "46.26667000",
      "longitude": "27.25000000"
   },
   {
      "name": "Hăghiac",
      "countryCode": "RO",
      "stateCode": "BC",
      "latitude": "46.31200000",
      "longitude": "26.51841000"
   },
   {
      "name": "Iteşti",
      "countryCode": "RO",
      "stateCode": "BC",
      "latitude": "46.65309000",
      "longitude": "26.87256000"
   },
   {
      "name": "Izvoru Berheciului",
      "countryCode": "RO",
      "stateCode": "BC",
      "latitude": "46.58333000",
      "longitude": "27.21667000"
   },
   {
      "name": "Larga",
      "countryCode": "RO",
      "stateCode": "BC",
      "latitude": "46.35060000",
      "longitude": "26.53321000"
   },
   {
      "name": "Lespezi",
      "countryCode": "RO",
      "stateCode": "BC",
      "latitude": "46.66493000",
      "longitude": "26.76882000"
   },
   {
      "name": "Letea Veche",
      "countryCode": "RO",
      "stateCode": "BC",
      "latitude": "46.55000000",
      "longitude": "26.95000000"
   },
   {
      "name": "Lilieci",
      "countryCode": "RO",
      "stateCode": "BC",
      "latitude": "46.62861000",
      "longitude": "26.87176000"
   },
   {
      "name": "Lipova",
      "countryCode": "RO",
      "stateCode": "BC",
      "latitude": "46.71667000",
      "longitude": "27.23333000"
   },
   {
      "name": "Livezi",
      "countryCode": "RO",
      "stateCode": "BC",
      "latitude": "46.40639000",
      "longitude": "26.73613000"
   },
   {
      "name": "Livezi-Vale",
      "countryCode": "RO",
      "stateCode": "BC",
      "latitude": "46.41667000",
      "longitude": "26.73333000"
   },
   {
      "name": "Ludași",
      "countryCode": "RO",
      "stateCode": "BC",
      "latitude": "46.61962000",
      "longitude": "26.57926000"
   },
   {
      "name": "Luizi-Călugăra",
      "countryCode": "RO",
      "stateCode": "BC",
      "latitude": "46.53333000",
      "longitude": "26.83333000"
   },
   {
      "name": "Lăpoș",
      "countryCode": "RO",
      "stateCode": "BC",
      "latitude": "46.39363000",
      "longitude": "26.46245000"
   },
   {
      "name": "Moineşti",
      "countryCode": "RO",
      "stateCode": "BC",
      "latitude": "46.47523000",
      "longitude": "26.48907000"
   },
   {
      "name": "Motoşeni",
      "countryCode": "RO",
      "stateCode": "BC",
      "latitude": "46.33333000",
      "longitude": "27.38333000"
   },
   {
      "name": "Municipiul Bacãu",
      "countryCode": "RO",
      "stateCode": "BC",
      "latitude": "46.56854000",
      "longitude": "26.91135000"
   },
   {
      "name": "Municipiul Moineşti",
      "countryCode": "RO",
      "stateCode": "BC",
      "latitude": "46.47428000",
      "longitude": "26.48804000"
   },
   {
      "name": "Municipiul Oneşti",
      "countryCode": "RO",
      "stateCode": "BC",
      "latitude": "46.25000000",
      "longitude": "26.75000000"
   },
   {
      "name": "Mânăstirea Caşin",
      "countryCode": "RO",
      "stateCode": "BC",
      "latitude": "46.15000000",
      "longitude": "26.68333000"
   },
   {
      "name": "Măgireşti",
      "countryCode": "RO",
      "stateCode": "BC",
      "latitude": "46.51667000",
      "longitude": "26.55000000"
   },
   {
      "name": "Măgura",
      "countryCode": "RO",
      "stateCode": "BC",
      "latitude": "46.56667000",
      "longitude": "26.85000000"
   },
   {
      "name": "Mărgineni",
      "countryCode": "RO",
      "stateCode": "BC",
      "latitude": "46.58760000",
      "longitude": "26.85095000"
   },
   {
      "name": "Mărgineni-Munteni",
      "countryCode": "RO",
      "stateCode": "BC",
      "latitude": "46.60000000",
      "longitude": "26.90000000"
   },
   {
      "name": "Negri",
      "countryCode": "RO",
      "stateCode": "BC",
      "latitude": "46.70000000",
      "longitude": "26.96667000"
   },
   {
      "name": "Nicolae Bălcescu",
      "countryCode": "RO",
      "stateCode": "BC",
      "latitude": "46.46667000",
      "longitude": "26.91667000"
   },
   {
      "name": "Odobești",
      "countryCode": "RO",
      "stateCode": "BC",
      "latitude": "46.67608000",
      "longitude": "27.14983000"
   },
   {
      "name": "Oituz",
      "countryCode": "RO",
      "stateCode": "BC",
      "latitude": "46.20000000",
      "longitude": "26.61667000"
   },
   {
      "name": "Onceşti",
      "countryCode": "RO",
      "stateCode": "BC",
      "latitude": "46.46667000",
      "longitude": "27.25000000"
   },
   {
      "name": "Onesti",
      "countryCode": "RO",
      "stateCode": "BC",
      "latitude": "46.25000000",
      "longitude": "26.75000000"
   },
   {
      "name": "Oraş Buhuşi",
      "countryCode": "RO",
      "stateCode": "BC",
      "latitude": "46.71845000",
      "longitude": "26.69952000"
   },
   {
      "name": "Oraş Comãneşti",
      "countryCode": "RO",
      "stateCode": "BC",
      "latitude": "46.42348000",
      "longitude": "26.42796000"
   },
   {
      "name": "Oraş Dãrmãneşti",
      "countryCode": "RO",
      "stateCode": "BC",
      "latitude": "46.37559000",
      "longitude": "26.47673000"
   },
   {
      "name": "Oraş Slãnic-Moldova",
      "countryCode": "RO",
      "stateCode": "BC",
      "latitude": "46.22320000",
      "longitude": "26.47774000"
   },
   {
      "name": "Oraş Târgu Ocna",
      "countryCode": "RO",
      "stateCode": "BC",
      "latitude": "46.27988000",
      "longitude": "26.61129000"
   },
   {
      "name": "Orbeni",
      "countryCode": "RO",
      "stateCode": "BC",
      "latitude": "46.28333000",
      "longitude": "27.01667000"
   },
   {
      "name": "Orășa",
      "countryCode": "RO",
      "stateCode": "BC",
      "latitude": "46.42225000",
      "longitude": "26.74370000"
   },
   {
      "name": "Osebiți",
      "countryCode": "RO",
      "stateCode": "BC",
      "latitude": "46.53839000",
      "longitude": "26.83946000"
   },
   {
      "name": "Palanca",
      "countryCode": "RO",
      "stateCode": "BC",
      "latitude": "46.53333000",
      "longitude": "26.11667000"
   },
   {
      "name": "Parava",
      "countryCode": "RO",
      "stateCode": "BC",
      "latitude": "46.30000000",
      "longitude": "27.00000000"
   },
   {
      "name": "Parincea",
      "countryCode": "RO",
      "stateCode": "BC",
      "latitude": "46.48333000",
      "longitude": "27.10000000"
   },
   {
      "name": "Plopana",
      "countryCode": "RO",
      "stateCode": "BC",
      "latitude": "46.68333000",
      "longitude": "27.21667000"
   },
   {
      "name": "Plopu",
      "countryCode": "RO",
      "stateCode": "BC",
      "latitude": "46.39256000",
      "longitude": "26.50268000"
   },
   {
      "name": "Podu Turcului",
      "countryCode": "RO",
      "stateCode": "BC",
      "latitude": "46.20000000",
      "longitude": "27.38333000"
   },
   {
      "name": "Poduri",
      "countryCode": "RO",
      "stateCode": "BC",
      "latitude": "46.46667000",
      "longitude": "26.53333000"
   },
   {
      "name": "Poiana",
      "countryCode": "RO",
      "stateCode": "BC",
      "latitude": "46.69819000",
      "longitude": "27.01765000"
   },
   {
      "name": "Prohozești",
      "countryCode": "RO",
      "stateCode": "BC",
      "latitude": "46.48155000",
      "longitude": "26.55170000"
   },
   {
      "name": "Prăjești",
      "countryCode": "RO",
      "stateCode": "BC",
      "latitude": "46.65469000",
      "longitude": "26.97631000"
   },
   {
      "name": "Pustiana",
      "countryCode": "RO",
      "stateCode": "BC",
      "latitude": "46.58990000",
      "longitude": "26.63083000"
   },
   {
      "name": "Pârgăreşti",
      "countryCode": "RO",
      "stateCode": "BC",
      "latitude": "46.25000000",
      "longitude": "26.65000000"
   },
   {
      "name": "Pârjol",
      "countryCode": "RO",
      "stateCode": "BC",
      "latitude": "46.58333000",
      "longitude": "26.60000000"
   },
   {
      "name": "Pănceşti",
      "countryCode": "RO",
      "stateCode": "BC",
      "latitude": "46.33333000",
      "longitude": "27.08333000"
   },
   {
      "name": "Racova",
      "countryCode": "RO",
      "stateCode": "BC",
      "latitude": "46.70000000",
      "longitude": "26.75000000"
   },
   {
      "name": "Roşiori",
      "countryCode": "RO",
      "stateCode": "BC",
      "latitude": "46.71667000",
      "longitude": "27.08333000"
   },
   {
      "name": "Răchitoasa",
      "countryCode": "RO",
      "stateCode": "BC",
      "latitude": "46.43333000",
      "longitude": "27.36667000"
   },
   {
      "name": "Răcăciuni",
      "countryCode": "RO",
      "stateCode": "BC",
      "latitude": "46.33333000",
      "longitude": "26.98333000"
   },
   {
      "name": "Răcăuți",
      "countryCode": "RO",
      "stateCode": "BC",
      "latitude": "46.22476000",
      "longitude": "26.78723000"
   },
   {
      "name": "Sascut",
      "countryCode": "RO",
      "stateCode": "BC",
      "latitude": "46.20000000",
      "longitude": "27.10000000"
   },
   {
      "name": "Sascut-Sat",
      "countryCode": "RO",
      "stateCode": "BC",
      "latitude": "46.18727000",
      "longitude": "27.06851000"
   },
   {
      "name": "Satu Nou",
      "countryCode": "RO",
      "stateCode": "BC",
      "latitude": "46.24447000",
      "longitude": "26.65343000"
   },
   {
      "name": "Schitu Frumoasa",
      "countryCode": "RO",
      "stateCode": "BC",
      "latitude": "46.63541000",
      "longitude": "26.48761000"
   },
   {
      "name": "Scorţeni",
      "countryCode": "RO",
      "stateCode": "BC",
      "latitude": "46.55000000",
      "longitude": "26.65000000"
   },
   {
      "name": "Scurta",
      "countryCode": "RO",
      "stateCode": "BC",
      "latitude": "46.26133000",
      "longitude": "27.01548000"
   },
   {
      "name": "Secuieni",
      "countryCode": "RO",
      "stateCode": "BC",
      "latitude": "46.65000000",
      "longitude": "27.10000000"
   },
   {
      "name": "Slobozia",
      "countryCode": "RO",
      "stateCode": "BC",
      "latitude": "46.47495000",
      "longitude": "27.31111000"
   },
   {
      "name": "Slănic-Moldova",
      "countryCode": "RO",
      "stateCode": "BC",
      "latitude": "46.22308000",
      "longitude": "26.47413000"
   },
   {
      "name": "Solonţ",
      "countryCode": "RO",
      "stateCode": "BC",
      "latitude": "46.55000000",
      "longitude": "26.51667000"
   },
   {
      "name": "Somușca",
      "countryCode": "RO",
      "stateCode": "BC",
      "latitude": "46.40147000",
      "longitude": "26.91189000"
   },
   {
      "name": "Straja",
      "countryCode": "RO",
      "stateCode": "BC",
      "latitude": "46.43989000",
      "longitude": "26.36258000"
   },
   {
      "name": "Strugari",
      "countryCode": "RO",
      "stateCode": "BC",
      "latitude": "46.53333000",
      "longitude": "26.71667000"
   },
   {
      "name": "Stănişeşti",
      "countryCode": "RO",
      "stateCode": "BC",
      "latitude": "46.43333000",
      "longitude": "27.30000000"
   },
   {
      "name": "Sănduleni",
      "countryCode": "RO",
      "stateCode": "BC",
      "latitude": "46.45000000",
      "longitude": "26.73333000"
   },
   {
      "name": "Sărata",
      "countryCode": "RO",
      "stateCode": "BC",
      "latitude": "46.50249000",
      "longitude": "26.86857000"
   },
   {
      "name": "Săucești",
      "countryCode": "RO",
      "stateCode": "BC",
      "latitude": "46.61853000",
      "longitude": "26.94141000"
   },
   {
      "name": "Tamaşi",
      "countryCode": "RO",
      "stateCode": "BC",
      "latitude": "46.48333000",
      "longitude": "26.98333000"
   },
   {
      "name": "Traian",
      "countryCode": "RO",
      "stateCode": "BC",
      "latitude": "46.63333000",
      "longitude": "27.03333000"
   },
   {
      "name": "Turluianu",
      "countryCode": "RO",
      "stateCode": "BC",
      "latitude": "46.45298000",
      "longitude": "26.64607000"
   },
   {
      "name": "Tuta",
      "countryCode": "RO",
      "stateCode": "BC",
      "latitude": "46.25643000",
      "longitude": "26.69103000"
   },
   {
      "name": "Târgu Ocna",
      "countryCode": "RO",
      "stateCode": "BC",
      "latitude": "46.27899000",
      "longitude": "26.61301000"
   },
   {
      "name": "Târgu Trotuş",
      "countryCode": "RO",
      "stateCode": "BC",
      "latitude": "46.26667000",
      "longitude": "26.66667000"
   },
   {
      "name": "Tătărăști",
      "countryCode": "RO",
      "stateCode": "BC",
      "latitude": "46.21667000",
      "longitude": "27.20000000"
   },
   {
      "name": "Ungureni",
      "countryCode": "RO",
      "stateCode": "BC",
      "latitude": "46.52283000",
      "longitude": "27.11186000"
   },
   {
      "name": "Urecheşti",
      "countryCode": "RO",
      "stateCode": "BC",
      "latitude": "46.13333000",
      "longitude": "27.08333000"
   },
   {
      "name": "Valea Arinilor",
      "countryCode": "RO",
      "stateCode": "BC",
      "latitude": "46.49793000",
      "longitude": "26.50918000"
   },
   {
      "name": "Valea Seacă",
      "countryCode": "RO",
      "stateCode": "BC",
      "latitude": "46.24281000",
      "longitude": "27.04594000"
   },
   {
      "name": "Valea lui Ion",
      "countryCode": "RO",
      "stateCode": "BC",
      "latitude": "46.70350000",
      "longitude": "26.62499000"
   },
   {
      "name": "Valea Șoșii",
      "countryCode": "RO",
      "stateCode": "BC",
      "latitude": "46.46180000",
      "longitude": "26.54992000"
   },
   {
      "name": "Vermești",
      "countryCode": "RO",
      "stateCode": "BC",
      "latitude": "46.42172000",
      "longitude": "26.47660000"
   },
   {
      "name": "Verșești",
      "countryCode": "RO",
      "stateCode": "BC",
      "latitude": "46.44904000",
      "longitude": "26.70183000"
   },
   {
      "name": "Viișoara",
      "countryCode": "RO",
      "stateCode": "BC",
      "latitude": "46.28325000",
      "longitude": "26.66187000"
   },
   {
      "name": "Vultureni",
      "countryCode": "RO",
      "stateCode": "BC",
      "latitude": "46.36667000",
      "longitude": "27.28333000"
   },
   {
      "name": "Vâlcele",
      "countryCode": "RO",
      "stateCode": "BC",
      "latitude": "46.29801000",
      "longitude": "26.60005000"
   },
   {
      "name": "Zemeş",
      "countryCode": "RO",
      "stateCode": "BC",
      "latitude": "46.58333000",
      "longitude": "26.41667000"
   },
   {
      "name": "Ştefan Cel Mare",
      "countryCode": "RO",
      "stateCode": "BC",
      "latitude": "46.20526000",
      "longitude": "26.85488000"
   },
   {
      "name": "Ștefan Vodă",
      "countryCode": "RO",
      "stateCode": "BC",
      "latitude": "46.31692000",
      "longitude": "26.51250000"
   }
]