[
   {
      "name": "Amphoe Ban Phaeng",
      "countryCode": "TH",
      "stateCode": "48",
      "latitude": "17.86955000",
      "longitude": "104.22744000"
   },
   {
      "name": "Amphoe Mueang Nakhon Phanom",
      "countryCode": "TH",
      "stateCode": "48",
      "latitude": "17.31965000",
      "longitude": "104.68232000"
   },
   {
      "name": "Amphoe Na Kae",
      "countryCode": "TH",
      "stateCode": "48",
      "latitude": "16.95737000",
      "longitude": "104.49349000"
   },
   {
      "name": "Amphoe Na Thom",
      "countryCode": "TH",
      "stateCode": "48",
      "latitude": "17.82134000",
      "longitude": "104.10871000"
   },
   {
      "name": "Amphoe Na Wa",
      "countryCode": "TH",
      "stateCode": "48",
      "latitude": "17.49922000",
      "longitude": "104.11833000"
   },
   {
      "name": "Amphoe Phon Sawan",
      "countryCode": "TH",
      "stateCode": "48",
      "latitude": "17.46868000",
      "longitude": "104.42234000"
   },
   {
      "name": "Amphoe Pla Pak",
      "countryCode": "TH",
      "stateCode": "48",
      "latitude": "17.20133000",
      "longitude": "104.54674000"
   },
   {
      "name": "Amphoe Renu Nakhon",
      "countryCode": "TH",
      "stateCode": "48",
      "latitude": "17.05080000",
      "longitude": "104.65664000"
   },
   {
      "name": "Amphoe Si Songkhram",
      "countryCode": "TH",
      "stateCode": "48",
      "latitude": "17.62989000",
      "longitude": "104.24495000"
   },
   {
      "name": "Amphoe Tha Uthen",
      "countryCode": "TH",
      "stateCode": "48",
      "latitude": "17.59263000",
      "longitude": "104.49884000"
   },
   {
      "name": "Amphoe That Phanom",
      "countryCode": "TH",
      "stateCode": "48",
      "latitude": "16.96457000",
      "longitude": "104.70277000"
   },
   {
      "name": "Amphoe Wangyang",
      "countryCode": "TH",
      "stateCode": "48",
      "latitude": "17.07189000",
      "longitude": "104.45373000"
   },
   {
      "name": "Na Wa",
      "countryCode": "TH",
      "stateCode": "48",
      "latitude": "17.48970000",
      "longitude": "104.10056000"
   },
   {
      "name": "Nakhon Phanom",
      "countryCode": "TH",
      "stateCode": "48",
      "latitude": "17.41081000",
      "longitude": "104.77856000"
   },
   {
      "name": "That Phanom",
      "countryCode": "TH",
      "stateCode": "48",
      "latitude": "16.93636000",
      "longitude": "104.71039000"
   }
]