[
   {
      "name": "Bang Bon",
      "countryCode": "TH",
      "stateCode": "10",
      "latitude": "13.65920000",
      "longitude": "100.38801000"
   },
   {
      "name": "Bang Kapi",
      "countryCode": "TH",
      "stateCode": "10",
      "latitude": "13.77258000",
      "longitude": "100.63847000"
   },
   {
      "name": "Bang Khae",
      "countryCode": "TH",
      "stateCode": "10",
      "latitude": "13.71927000",
      "longitude": "100.39278000"
   },
   {
      "name": "Bang Khen",
      "countryCode": "TH",
      "stateCode": "10",
      "latitude": "13.86901000",
      "longitude": "100.62769000"
   },
   {
      "name": "Bang Kho laen",
      "countryCode": "TH",
      "stateCode": "10",
      "latitude": "13.70025000",
      "longitude": "100.50971000"
   },
   {
      "name": "Bang Khun thain",
      "countryCode": "TH",
      "stateCode": "10",
      "latitude": "13.59482000",
      "longitude": "100.42694000"
   },
   {
      "name": "Bang Na",
      "countryCode": "TH",
      "stateCode": "10",
      "latitude": "13.67252000",
      "longitude": "100.62089000"
   },
   {
      "name": "Bang Phlat",
      "countryCode": "TH",
      "stateCode": "10",
      "latitude": "13.78668000",
      "longitude": "100.49152000"
   },
   {
      "name": "Bang Rak",
      "countryCode": "TH",
      "stateCode": "10",
      "latitude": "13.73058000",
      "longitude": "100.52388000"
   },
   {
      "name": "Bang Sue",
      "countryCode": "TH",
      "stateCode": "10",
      "latitude": "13.81921000",
      "longitude": "100.52790000"
   },
   {
      "name": "Bangkok",
      "countryCode": "TH",
      "stateCode": "10",
      "latitude": "13.75398000",
      "longitude": "100.50144000"
   },
   {
      "name": "Bangkok Noi",
      "countryCode": "TH",
      "stateCode": "10",
      "latitude": "13.76551000",
      "longitude": "100.46988000"
   },
   {
      "name": "Bangkok Yai",
      "countryCode": "TH",
      "stateCode": "10",
      "latitude": "13.73748000",
      "longitude": "100.47428000"
   },
   {
      "name": "Bueng Kum",
      "countryCode": "TH",
      "stateCode": "10",
      "latitude": "13.81023000",
      "longitude": "100.65140000"
   },
   {
      "name": "Chatu Chak",
      "countryCode": "TH",
      "stateCode": "10",
      "latitude": "13.82888000",
      "longitude": "100.56374000"
   },
   {
      "name": "Chom Thong",
      "countryCode": "TH",
      "stateCode": "10",
      "latitude": "13.68910000",
      "longitude": "100.46175000"
   },
   {
      "name": "Din Daeng",
      "countryCode": "TH",
      "stateCode": "10",
      "latitude": "13.77728000",
      "longitude": "100.56235000"
   },
   {
      "name": "Don Mueang",
      "countryCode": "TH",
      "stateCode": "10",
      "latitude": "13.92601000",
      "longitude": "100.59365000"
   },
   {
      "name": "Dusit",
      "countryCode": "TH",
      "stateCode": "10",
      "latitude": "13.78235000",
      "longitude": "100.51677000"
   },
   {
      "name": "Huai Khwang",
      "countryCode": "TH",
      "stateCode": "10",
      "latitude": "13.77060000",
      "longitude": "100.58119000"
   },
   {
      "name": "Khan Na Yao",
      "countryCode": "TH",
      "stateCode": "10",
      "latitude": "13.82380000",
      "longitude": "100.67649000"
   },
   {
      "name": "Khlong Sam Wa",
      "countryCode": "TH",
      "stateCode": "10",
      "latitude": "13.87633000",
      "longitude": "100.73805000"
   },
   {
      "name": "Khlong San",
      "countryCode": "TH",
      "stateCode": "10",
      "latitude": "13.72602000",
      "longitude": "100.50071000"
   },
   {
      "name": "Khlong Toei",
      "countryCode": "TH",
      "stateCode": "10",
      "latitude": "13.71806000",
      "longitude": "100.57065000"
   },
   {
      "name": "Lak Si",
      "countryCode": "TH",
      "stateCode": "10",
      "latitude": "13.88210000",
      "longitude": "100.56889000"
   },
   {
      "name": "Lat Krabang",
      "countryCode": "TH",
      "stateCode": "10",
      "latitude": "13.74500000",
      "longitude": "100.79224000"
   },
   {
      "name": "Lat Phrao",
      "countryCode": "TH",
      "stateCode": "10",
      "latitude": "13.82779000",
      "longitude": "100.60672000"
   },
   {
      "name": "Min Buri",
      "countryCode": "TH",
      "stateCode": "10",
      "latitude": "13.81254000",
      "longitude": "100.75334000"
   },
   {
      "name": "Nong Chok",
      "countryCode": "TH",
      "stateCode": "10",
      "latitude": "13.85280000",
      "longitude": "100.85788000"
   },
   {
      "name": "Nong Khaem",
      "countryCode": "TH",
      "stateCode": "10",
      "latitude": "13.69979000",
      "longitude": "100.35364000"
   },
   {
      "name": "Parthum Wan",
      "countryCode": "TH",
      "stateCode": "10",
      "latitude": "13.74265000",
      "longitude": "100.53398000"
   },
   {
      "name": "Phasi Charoen",
      "countryCode": "TH",
      "stateCode": "10",
      "latitude": "13.72597000",
      "longitude": "100.44103000"
   },
   {
      "name": "Phaya Thai",
      "countryCode": "TH",
      "stateCode": "10",
      "latitude": "13.78442000",
      "longitude": "100.54306000"
   },
   {
      "name": "Phra Khanong",
      "countryCode": "TH",
      "stateCode": "10",
      "latitude": "13.69705000",
      "longitude": "100.61234000"
   },
   {
      "name": "Phra Nakhon",
      "countryCode": "TH",
      "stateCode": "10",
      "latitude": "13.75831000",
      "longitude": "100.49613000"
   },
   {
      "name": "Pom Prap Sattru Phai",
      "countryCode": "TH",
      "stateCode": "10",
      "latitude": "13.75480000",
      "longitude": "100.50995000"
   },
   {
      "name": "Pra Wet",
      "countryCode": "TH",
      "stateCode": "10",
      "latitude": "13.71735000",
      "longitude": "100.69452000"
   },
   {
      "name": "Rat Burana",
      "countryCode": "TH",
      "stateCode": "10",
      "latitude": "13.67633000",
      "longitude": "100.49881000"
   },
   {
      "name": "Ratchathewi",
      "countryCode": "TH",
      "stateCode": "10",
      "latitude": "13.76029000",
      "longitude": "100.53724000"
   },
   {
      "name": "Sai Mai",
      "countryCode": "TH",
      "stateCode": "10",
      "latitude": "13.90727000",
      "longitude": "100.65181000"
   },
   {
      "name": "Samphanthawong",
      "countryCode": "TH",
      "stateCode": "10",
      "latitude": "13.74233000",
      "longitude": "100.50765000"
   },
   {
      "name": "Saphan Sung",
      "countryCode": "TH",
      "stateCode": "10",
      "latitude": "13.76531000",
      "longitude": "100.69001000"
   },
   {
      "name": "Sathon",
      "countryCode": "TH",
      "stateCode": "10",
      "latitude": "13.71745000",
      "longitude": "100.52999000"
   },
   {
      "name": "Suanluang",
      "countryCode": "TH",
      "stateCode": "10",
      "latitude": "13.72989000",
      "longitude": "100.62677000"
   },
   {
      "name": "Taling Chan",
      "countryCode": "TH",
      "stateCode": "10",
      "latitude": "13.77271000",
      "longitude": "100.43289000"
   },
   {
      "name": "Thawi Watthana",
      "countryCode": "TH",
      "stateCode": "10",
      "latitude": "13.77637000",
      "longitude": "100.36620000"
   },
   {
      "name": "Thon buri",
      "countryCode": "TH",
      "stateCode": "10",
      "latitude": "13.71874000",
      "longitude": "100.48367000"
   },
   {
      "name": "Thung khru",
      "countryCode": "TH",
      "stateCode": "10",
      "latitude": "13.63387000",
      "longitude": "100.49641000"
   },
   {
      "name": "Vadhana",
      "countryCode": "TH",
      "stateCode": "10",
      "latitude": "13.73501000",
      "longitude": "100.58280000"
   },
   {
      "name": "Wang Thong Lang",
      "countryCode": "TH",
      "stateCode": "10",
      "latitude": "13.78188000",
      "longitude": "100.60804000"
   },
   {
      "name": "Yan na wa",
      "countryCode": "TH",
      "stateCode": "10",
      "latitude": "13.69177000",
      "longitude": "100.53950000"
   }
]