[
   {
      "name": "Agbabu",
      "countryCode": "NG",
      "stateCode": "ON",
      "latitude": "6.58862000",
      "longitude": "4.83430000"
   },
   {
      "name": "Akure",
      "countryCode": "NG",
      "stateCode": "ON",
      "latitude": "7.25256000",
      "longitude": "5.19312000"
   },
   {
      "name": "Idanre",
      "countryCode": "NG",
      "stateCode": "ON",
      "latitude": "7.11270000",
      "longitude": "5.11590000"
   },
   {
      "name": "Ifon",
      "countryCode": "NG",
      "stateCode": "ON",
      "latitude": "6.92973000",
      "longitude": "5.77368000"
   },
   {
      "name": "Ilare",
      "countryCode": "NG",
      "stateCode": "ON",
      "latitude": "7.35067000",
      "longitude": "5.11333000"
   },
   {
      "name": "Ode",
      "countryCode": "NG",
      "stateCode": "ON",
      "latitude": "7.78990000",
      "longitude": "5.71170000"
   },
   {
      "name": "Ondo",
      "countryCode": "NG",
      "stateCode": "ON",
      "latitude": "7.09316000",
      "longitude": "4.83528000"
   },
   {
      "name": "Ore",
      "countryCode": "NG",
      "stateCode": "ON",
      "latitude": "6.74716000",
      "longitude": "4.87610000"
   },
   {
      "name": "Owo",
      "countryCode": "NG",
      "stateCode": "ON",
      "latitude": "7.19620000",
      "longitude": "5.58681000"
   }
]