[
   {
      "name": "Lelu Municipality",
      "countryCode": "FM",
      "stateCode": "KSA",
      "latitude": "5.34865000",
      "longitude": "163.01917000"
   },
   {
      "name": "Malem Municipality",
      "countryCode": "FM",
      "stateCode": "KSA",
      "latitude": "5.27507000",
      "longitude": "163.01685000"
   },
   {
      "name": "Tafunsak Municipality",
      "countryCode": "FM",
      "stateCode": "KSA",
      "latitude": "5.34993000",
      "longitude": "162.96965000"
   },
   {
      "name": "Tofol",
      "countryCode": "FM",
      "stateCode": "KSA",
      "latitude": "5.32479000",
      "longitude": "163.00781000"
   },
   {
      "name": "Utwe Municipality",
      "countryCode": "FM",
      "stateCode": "KSA",
      "latitude": "5.27511000",
      "longitude": "162.95617000"
   }
]