[
   {
      "name": "Asipovichy",
      "countryCode": "BY",
      "stateCode": "MA",
      "latitude": "53.30110000",
      "longitude": "28.63860000"
   },
   {
      "name": "Asipovitski Rayon",
      "countryCode": "BY",
      "stateCode": "MA",
      "latitude": "53.33333000",
      "longitude": "28.75000000"
   },
   {
      "name": "Babruysk",
      "countryCode": "BY",
      "stateCode": "MA",
      "latitude": "53.13840000",
      "longitude": "29.22140000"
   },
   {
      "name": "Babruyski Rayon",
      "countryCode": "BY",
      "stateCode": "MA",
      "latitude": "53.08333000",
      "longitude": "29.16667000"
   },
   {
      "name": "Buynichy",
      "countryCode": "BY",
      "stateCode": "MA",
      "latitude": "53.85360000",
      "longitude": "30.26710000"
   },
   {
      "name": "Byalynichy",
      "countryCode": "BY",
      "stateCode": "MA",
      "latitude": "53.99940000",
      "longitude": "29.71410000"
   },
   {
      "name": "Byalynitski Rayon",
      "countryCode": "BY",
      "stateCode": "MA",
      "latitude": "54.00000000",
      "longitude": "29.75000000"
   },
   {
      "name": "Bykhaw",
      "countryCode": "BY",
      "stateCode": "MA",
      "latitude": "53.52100000",
      "longitude": "30.24540000"
   },
   {
      "name": "Chavuski Rayon",
      "countryCode": "BY",
      "stateCode": "MA",
      "latitude": "53.83333000",
      "longitude": "30.91667000"
   },
   {
      "name": "Chavusy",
      "countryCode": "BY",
      "stateCode": "MA",
      "latitude": "53.80980000",
      "longitude": "30.97170000"
   },
   {
      "name": "Cherykaw",
      "countryCode": "BY",
      "stateCode": "MA",
      "latitude": "53.56890000",
      "longitude": "31.38310000"
   },
   {
      "name": "Cherykawski Rayon",
      "countryCode": "BY",
      "stateCode": "MA",
      "latitude": "53.66667000",
      "longitude": "31.33333000"
   },
   {
      "name": "Dashkawka",
      "countryCode": "BY",
      "stateCode": "MA",
      "latitude": "53.73520000",
      "longitude": "30.26250000"
   },
   {
      "name": "Drybin",
      "countryCode": "BY",
      "stateCode": "MA",
      "latitude": "54.11920000",
      "longitude": "31.09390000"
   },
   {
      "name": "Drybinski Rayon",
      "countryCode": "BY",
      "stateCode": "MA",
      "latitude": "54.08333000",
      "longitude": "31.00000000"
   },
   {
      "name": "Hlusha",
      "countryCode": "BY",
      "stateCode": "MA",
      "latitude": "53.08680000",
      "longitude": "28.85670000"
   },
   {
      "name": "Hlusk",
      "countryCode": "BY",
      "stateCode": "MA",
      "latitude": "52.90300000",
      "longitude": "28.68450000"
   },
   {
      "name": "Horatski Rayon",
      "countryCode": "BY",
      "stateCode": "MA",
      "latitude": "54.33333000",
      "longitude": "31.00000000"
   },
   {
      "name": "Horki",
      "countryCode": "BY",
      "stateCode": "MA",
      "latitude": "54.28620000",
      "longitude": "30.98630000"
   },
   {
      "name": "Kadino",
      "countryCode": "BY",
      "stateCode": "MA",
      "latitude": "53.88389000",
      "longitude": "30.52028000"
   },
   {
      "name": "Kamyennyya Lavy",
      "countryCode": "BY",
      "stateCode": "MA",
      "latitude": "54.08980000",
      "longitude": "30.29620000"
   },
   {
      "name": "Kastsyukovichy",
      "countryCode": "BY",
      "stateCode": "MA",
      "latitude": "53.35250000",
      "longitude": "32.05140000"
   },
   {
      "name": "Khodasy",
      "countryCode": "BY",
      "stateCode": "MA",
      "latitude": "53.92660000",
      "longitude": "31.47790000"
   },
   {
      "name": "Khotsimsk",
      "countryCode": "BY",
      "stateCode": "MA",
      "latitude": "53.40860000",
      "longitude": "32.57800000"
   },
   {
      "name": "Khotsimski Rayon",
      "countryCode": "BY",
      "stateCode": "MA",
      "latitude": "53.41667000",
      "longitude": "32.50000000"
   },
   {
      "name": "Kirawsk",
      "countryCode": "BY",
      "stateCode": "MA",
      "latitude": "53.26930000",
      "longitude": "29.47520000"
   },
   {
      "name": "Klichaw",
      "countryCode": "BY",
      "stateCode": "MA",
      "latitude": "53.49230000",
      "longitude": "29.33560000"
   },
   {
      "name": "Klimavichy",
      "countryCode": "BY",
      "stateCode": "MA",
      "latitude": "53.60790000",
      "longitude": "31.95860000"
   },
   {
      "name": "Krasnapollye",
      "countryCode": "BY",
      "stateCode": "MA",
      "latitude": "53.33530000",
      "longitude": "31.39990000"
   },
   {
      "name": "Krasnapol’ski Rayon",
      "countryCode": "BY",
      "stateCode": "MA",
      "latitude": "53.33333000",
      "longitude": "31.41667000"
   },
   {
      "name": "Krasnyy Bereg",
      "countryCode": "BY",
      "stateCode": "MA",
      "latitude": "53.32910000",
      "longitude": "30.19290000"
   },
   {
      "name": "Kruhlaye",
      "countryCode": "BY",
      "stateCode": "MA",
      "latitude": "54.24970000",
      "longitude": "29.79680000"
   },
   {
      "name": "Krychaw",
      "countryCode": "BY",
      "stateCode": "MA",
      "latitude": "53.71250000",
      "longitude": "31.71700000"
   },
   {
      "name": "Mahilyow",
      "countryCode": "BY",
      "stateCode": "MA",
      "latitude": "53.91680000",
      "longitude": "30.34490000"
   },
   {
      "name": "Mahilyowski Rayon",
      "countryCode": "BY",
      "stateCode": "MA",
      "latitude": "53.83333000",
      "longitude": "30.25000000"
   },
   {
      "name": "Mstsislaw",
      "countryCode": "BY",
      "stateCode": "MA",
      "latitude": "54.01850000",
      "longitude": "31.72170000"
   },
   {
      "name": "Myazhysyatki",
      "countryCode": "BY",
      "stateCode": "MA",
      "latitude": "53.77760000",
      "longitude": "30.17650000"
   },
   {
      "name": "Myshkavichy",
      "countryCode": "BY",
      "stateCode": "MA",
      "latitude": "53.21720000",
      "longitude": "29.51200000"
   },
   {
      "name": "Palykavichy Pyershyya",
      "countryCode": "BY",
      "stateCode": "MA",
      "latitude": "53.98540000",
      "longitude": "30.36000000"
   },
   {
      "name": "Posëlok Voskhod",
      "countryCode": "BY",
      "stateCode": "MA",
      "latitude": "53.77660000",
      "longitude": "30.34970000"
   },
   {
      "name": "Ramanavichy",
      "countryCode": "BY",
      "stateCode": "MA",
      "latitude": "53.86530000",
      "longitude": "30.55970000"
   },
   {
      "name": "Shklow",
      "countryCode": "BY",
      "stateCode": "MA",
      "latitude": "54.21310000",
      "longitude": "30.28770000"
   },
   {
      "name": "Shklowski Rayon",
      "countryCode": "BY",
      "stateCode": "MA",
      "latitude": "54.16667000",
      "longitude": "30.33333000"
   },
   {
      "name": "Slawharad",
      "countryCode": "BY",
      "stateCode": "MA",
      "latitude": "53.44290000",
      "longitude": "31.00140000"
   },
   {
      "name": "Veyno",
      "countryCode": "BY",
      "stateCode": "MA",
      "latitude": "53.83333000",
      "longitude": "30.38333000"
   },
   {
      "name": "Vishow",
      "countryCode": "BY",
      "stateCode": "MA",
      "latitude": "53.98050000",
      "longitude": "29.99250000"
   },
   {
      "name": "Yalizava",
      "countryCode": "BY",
      "stateCode": "MA",
      "latitude": "53.39940000",
      "longitude": "29.00480000"
   }
]