[
   {
      "name": "Antequera",
      "countryCode": "PY",
      "stateCode": "2",
      "latitude": "-24.08526000",
      "longitude": "-57.20221000"
   },
   {
      "name": "Capiíbary",
      "countryCode": "PY",
      "stateCode": "2",
      "latitude": "-24.80000000",
      "longitude": "-56.03333000"
   },
   {
      "name": "Colonia Nueva Germania",
      "countryCode": "PY",
      "stateCode": "2",
      "latitude": "-23.91137000",
      "longitude": "-56.70091000"
   },
   {
      "name": "General Elizardo Aquino",
      "countryCode": "PY",
      "stateCode": "2",
      "latitude": "-24.44417000",
      "longitude": "-56.90061000"
   },
   {
      "name": "Guayaybi",
      "countryCode": "PY",
      "stateCode": "2",
      "latitude": "-24.53333000",
      "longitude": "-56.43333000"
   },
   {
      "name": "Itacurubí del Rosario",
      "countryCode": "PY",
      "stateCode": "2",
      "latitude": "-24.53541000",
      "longitude": "-56.82352000"
   },
   {
      "name": "Lima",
      "countryCode": "PY",
      "stateCode": "2",
      "latitude": "-23.88327000",
      "longitude": "-56.48217000"
   },
   {
      "name": "Puerto Rosario",
      "countryCode": "PY",
      "stateCode": "2",
      "latitude": "-24.44127000",
      "longitude": "-57.14272000"
   },
   {
      "name": "San Pedro de Ycuamandiyú",
      "countryCode": "PY",
      "stateCode": "2",
      "latitude": "-24.08534000",
      "longitude": "-57.08745000"
   },
   {
      "name": "Tacuatí",
      "countryCode": "PY",
      "stateCode": "2",
      "latitude": "-23.45000000",
      "longitude": "-56.58333000"
   },
   {
      "name": "Unión",
      "countryCode": "PY",
      "stateCode": "2",
      "latitude": "-24.80790000",
      "longitude": "-56.52148000"
   },
   {
      "name": "Yataity del Norte",
      "countryCode": "PY",
      "stateCode": "2",
      "latitude": "-24.83333000",
      "longitude": "-56.35000000"
   }
]