[
   {
      "name": "Abu Al Hasaniya",
      "countryCode": "KW",
      "stateCode": "MU",
      "latitude": "29.19076000",
      "longitude": "48.11355000"
   },
   {
      "name": "Abu Fatira",
      "countryCode": "KW",
      "stateCode": "MU",
      "latitude": "29.19746000",
      "longitude": "48.10278000"
   },
   {
      "name": "Al Funayţīs",
      "countryCode": "KW",
      "stateCode": "MU",
      "latitude": "29.22528000",
      "longitude": "48.10167000"
   },
   {
      "name": "Al-Masayel",
      "countryCode": "KW",
      "stateCode": "MU",
      "latitude": "29.23930000",
      "longitude": "48.08862000"
   },
   {
      "name": "Şabāḩ as Sālim",
      "countryCode": "KW",
      "stateCode": "MU",
      "latitude": "29.25722000",
      "longitude": "48.05722000"
   }
]