[
   {
      "name": "Abhar",
      "countryCode": "IR",
      "stateCode": "19",
      "latitude": "36.14680000",
      "longitude": "49.21800000"
   },
   {
      "name": "Alvand",
      "countryCode": "IR",
      "stateCode": "19",
      "latitude": "36.31885000",
      "longitude": "49.16773000"
   },
   {
      "name": "Khorramdarreh",
      "countryCode": "IR",
      "stateCode": "19",
      "latitude": "36.23333000",
      "longitude": "49.20000000"
   },
   {
      "name": "Shahrestān-e Khodābandeh",
      "countryCode": "IR",
      "stateCode": "19",
      "latitude": "36.00000000",
      "longitude": "48.50000000"
   },
   {
      "name": "Shahrestān-e Māhneshān",
      "countryCode": "IR",
      "stateCode": "19",
      "latitude": "36.66667000",
      "longitude": "47.56667000"
   },
   {
      "name": "Shahrestān-e Zanjān",
      "countryCode": "IR",
      "stateCode": "19",
      "latitude": "36.58333000",
      "longitude": "48.25000000"
   },
   {
      "name": "Shahrestān-e Ījrūd",
      "countryCode": "IR",
      "stateCode": "19",
      "latitude": "36.33333000",
      "longitude": "48.25000000"
   },
   {
      "name": "Shahrestān-e Ţārom",
      "countryCode": "IR",
      "stateCode": "19",
      "latitude": "36.95000000",
      "longitude": "48.90000000"
   },
   {
      "name": "Soltaniyeh",
      "countryCode": "IR",
      "stateCode": "19",
      "latitude": "36.43235000",
      "longitude": "48.79393000"
   },
   {
      "name": "Zanjān",
      "countryCode": "IR",
      "stateCode": "19",
      "latitude": "36.67642000",
      "longitude": "48.49628000"
   }
]