[
   {
      "name": "Alandroal",
      "countryCode": "PT",
      "stateCode": "07",
      "latitude": "38.62924000",
      "longitude": "-7.36599000"
   },
   {
      "name": "Arraiolos",
      "countryCode": "PT",
      "stateCode": "07",
      "latitude": "38.76774000",
      "longitude": "-7.95831000"
   },
   {
      "name": "Borba",
      "countryCode": "PT",
      "stateCode": "07",
      "latitude": "38.80553000",
      "longitude": "-7.45465000"
   },
   {
      "name": "Estremoz",
      "countryCode": "PT",
      "stateCode": "07",
      "latitude": "38.84996000",
      "longitude": "-7.60117000"
   },
   {
      "name": "Montemor-o-Novo",
      "countryCode": "PT",
      "stateCode": "07",
      "latitude": "38.67103000",
      "longitude": "-8.29956000"
   },
   {
      "name": "Mora",
      "countryCode": "PT",
      "stateCode": "07",
      "latitude": "38.92174000",
      "longitude": "-8.09972000"
   },
   {
      "name": "Mourão",
      "countryCode": "PT",
      "stateCode": "07",
      "latitude": "38.29778000",
      "longitude": "-7.22230000"
   },
   {
      "name": "Portel",
      "countryCode": "PT",
      "stateCode": "07",
      "latitude": "38.29385000",
      "longitude": "-7.72762000"
   },
   {
      "name": "Redondo",
      "countryCode": "PT",
      "stateCode": "07",
      "latitude": "38.58010000",
      "longitude": "-7.59659000"
   },
   {
      "name": "Reguengos de Monsaraz",
      "countryCode": "PT",
      "stateCode": "07",
      "latitude": "38.42529000",
      "longitude": "-7.53494000"
   },
   {
      "name": "Vendas Novas",
      "countryCode": "PT",
      "stateCode": "07",
      "latitude": "38.63975000",
      "longitude": "-8.54702000"
   },
   {
      "name": "Viana do Alentejo",
      "countryCode": "PT",
      "stateCode": "07",
      "latitude": "38.33645000",
      "longitude": "-8.00011000"
   },
   {
      "name": "Vila Viçosa",
      "countryCode": "PT",
      "stateCode": "07",
      "latitude": "38.78790000",
      "longitude": "-7.41852000"
   },
   {
      "name": "Évora",
      "countryCode": "PT",
      "stateCode": "07",
      "latitude": "38.56667000",
      "longitude": "-7.90000000"
   }
]