[
   {
      "name": "Adjud",
      "countryCode": "RO",
      "stateCode": "VN",
      "latitude": "46.10000000",
      "longitude": "27.16667000"
   },
   {
      "name": "Adjudu Vechi",
      "countryCode": "RO",
      "stateCode": "VN",
      "latitude": "46.13485000",
      "longitude": "27.18891000"
   },
   {
      "name": "Andreiaşu de Jos",
      "countryCode": "RO",
      "stateCode": "VN",
      "latitude": "45.75000000",
      "longitude": "26.83333000"
   },
   {
      "name": "Anghelești",
      "countryCode": "RO",
      "stateCode": "VN",
      "latitude": "46.07875000",
      "longitude": "27.06459000"
   },
   {
      "name": "Biliești",
      "countryCode": "RO",
      "stateCode": "VN",
      "latitude": "45.72106000",
      "longitude": "27.34879000"
   },
   {
      "name": "Bogheşti",
      "countryCode": "RO",
      "stateCode": "VN",
      "latitude": "46.16667000",
      "longitude": "27.40000000"
   },
   {
      "name": "Bogza",
      "countryCode": "RO",
      "stateCode": "VN",
      "latitude": "45.50798000",
      "longitude": "27.19773000"
   },
   {
      "name": "Boloteşti",
      "countryCode": "RO",
      "stateCode": "VN",
      "latitude": "45.83333000",
      "longitude": "27.06667000"
   },
   {
      "name": "Bordeasca Veche",
      "countryCode": "RO",
      "stateCode": "VN",
      "latitude": "45.54447000",
      "longitude": "27.31730000"
   },
   {
      "name": "Bordeşti",
      "countryCode": "RO",
      "stateCode": "VN",
      "latitude": "45.55000000",
      "longitude": "27.05000000"
   },
   {
      "name": "Broşteni",
      "countryCode": "RO",
      "stateCode": "VN",
      "latitude": "45.75000000",
      "longitude": "27.03333000"
   },
   {
      "name": "Budești",
      "countryCode": "RO",
      "stateCode": "VN",
      "latitude": "45.62779000",
      "longitude": "27.05669000"
   },
   {
      "name": "Burca",
      "countryCode": "RO",
      "stateCode": "VN",
      "latitude": "45.91224000",
      "longitude": "26.94905000"
   },
   {
      "name": "Bârseşti",
      "countryCode": "RO",
      "stateCode": "VN",
      "latitude": "45.91667000",
      "longitude": "26.73333000"
   },
   {
      "name": "Băleşti",
      "countryCode": "RO",
      "stateCode": "VN",
      "latitude": "45.43333000",
      "longitude": "27.23333000"
   },
   {
      "name": "Ceardac",
      "countryCode": "RO",
      "stateCode": "VN",
      "latitude": "45.66967000",
      "longitude": "27.16611000"
   },
   {
      "name": "Chiojdeni",
      "countryCode": "RO",
      "stateCode": "VN",
      "latitude": "45.55000000",
      "longitude": "26.86667000"
   },
   {
      "name": "Ciorani",
      "countryCode": "RO",
      "stateCode": "VN",
      "latitude": "45.98824000",
      "longitude": "27.21614000"
   },
   {
      "name": "Ciorăşti",
      "countryCode": "RO",
      "stateCode": "VN",
      "latitude": "45.43333000",
      "longitude": "27.30000000"
   },
   {
      "name": "Ciușlea",
      "countryCode": "RO",
      "stateCode": "VN",
      "latitude": "45.78761000",
      "longitude": "27.30644000"
   },
   {
      "name": "Comuna Andreiaşu de Jos",
      "countryCode": "RO",
      "stateCode": "VN",
      "latitude": "45.73669000",
      "longitude": "26.82752000"
   },
   {
      "name": "Comuna Bilieşti",
      "countryCode": "RO",
      "stateCode": "VN",
      "latitude": "45.72106000",
      "longitude": "27.34879000"
   },
   {
      "name": "Comuna Bogheşti",
      "countryCode": "RO",
      "stateCode": "VN",
      "latitude": "46.16211000",
      "longitude": "27.41871000"
   },
   {
      "name": "Comuna Boloteşti",
      "countryCode": "RO",
      "stateCode": "VN",
      "latitude": "45.84099000",
      "longitude": "27.04117000"
   },
   {
      "name": "Comuna Bordeşti",
      "countryCode": "RO",
      "stateCode": "VN",
      "latitude": "45.54715000",
      "longitude": "27.04104000"
   },
   {
      "name": "Comuna Broşteni",
      "countryCode": "RO",
      "stateCode": "VN",
      "latitude": "45.76566000",
      "longitude": "27.01305000"
   },
   {
      "name": "Comuna Bârseşti",
      "countryCode": "RO",
      "stateCode": "VN",
      "latitude": "45.90724000",
      "longitude": "26.74716000"
   },
   {
      "name": "Comuna Băleşti",
      "countryCode": "RO",
      "stateCode": "VN",
      "latitude": "45.44034000",
      "longitude": "27.23703000"
   },
   {
      "name": "Comuna Chiojdeni",
      "countryCode": "RO",
      "stateCode": "VN",
      "latitude": "45.56113000",
      "longitude": "26.84389000"
   },
   {
      "name": "Comuna Ciorăşti",
      "countryCode": "RO",
      "stateCode": "VN",
      "latitude": "45.43869000",
      "longitude": "27.30952000"
   },
   {
      "name": "Comuna Corbiţa",
      "countryCode": "RO",
      "stateCode": "VN",
      "latitude": "46.16325000",
      "longitude": "27.30861000"
   },
   {
      "name": "Comuna Coteşti",
      "countryCode": "RO",
      "stateCode": "VN",
      "latitude": "45.63689000",
      "longitude": "27.07546000"
   },
   {
      "name": "Comuna Câmpineanca",
      "countryCode": "RO",
      "stateCode": "VN",
      "latitude": "45.70838000",
      "longitude": "27.13191000"
   },
   {
      "name": "Comuna Câmpuri",
      "countryCode": "RO",
      "stateCode": "VN",
      "latitude": "46.03618000",
      "longitude": "26.75425000"
   },
   {
      "name": "Comuna Cârligele",
      "countryCode": "RO",
      "stateCode": "VN",
      "latitude": "45.67723000",
      "longitude": "27.06031000"
   },
   {
      "name": "Comuna Dumitreşti",
      "countryCode": "RO",
      "stateCode": "VN",
      "latitude": "45.57715000",
      "longitude": "26.90728000"
   },
   {
      "name": "Comuna Fitioneşti",
      "countryCode": "RO",
      "stateCode": "VN",
      "latitude": "45.96655000",
      "longitude": "27.06953000"
   },
   {
      "name": "Comuna Garoafa",
      "countryCode": "RO",
      "stateCode": "VN",
      "latitude": "45.79812000",
      "longitude": "27.25010000"
   },
   {
      "name": "Comuna Goleşti",
      "countryCode": "RO",
      "stateCode": "VN",
      "latitude": "45.66603000",
      "longitude": "27.16708000"
   },
   {
      "name": "Comuna Gologanu",
      "countryCode": "RO",
      "stateCode": "VN",
      "latitude": "45.60979000",
      "longitude": "27.27091000"
   },
   {
      "name": "Comuna Gugeşti",
      "countryCode": "RO",
      "stateCode": "VN",
      "latitude": "45.57982000",
      "longitude": "27.14370000"
   },
   {
      "name": "Comuna Gura Caliţei",
      "countryCode": "RO",
      "stateCode": "VN",
      "latitude": "45.61357000",
      "longitude": "26.97284000"
   },
   {
      "name": "Comuna Homocea",
      "countryCode": "RO",
      "stateCode": "VN",
      "latitude": "46.15796000",
      "longitude": "27.23108000"
   },
   {
      "name": "Comuna Jariştea",
      "countryCode": "RO",
      "stateCode": "VN",
      "latitude": "45.79987000",
      "longitude": "27.04257000"
   },
   {
      "name": "Comuna Jitia",
      "countryCode": "RO",
      "stateCode": "VN",
      "latitude": "45.58480000",
      "longitude": "26.74876000"
   },
   {
      "name": "Comuna Mera",
      "countryCode": "RO",
      "stateCode": "VN",
      "latitude": "45.77327000",
      "longitude": "26.93423000"
   },
   {
      "name": "Comuna Milcovul",
      "countryCode": "RO",
      "stateCode": "VN",
      "latitude": "45.65207000",
      "longitude": "27.25928000"
   },
   {
      "name": "Comuna Moviliţa",
      "countryCode": "RO",
      "stateCode": "VN",
      "latitude": "45.95750000",
      "longitude": "27.10487000"
   },
   {
      "name": "Comuna Măicăneşti",
      "countryCode": "RO",
      "stateCode": "VN",
      "latitude": "45.50067000",
      "longitude": "27.46121000"
   },
   {
      "name": "Comuna Negrileşti",
      "countryCode": "RO",
      "stateCode": "VN",
      "latitude": "45.93697000",
      "longitude": "26.70635000"
   },
   {
      "name": "Comuna Nereju",
      "countryCode": "RO",
      "stateCode": "VN",
      "latitude": "45.70833000",
      "longitude": "26.69794000"
   },
   {
      "name": "Comuna Nistoreşti",
      "countryCode": "RO",
      "stateCode": "VN",
      "latitude": "45.81578000",
      "longitude": "26.67728000"
   },
   {
      "name": "Comuna Năneşti",
      "countryCode": "RO",
      "stateCode": "VN",
      "latitude": "45.57801000",
      "longitude": "27.49988000"
   },
   {
      "name": "Comuna Năruja",
      "countryCode": "RO",
      "stateCode": "VN",
      "latitude": "45.82308000",
      "longitude": "26.76617000"
   },
   {
      "name": "Comuna Obrejiţa",
      "countryCode": "RO",
      "stateCode": "VN",
      "latitude": "45.50102000",
      "longitude": "27.08974000"
   },
   {
      "name": "Comuna Paltin",
      "countryCode": "RO",
      "stateCode": "VN",
      "latitude": "45.77918000",
      "longitude": "26.74770000"
   },
   {
      "name": "Comuna Ploscuţeni",
      "countryCode": "RO",
      "stateCode": "VN",
      "latitude": "46.06103000",
      "longitude": "27.26595000"
   },
   {
      "name": "Comuna Poiana Cristei",
      "countryCode": "RO",
      "stateCode": "VN",
      "latitude": "45.66882000",
      "longitude": "26.97125000"
   },
   {
      "name": "Comuna Popeşti",
      "countryCode": "RO",
      "stateCode": "VN",
      "latitude": "45.58983000",
      "longitude": "27.06560000"
   },
   {
      "name": "Comuna Pufeşti",
      "countryCode": "RO",
      "stateCode": "VN",
      "latitude": "46.01111000",
      "longitude": "27.20901000"
   },
   {
      "name": "Comuna Păuleşti",
      "countryCode": "RO",
      "stateCode": "VN",
      "latitude": "45.88712000",
      "longitude": "26.68703000"
   },
   {
      "name": "Comuna Păuneşti",
      "countryCode": "RO",
      "stateCode": "VN",
      "latitude": "46.04066000",
      "longitude": "27.10336000"
   },
   {
      "name": "Comuna Reghiu",
      "countryCode": "RO",
      "stateCode": "VN",
      "latitude": "45.79672000",
      "longitude": "26.83648000"
   },
   {
      "name": "Comuna Rugineşti",
      "countryCode": "RO",
      "stateCode": "VN",
      "latitude": "46.07885000",
      "longitude": "27.11803000"
   },
   {
      "name": "Comuna Răcoasa",
      "countryCode": "RO",
      "stateCode": "VN",
      "latitude": "45.99786000",
      "longitude": "26.88548000"
   },
   {
      "name": "Comuna Răstoaca",
      "countryCode": "RO",
      "stateCode": "VN",
      "latitude": "45.66083000",
      "longitude": "27.28723000"
   },
   {
      "name": "Comuna Sihlea",
      "countryCode": "RO",
      "stateCode": "VN",
      "latitude": "45.49398000",
      "longitude": "27.15629000"
   },
   {
      "name": "Comuna Slobozia Bradului",
      "countryCode": "RO",
      "stateCode": "VN",
      "latitude": "45.49203000",
      "longitude": "27.03977000"
   },
   {
      "name": "Comuna Slobozia-Ciorăşti",
      "countryCode": "RO",
      "stateCode": "VN",
      "latitude": "45.60606000",
      "longitude": "27.21399000"
   },
   {
      "name": "Comuna Soveja",
      "countryCode": "RO",
      "stateCode": "VN",
      "latitude": "45.99705000",
      "longitude": "26.65351000"
   },
   {
      "name": "Comuna Spulber",
      "countryCode": "RO",
      "stateCode": "VN",
      "latitude": "45.74654000",
      "longitude": "26.73925000"
   },
   {
      "name": "Comuna Străoane",
      "countryCode": "RO",
      "stateCode": "VN",
      "latitude": "45.92895000",
      "longitude": "27.04359000"
   },
   {
      "name": "Comuna Suraia",
      "countryCode": "RO",
      "stateCode": "VN",
      "latitude": "45.68066000",
      "longitude": "27.38419000"
   },
   {
      "name": "Comuna Tulnici",
      "countryCode": "RO",
      "stateCode": "VN",
      "latitude": "45.93283000",
      "longitude": "26.60452000"
   },
   {
      "name": "Comuna Tâmboeşti",
      "countryCode": "RO",
      "stateCode": "VN",
      "latitude": "45.51792000",
      "longitude": "27.04555000"
   },
   {
      "name": "Comuna Tãtãranu",
      "countryCode": "RO",
      "stateCode": "VN",
      "latitude": "45.51621000",
      "longitude": "27.30930000"
   },
   {
      "name": "Comuna Tănăsoaia",
      "countryCode": "RO",
      "stateCode": "VN",
      "latitude": "46.10161000",
      "longitude": "27.37982000"
   },
   {
      "name": "Comuna Urecheşti",
      "countryCode": "RO",
      "stateCode": "VN",
      "latitude": "45.60181000",
      "longitude": "27.07141000"
   },
   {
      "name": "Comuna Valea Sării",
      "countryCode": "RO",
      "stateCode": "VN",
      "latitude": "45.87892000",
      "longitude": "26.80823000"
   },
   {
      "name": "Comuna Vidra",
      "countryCode": "RO",
      "stateCode": "VN",
      "latitude": "45.91420000",
      "longitude": "26.90506000"
   },
   {
      "name": "Comuna Vintileasca",
      "countryCode": "RO",
      "stateCode": "VN",
      "latitude": "45.62970000",
      "longitude": "26.72608000"
   },
   {
      "name": "Comuna Vizantea-Livezi",
      "countryCode": "RO",
      "stateCode": "VN",
      "latitude": "45.96233000",
      "longitude": "26.81347000"
   },
   {
      "name": "Comuna Vrâncioaia",
      "countryCode": "RO",
      "stateCode": "VN",
      "latitude": "45.87169000",
      "longitude": "26.70971000"
   },
   {
      "name": "Comuna Vulturu",
      "countryCode": "RO",
      "stateCode": "VN",
      "latitude": "45.60783000",
      "longitude": "27.42281000"
   },
   {
      "name": "Comuna Vânători",
      "countryCode": "RO",
      "stateCode": "VN",
      "latitude": "45.73875000",
      "longitude": "27.26951000"
   },
   {
      "name": "Comuna Vârteşcoiu",
      "countryCode": "RO",
      "stateCode": "VN",
      "latitude": "45.72465000",
      "longitude": "27.06471000"
   },
   {
      "name": "Comuna Ţifeşti",
      "countryCode": "RO",
      "stateCode": "VN",
      "latitude": "45.85329000",
      "longitude": "27.10387000"
   },
   {
      "name": "Comună Dumbrăveni",
      "countryCode": "RO",
      "stateCode": "VN",
      "latitude": "45.55416000",
      "longitude": "27.09037000"
   },
   {
      "name": "Corbiţa",
      "countryCode": "RO",
      "stateCode": "VN",
      "latitude": "46.15000000",
      "longitude": "27.30000000"
   },
   {
      "name": "Cornetu",
      "countryCode": "RO",
      "stateCode": "VN",
      "latitude": "45.50456000",
      "longitude": "27.05305000"
   },
   {
      "name": "Coteşti",
      "countryCode": "RO",
      "stateCode": "VN",
      "latitude": "45.65000000",
      "longitude": "27.05000000"
   },
   {
      "name": "Câmpineanca",
      "countryCode": "RO",
      "stateCode": "VN",
      "latitude": "45.71166000",
      "longitude": "27.12832000"
   },
   {
      "name": "Câmpuri",
      "countryCode": "RO",
      "stateCode": "VN",
      "latitude": "46.01535000",
      "longitude": "26.78802000"
   },
   {
      "name": "Câmpurile de Jos",
      "countryCode": "RO",
      "stateCode": "VN",
      "latitude": "46.01667000",
      "longitude": "26.78333000"
   },
   {
      "name": "Cârligele",
      "countryCode": "RO",
      "stateCode": "VN",
      "latitude": "45.68333000",
      "longitude": "27.10000000"
   },
   {
      "name": "Domnești-Târg",
      "countryCode": "RO",
      "stateCode": "VN",
      "latitude": "46.01667000",
      "longitude": "27.18333000"
   },
   {
      "name": "Dragosloveni",
      "countryCode": "RO",
      "stateCode": "VN",
      "latitude": "46.00000000",
      "longitude": "26.66667000"
   },
   {
      "name": "Dumbrăveni",
      "countryCode": "RO",
      "stateCode": "VN",
      "latitude": "45.53333000",
      "longitude": "27.11667000"
   },
   {
      "name": "Dumitrești",
      "countryCode": "RO",
      "stateCode": "VN",
      "latitude": "45.55243000",
      "longitude": "26.92727000"
   },
   {
      "name": "Fitioneşti",
      "countryCode": "RO",
      "stateCode": "VN",
      "latitude": "45.98333000",
      "longitude": "27.05000000"
   },
   {
      "name": "Focșani",
      "countryCode": "RO",
      "stateCode": "VN",
      "latitude": "45.70000000",
      "longitude": "27.18333000"
   },
   {
      "name": "Garoafa",
      "countryCode": "RO",
      "stateCode": "VN",
      "latitude": "45.78333000",
      "longitude": "27.20000000"
   },
   {
      "name": "Goleşti",
      "countryCode": "RO",
      "stateCode": "VN",
      "latitude": "45.66667000",
      "longitude": "27.13333000"
   },
   {
      "name": "Gologanu",
      "countryCode": "RO",
      "stateCode": "VN",
      "latitude": "45.60979000",
      "longitude": "27.27091000"
   },
   {
      "name": "Gugeşti",
      "countryCode": "RO",
      "stateCode": "VN",
      "latitude": "45.56667000",
      "longitude": "27.13333000"
   },
   {
      "name": "Gura Caliţei",
      "countryCode": "RO",
      "stateCode": "VN",
      "latitude": "45.58333000",
      "longitude": "27.01667000"
   },
   {
      "name": "Găgești",
      "countryCode": "RO",
      "stateCode": "VN",
      "latitude": "45.85598000",
      "longitude": "27.05540000"
   },
   {
      "name": "Homocea",
      "countryCode": "RO",
      "stateCode": "VN",
      "latitude": "46.13333000",
      "longitude": "27.23333000"
   },
   {
      "name": "Igești",
      "countryCode": "RO",
      "stateCode": "VN",
      "latitude": "45.82043000",
      "longitude": "27.18253000"
   },
   {
      "name": "Irești",
      "countryCode": "RO",
      "stateCode": "VN",
      "latitude": "45.92993000",
      "longitude": "26.94393000"
   },
   {
      "name": "Jariştea",
      "countryCode": "RO",
      "stateCode": "VN",
      "latitude": "45.78333000",
      "longitude": "27.06667000"
   },
   {
      "name": "Jitia",
      "countryCode": "RO",
      "stateCode": "VN",
      "latitude": "45.58333000",
      "longitude": "26.71667000"
   },
   {
      "name": "Jorăști",
      "countryCode": "RO",
      "stateCode": "VN",
      "latitude": "45.71477000",
      "longitude": "27.26335000"
   },
   {
      "name": "Lespezi",
      "countryCode": "RO",
      "stateCode": "VN",
      "latitude": "46.16027000",
      "longitude": "27.24065000"
   },
   {
      "name": "Mera",
      "countryCode": "RO",
      "stateCode": "VN",
      "latitude": "45.76667000",
      "longitude": "26.95000000"
   },
   {
      "name": "Mihălceni",
      "countryCode": "RO",
      "stateCode": "VN",
      "latitude": "45.44493000",
      "longitude": "27.30466000"
   },
   {
      "name": "Milcovul",
      "countryCode": "RO",
      "stateCode": "VN",
      "latitude": "45.65000000",
      "longitude": "27.25000000"
   },
   {
      "name": "Mirceștii Noi",
      "countryCode": "RO",
      "stateCode": "VN",
      "latitude": "45.75072000",
      "longitude": "27.27260000"
   },
   {
      "name": "Moviliţa",
      "countryCode": "RO",
      "stateCode": "VN",
      "latitude": "45.95000000",
      "longitude": "27.10000000"
   },
   {
      "name": "Municipiul  Adjud",
      "countryCode": "RO",
      "stateCode": "VN",
      "latitude": "46.11464000",
      "longitude": "27.19284000"
   },
   {
      "name": "Municipiul Focşani",
      "countryCode": "RO",
      "stateCode": "VN",
      "latitude": "45.69004000",
      "longitude": "27.22774000"
   },
   {
      "name": "Măicăneşti",
      "countryCode": "RO",
      "stateCode": "VN",
      "latitude": "45.50000000",
      "longitude": "27.50000000"
   },
   {
      "name": "Mărășești",
      "countryCode": "RO",
      "stateCode": "VN",
      "latitude": "45.88333000",
      "longitude": "27.23333000"
   },
   {
      "name": "Mătăcina",
      "countryCode": "RO",
      "stateCode": "VN",
      "latitude": "45.88333000",
      "longitude": "26.80000000"
   },
   {
      "name": "Negrilești",
      "countryCode": "RO",
      "stateCode": "VN",
      "latitude": "45.93697000",
      "longitude": "26.70635000"
   },
   {
      "name": "Nereju",
      "countryCode": "RO",
      "stateCode": "VN",
      "latitude": "45.71667000",
      "longitude": "26.71667000"
   },
   {
      "name": "Nereju Mic",
      "countryCode": "RO",
      "stateCode": "VN",
      "latitude": "45.70618000",
      "longitude": "26.69641000"
   },
   {
      "name": "Nistoreşti",
      "countryCode": "RO",
      "stateCode": "VN",
      "latitude": "45.83333000",
      "longitude": "26.73333000"
   },
   {
      "name": "Năneşti",
      "countryCode": "RO",
      "stateCode": "VN",
      "latitude": "45.55000000",
      "longitude": "27.50000000"
   },
   {
      "name": "Năruja",
      "countryCode": "RO",
      "stateCode": "VN",
      "latitude": "45.83333000",
      "longitude": "26.78333000"
   },
   {
      "name": "Obrejița",
      "countryCode": "RO",
      "stateCode": "VN",
      "latitude": "45.50102000",
      "longitude": "27.08974000"
   },
   {
      "name": "Odobeşti",
      "countryCode": "RO",
      "stateCode": "VN",
      "latitude": "45.76667000",
      "longitude": "27.05000000"
   },
   {
      "name": "Oleșești",
      "countryCode": "RO",
      "stateCode": "VN",
      "latitude": "45.84781000",
      "longitude": "27.10097000"
   },
   {
      "name": "Oraş Mãrãşeşti",
      "countryCode": "RO",
      "stateCode": "VN",
      "latitude": "45.90446000",
      "longitude": "27.22305000"
   },
   {
      "name": "Oraş Odobeşti",
      "countryCode": "RO",
      "stateCode": "VN",
      "latitude": "45.75011000",
      "longitude": "27.08754000"
   },
   {
      "name": "Oraş Panciu",
      "countryCode": "RO",
      "stateCode": "VN",
      "latitude": "45.90661000",
      "longitude": "27.09358000"
   },
   {
      "name": "Paltin",
      "countryCode": "RO",
      "stateCode": "VN",
      "latitude": "45.78333000",
      "longitude": "26.71667000"
   },
   {
      "name": "Panciu",
      "countryCode": "RO",
      "stateCode": "VN",
      "latitude": "45.90000000",
      "longitude": "27.08333000"
   },
   {
      "name": "Ploscuțeni",
      "countryCode": "RO",
      "stateCode": "VN",
      "latitude": "46.07859000",
      "longitude": "27.27032000"
   },
   {
      "name": "Poiana Cristei",
      "countryCode": "RO",
      "stateCode": "VN",
      "latitude": "45.65000000",
      "longitude": "26.98333000"
   },
   {
      "name": "Popești",
      "countryCode": "RO",
      "stateCode": "VN",
      "latitude": "45.59533000",
      "longitude": "27.07916000"
   },
   {
      "name": "Pufeşti",
      "countryCode": "RO",
      "stateCode": "VN",
      "latitude": "46.00000000",
      "longitude": "27.20000000"
   },
   {
      "name": "Păulești",
      "countryCode": "RO",
      "stateCode": "VN",
      "latitude": "45.89154000",
      "longitude": "26.68914000"
   },
   {
      "name": "Păuneşti",
      "countryCode": "RO",
      "stateCode": "VN",
      "latitude": "46.03333000",
      "longitude": "27.10000000"
   },
   {
      "name": "Reghiu",
      "countryCode": "RO",
      "stateCode": "VN",
      "latitude": "45.78333000",
      "longitude": "26.83333000"
   },
   {
      "name": "Rucăreni",
      "countryCode": "RO",
      "stateCode": "VN",
      "latitude": "45.99438000",
      "longitude": "26.65496000"
   },
   {
      "name": "Rugineşti",
      "countryCode": "RO",
      "stateCode": "VN",
      "latitude": "46.06667000",
      "longitude": "27.11667000"
   },
   {
      "name": "Râmniceni",
      "countryCode": "RO",
      "stateCode": "VN",
      "latitude": "45.51322000",
      "longitude": "27.44843000"
   },
   {
      "name": "Răcoasa",
      "countryCode": "RO",
      "stateCode": "VN",
      "latitude": "46.00000000",
      "longitude": "26.88333000"
   },
   {
      "name": "Răstoaca",
      "countryCode": "RO",
      "stateCode": "VN",
      "latitude": "45.66083000",
      "longitude": "27.28723000"
   },
   {
      "name": "Sihlea",
      "countryCode": "RO",
      "stateCode": "VN",
      "latitude": "45.50000000",
      "longitude": "27.11667000"
   },
   {
      "name": "Slobozia Bradului",
      "countryCode": "RO",
      "stateCode": "VN",
      "latitude": "45.50000000",
      "longitude": "27.05000000"
   },
   {
      "name": "Slobozia-Ciorăşti",
      "countryCode": "RO",
      "stateCode": "VN",
      "latitude": "45.61667000",
      "longitude": "27.20000000"
   },
   {
      "name": "Slobozia-Câmpineanca",
      "countryCode": "RO",
      "stateCode": "VN",
      "latitude": "45.70000000",
      "longitude": "27.13333000"
   },
   {
      "name": "Spulber",
      "countryCode": "RO",
      "stateCode": "VN",
      "latitude": "45.75186000",
      "longitude": "26.76080000"
   },
   {
      "name": "Străoane",
      "countryCode": "RO",
      "stateCode": "VN",
      "latitude": "45.93333000",
      "longitude": "27.05000000"
   },
   {
      "name": "Suraia",
      "countryCode": "RO",
      "stateCode": "VN",
      "latitude": "45.68333000",
      "longitude": "27.40000000"
   },
   {
      "name": "Tulnici",
      "countryCode": "RO",
      "stateCode": "VN",
      "latitude": "45.91667000",
      "longitude": "26.66667000"
   },
   {
      "name": "Tâmboeşti",
      "countryCode": "RO",
      "stateCode": "VN",
      "latitude": "45.51667000",
      "longitude": "27.05000000"
   },
   {
      "name": "Tănăsoaia",
      "countryCode": "RO",
      "stateCode": "VN",
      "latitude": "46.10000000",
      "longitude": "27.36667000"
   },
   {
      "name": "Tătăranu",
      "countryCode": "RO",
      "stateCode": "VN",
      "latitude": "45.51667000",
      "longitude": "27.31667000"
   },
   {
      "name": "Unirea",
      "countryCode": "RO",
      "stateCode": "VN",
      "latitude": "45.74020000",
      "longitude": "27.10741000"
   },
   {
      "name": "Urecheşti",
      "countryCode": "RO",
      "stateCode": "VN",
      "latitude": "45.60000000",
      "longitude": "27.06667000"
   },
   {
      "name": "Vadu Roșca",
      "countryCode": "RO",
      "stateCode": "VN",
      "latitude": "45.63864000",
      "longitude": "27.45716000"
   },
   {
      "name": "Valea Sării",
      "countryCode": "RO",
      "stateCode": "VN",
      "latitude": "45.87686000",
      "longitude": "26.79873000"
   },
   {
      "name": "Vidra",
      "countryCode": "RO",
      "stateCode": "VN",
      "latitude": "45.91667000",
      "longitude": "26.90000000"
   },
   {
      "name": "Viișoara",
      "countryCode": "RO",
      "stateCode": "VN",
      "latitude": "46.05160000",
      "longitude": "27.09593000"
   },
   {
      "name": "Vintileasca",
      "countryCode": "RO",
      "stateCode": "VN",
      "latitude": "45.60000000",
      "longitude": "26.73333000"
   },
   {
      "name": "Vizantea-Mânăstirească",
      "countryCode": "RO",
      "stateCode": "VN",
      "latitude": "45.98333000",
      "longitude": "26.78333000"
   },
   {
      "name": "Voetin",
      "countryCode": "RO",
      "stateCode": "VN",
      "latitude": "45.44370000",
      "longitude": "27.14587000"
   },
   {
      "name": "Vrâncioaia",
      "countryCode": "RO",
      "stateCode": "VN",
      "latitude": "45.85000000",
      "longitude": "26.73333000"
   },
   {
      "name": "Vulcăneasa",
      "countryCode": "RO",
      "stateCode": "VN",
      "latitude": "45.77388000",
      "longitude": "26.90981000"
   },
   {
      "name": "Vulturu",
      "countryCode": "RO",
      "stateCode": "VN",
      "latitude": "45.61667000",
      "longitude": "27.41667000"
   },
   {
      "name": "Vânători",
      "countryCode": "RO",
      "stateCode": "VN",
      "latitude": "45.73333000",
      "longitude": "27.25000000"
   },
   {
      "name": "Vârteşcoiu",
      "countryCode": "RO",
      "stateCode": "VN",
      "latitude": "45.73333000",
      "longitude": "27.08333000"
   },
   {
      "name": "Ţifeşti",
      "countryCode": "RO",
      "stateCode": "VN",
      "latitude": "45.85000000",
      "longitude": "27.10000000"
   },
   {
      "name": "Șindrilari",
      "countryCode": "RO",
      "stateCode": "VN",
      "latitude": "45.79083000",
      "longitude": "26.87947000"
   }
]