[
   {
      "name": "Banket",
      "countryCode": "ZW",
      "stateCode": "MW",
      "latitude": "-17.38333000",
      "longitude": "30.40000000"
   },
   {
      "name": "Chakari",
      "countryCode": "ZW",
      "stateCode": "MW",
      "latitude": "-18.06294000",
      "longitude": "29.89246000"
   },
   {
      "name": "Chegutu",
      "countryCode": "ZW",
      "stateCode": "MW",
      "latitude": "-18.13021000",
      "longitude": "30.14074000"
   },
   {
      "name": "Chegutu District",
      "countryCode": "ZW",
      "stateCode": "MW",
      "latitude": "-18.13097000",
      "longitude": "30.40046000"
   },
   {
      "name": "Chinhoyi",
      "countryCode": "ZW",
      "stateCode": "MW",
      "latitude": "-17.36667000",
      "longitude": "30.20000000"
   },
   {
      "name": "Chirundu",
      "countryCode": "ZW",
      "stateCode": "MW",
      "latitude": "-16.03333000",
      "longitude": "28.85000000"
   },
   {
      "name": "Hurungwe District",
      "countryCode": "ZW",
      "stateCode": "MW",
      "latitude": "-16.41301000",
      "longitude": "29.58580000"
   },
   {
      "name": "Kadoma",
      "countryCode": "ZW",
      "stateCode": "MW",
      "latitude": "-18.33328000",
      "longitude": "29.91534000"
   },
   {
      "name": "Kadoma District",
      "countryCode": "ZW",
      "stateCode": "MW",
      "latitude": "-18.34049000",
      "longitude": "29.82831000"
   },
   {
      "name": "Kariba",
      "countryCode": "ZW",
      "stateCode": "MW",
      "latitude": "-16.51667000",
      "longitude": "28.80000000"
   },
   {
      "name": "Kariba District",
      "countryCode": "ZW",
      "stateCode": "MW",
      "latitude": "-16.91011000",
      "longitude": "28.65983000"
   },
   {
      "name": "Karoi",
      "countryCode": "ZW",
      "stateCode": "MW",
      "latitude": "-16.80993000",
      "longitude": "29.69247000"
   },
   {
      "name": "Makonde District",
      "countryCode": "ZW",
      "stateCode": "MW",
      "latitude": "-17.16667000",
      "longitude": "30.08333000"
   },
   {
      "name": "Mhangura",
      "countryCode": "ZW",
      "stateCode": "MW",
      "latitude": "-16.89387000",
      "longitude": "30.16828000"
   },
   {
      "name": "Norton",
      "countryCode": "ZW",
      "stateCode": "MW",
      "latitude": "-17.88333000",
      "longitude": "30.70000000"
   },
   {
      "name": "Raffingora",
      "countryCode": "ZW",
      "stateCode": "MW",
      "latitude": "-17.03333000",
      "longitude": "30.43333000"
   }
]