[
   {
      "name": "Amara",
      "countryCode": "RO",
      "stateCode": "BZ",
      "latitude": "45.24866000",
      "longitude": "27.29244000"
   },
   {
      "name": "Amaru",
      "countryCode": "RO",
      "stateCode": "BZ",
      "latitude": "44.93333000",
      "longitude": "26.58333000"
   },
   {
      "name": "Babeţi",
      "countryCode": "RO",
      "stateCode": "BZ",
      "latitude": "45.31667000",
      "longitude": "26.38333000"
   },
   {
      "name": "Balta Albă",
      "countryCode": "RO",
      "stateCode": "BZ",
      "latitude": "45.30423000",
      "longitude": "27.28557000"
   },
   {
      "name": "Beceni",
      "countryCode": "RO",
      "stateCode": "BZ",
      "latitude": "45.38333000",
      "longitude": "26.78333000"
   },
   {
      "name": "Berca",
      "countryCode": "RO",
      "stateCode": "BZ",
      "latitude": "45.28333000",
      "longitude": "26.68333000"
   },
   {
      "name": "Bisoca",
      "countryCode": "RO",
      "stateCode": "BZ",
      "latitude": "45.53333000",
      "longitude": "26.70000000"
   },
   {
      "name": "Blăjani",
      "countryCode": "RO",
      "stateCode": "BZ",
      "latitude": "45.31667000",
      "longitude": "26.81667000"
   },
   {
      "name": "Boboc",
      "countryCode": "RO",
      "stateCode": "BZ",
      "latitude": "45.19570000",
      "longitude": "26.98136000"
   },
   {
      "name": "Boldu",
      "countryCode": "RO",
      "stateCode": "BZ",
      "latitude": "45.33333000",
      "longitude": "27.23333000"
   },
   {
      "name": "Bozioru",
      "countryCode": "RO",
      "stateCode": "BZ",
      "latitude": "45.38333000",
      "longitude": "26.48333000"
   },
   {
      "name": "Breaza",
      "countryCode": "RO",
      "stateCode": "BZ",
      "latitude": "45.10000000",
      "longitude": "26.53333000"
   },
   {
      "name": "Brădeanu",
      "countryCode": "RO",
      "stateCode": "BZ",
      "latitude": "44.93333000",
      "longitude": "26.85000000"
   },
   {
      "name": "Brăeşti",
      "countryCode": "RO",
      "stateCode": "BZ",
      "latitude": "45.43333000",
      "longitude": "26.50000000"
   },
   {
      "name": "Buda",
      "countryCode": "RO",
      "stateCode": "BZ",
      "latitude": "45.50000000",
      "longitude": "26.90000000"
   },
   {
      "name": "Burueneşti",
      "countryCode": "RO",
      "stateCode": "BZ",
      "latitude": "45.31667000",
      "longitude": "26.35000000"
   },
   {
      "name": "Buzău",
      "countryCode": "RO",
      "stateCode": "BZ",
      "latitude": "45.15000000",
      "longitude": "26.83333000"
   },
   {
      "name": "Bâsca Chiojdului",
      "countryCode": "RO",
      "stateCode": "BZ",
      "latitude": "45.37120000",
      "longitude": "26.18355000"
   },
   {
      "name": "Bâsca Rozilei",
      "countryCode": "RO",
      "stateCode": "BZ",
      "latitude": "45.45387000",
      "longitude": "26.33714000"
   },
   {
      "name": "Bâscenii de Jos",
      "countryCode": "RO",
      "stateCode": "BZ",
      "latitude": "45.24708000",
      "longitude": "26.32122000"
   },
   {
      "name": "Bâscenii de Sus",
      "countryCode": "RO",
      "stateCode": "BZ",
      "latitude": "45.26662000",
      "longitude": "26.27073000"
   },
   {
      "name": "Băbeni",
      "countryCode": "RO",
      "stateCode": "BZ",
      "latitude": "45.44635000",
      "longitude": "26.97875000"
   },
   {
      "name": "Bălăceanu",
      "countryCode": "RO",
      "stateCode": "BZ",
      "latitude": "45.26667000",
      "longitude": "27.15000000"
   },
   {
      "name": "C.a. Rosetti",
      "countryCode": "RO",
      "stateCode": "BZ",
      "latitude": "45.04622000",
      "longitude": "27.16640000"
   },
   {
      "name": "Calvini",
      "countryCode": "RO",
      "stateCode": "BZ",
      "latitude": "45.25000000",
      "longitude": "26.30000000"
   },
   {
      "name": "Cașoca",
      "countryCode": "RO",
      "stateCode": "BZ",
      "latitude": "45.48914000",
      "longitude": "26.26706000"
   },
   {
      "name": "Cernăteşti",
      "countryCode": "RO",
      "stateCode": "BZ",
      "latitude": "45.26667000",
      "longitude": "26.76667000"
   },
   {
      "name": "Chiliile",
      "countryCode": "RO",
      "stateCode": "BZ",
      "latitude": "45.45000000",
      "longitude": "26.58333000"
   },
   {
      "name": "Chiojdu",
      "countryCode": "RO",
      "stateCode": "BZ",
      "latitude": "45.35000000",
      "longitude": "26.20000000"
   },
   {
      "name": "Cilibia",
      "countryCode": "RO",
      "stateCode": "BZ",
      "latitude": "45.06667000",
      "longitude": "27.06667000"
   },
   {
      "name": "Cislău",
      "countryCode": "RO",
      "stateCode": "BZ",
      "latitude": "45.25000000",
      "longitude": "26.36667000"
   },
   {
      "name": "Cochirleanca",
      "countryCode": "RO",
      "stateCode": "BZ",
      "latitude": "45.21667000",
      "longitude": "27.03333000"
   },
   {
      "name": "Colţi",
      "countryCode": "RO",
      "stateCode": "BZ",
      "latitude": "45.38333000",
      "longitude": "26.38333000"
   },
   {
      "name": "Comuna Amaru",
      "countryCode": "RO",
      "stateCode": "BZ",
      "latitude": "44.93770000",
      "longitude": "26.59991000"
   },
   {
      "name": "Comuna Balta Albă",
      "countryCode": "RO",
      "stateCode": "BZ",
      "latitude": "45.26376000",
      "longitude": "27.30558000"
   },
   {
      "name": "Comuna Beceni",
      "countryCode": "RO",
      "stateCode": "BZ",
      "latitude": "45.38456000",
      "longitude": "26.76978000"
   },
   {
      "name": "Comuna Berca",
      "countryCode": "RO",
      "stateCode": "BZ",
      "latitude": "45.30098000",
      "longitude": "26.65989000"
   },
   {
      "name": "Comuna Bisoca",
      "countryCode": "RO",
      "stateCode": "BZ",
      "latitude": "45.54340000",
      "longitude": "26.70591000"
   },
   {
      "name": "Comuna Blăjani",
      "countryCode": "RO",
      "stateCode": "BZ",
      "latitude": "45.29964000",
      "longitude": "26.81716000"
   },
   {
      "name": "Comuna Boldu",
      "countryCode": "RO",
      "stateCode": "BZ",
      "latitude": "45.32267000",
      "longitude": "27.24313000"
   },
   {
      "name": "Comuna Bozioru",
      "countryCode": "RO",
      "stateCode": "BZ",
      "latitude": "45.38987000",
      "longitude": "26.46770000"
   },
   {
      "name": "Comuna Breaza",
      "countryCode": "RO",
      "stateCode": "BZ",
      "latitude": "45.09183000",
      "longitude": "26.53240000"
   },
   {
      "name": "Comuna Brădeanu",
      "countryCode": "RO",
      "stateCode": "BZ",
      "latitude": "44.89367000",
      "longitude": "26.86105000"
   },
   {
      "name": "Comuna Brăeşti",
      "countryCode": "RO",
      "stateCode": "BZ",
      "latitude": "45.44253000",
      "longitude": "26.49487000"
   },
   {
      "name": "Comuna Buda",
      "countryCode": "RO",
      "stateCode": "BZ",
      "latitude": "45.50907000",
      "longitude": "26.90434000"
   },
   {
      "name": "Comuna Bălăceanu",
      "countryCode": "RO",
      "stateCode": "BZ",
      "latitude": "45.24656000",
      "longitude": "27.13604000"
   },
   {
      "name": "Comuna C.A. Rosetti",
      "countryCode": "RO",
      "stateCode": "BZ",
      "latitude": "45.03678000",
      "longitude": "27.16722000"
   },
   {
      "name": "Comuna Calvini",
      "countryCode": "RO",
      "stateCode": "BZ",
      "latitude": "45.24906000",
      "longitude": "26.29982000"
   },
   {
      "name": "Comuna Cernăteşti",
      "countryCode": "RO",
      "stateCode": "BZ",
      "latitude": "45.29838000",
      "longitude": "26.76260000"
   },
   {
      "name": "Comuna Chiliile",
      "countryCode": "RO",
      "stateCode": "BZ",
      "latitude": "45.44784000",
      "longitude": "26.59441000"
   },
   {
      "name": "Comuna Chiojdu",
      "countryCode": "RO",
      "stateCode": "BZ",
      "latitude": "45.36671000",
      "longitude": "26.21840000"
   },
   {
      "name": "Comuna Cilibia",
      "countryCode": "RO",
      "stateCode": "BZ",
      "latitude": "45.05219000",
      "longitude": "27.04337000"
   },
   {
      "name": "Comuna Cislău",
      "countryCode": "RO",
      "stateCode": "BZ",
      "latitude": "45.22578000",
      "longitude": "26.37954000"
   },
   {
      "name": "Comuna Cochirleanca",
      "countryCode": "RO",
      "stateCode": "BZ",
      "latitude": "45.20146000",
      "longitude": "27.01126000"
   },
   {
      "name": "Comuna Colţi",
      "countryCode": "RO",
      "stateCode": "BZ",
      "latitude": "45.39105000",
      "longitude": "26.40723000"
   },
   {
      "name": "Comuna Costeşti",
      "countryCode": "RO",
      "stateCode": "BZ",
      "latitude": "45.06179000",
      "longitude": "26.77321000"
   },
   {
      "name": "Comuna Cozieni",
      "countryCode": "RO",
      "stateCode": "BZ",
      "latitude": "45.33240000",
      "longitude": "26.49410000"
   },
   {
      "name": "Comuna Căneşti",
      "countryCode": "RO",
      "stateCode": "BZ",
      "latitude": "45.39711000",
      "longitude": "26.60889000"
   },
   {
      "name": "Comuna Cătina",
      "countryCode": "RO",
      "stateCode": "BZ",
      "latitude": "45.28747000",
      "longitude": "26.24479000"
   },
   {
      "name": "Comuna Florica",
      "countryCode": "RO",
      "stateCode": "BZ",
      "latitude": "44.90802000",
      "longitude": "26.76627000"
   },
   {
      "name": "Comuna Ghergheasa",
      "countryCode": "RO",
      "stateCode": "BZ",
      "latitude": "45.28915000",
      "longitude": "27.19182000"
   },
   {
      "name": "Comuna Gherăseni",
      "countryCode": "RO",
      "stateCode": "BZ",
      "latitude": "45.02443000",
      "longitude": "26.80069000"
   },
   {
      "name": "Comuna Glodeanu-Siliştea",
      "countryCode": "RO",
      "stateCode": "BZ",
      "latitude": "44.83956000",
      "longitude": "26.76757000"
   },
   {
      "name": "Comuna Glodeanu-Sărat",
      "countryCode": "RO",
      "stateCode": "BZ",
      "latitude": "44.87601000",
      "longitude": "26.65897000"
   },
   {
      "name": "Comuna Greabănu",
      "countryCode": "RO",
      "stateCode": "BZ",
      "latitude": "45.38794000",
      "longitude": "26.96628000"
   },
   {
      "name": "Comuna Gura Teghii",
      "countryCode": "RO",
      "stateCode": "BZ",
      "latitude": "45.50703000",
      "longitude": "26.43441000"
   },
   {
      "name": "Comuna Gălbinaşi",
      "countryCode": "RO",
      "stateCode": "BZ",
      "latitude": "45.07439000",
      "longitude": "26.94363000"
   },
   {
      "name": "Comuna Largu",
      "countryCode": "RO",
      "stateCode": "BZ",
      "latitude": "44.97448000",
      "longitude": "27.16261000"
   },
   {
      "name": "Comuna Lopătari",
      "countryCode": "RO",
      "stateCode": "BZ",
      "latitude": "45.48774000",
      "longitude": "26.55233000"
   },
   {
      "name": "Comuna Luciu",
      "countryCode": "RO",
      "stateCode": "BZ",
      "latitude": "44.97510000",
      "longitude": "27.05781000"
   },
   {
      "name": "Comuna Merei",
      "countryCode": "RO",
      "stateCode": "BZ",
      "latitude": "45.13102000",
      "longitude": "26.66127000"
   },
   {
      "name": "Comuna Mihăileşti",
      "countryCode": "RO",
      "stateCode": "BZ",
      "latitude": "44.92518000",
      "longitude": "26.67330000"
   },
   {
      "name": "Comuna Movila Banului",
      "countryCode": "RO",
      "stateCode": "BZ",
      "latitude": "44.97607000",
      "longitude": "26.70299000"
   },
   {
      "name": "Comuna Murgeşti",
      "countryCode": "RO",
      "stateCode": "BZ",
      "latitude": "45.40612000",
      "longitude": "26.88883000"
   },
   {
      "name": "Comuna Mânzăleşti",
      "countryCode": "RO",
      "stateCode": "BZ",
      "latitude": "45.50414000",
      "longitude": "26.64561000"
   },
   {
      "name": "Comuna Măgura",
      "countryCode": "RO",
      "stateCode": "BZ",
      "latitude": "45.26962000",
      "longitude": "26.55104000"
   },
   {
      "name": "Comuna Mărgăriteşti",
      "countryCode": "RO",
      "stateCode": "BZ",
      "latitude": "45.43496000",
      "longitude": "26.83619000"
   },
   {
      "name": "Comuna Mărăcineni",
      "countryCode": "RO",
      "stateCode": "BZ",
      "latitude": "45.18902000",
      "longitude": "26.79393000"
   },
   {
      "name": "Comuna Năeni",
      "countryCode": "RO",
      "stateCode": "BZ",
      "latitude": "45.09968000",
      "longitude": "26.48944000"
   },
   {
      "name": "Comuna Odăile",
      "countryCode": "RO",
      "stateCode": "BZ",
      "latitude": "45.38458000",
      "longitude": "26.53966000"
   },
   {
      "name": "Comuna Padina",
      "countryCode": "RO",
      "stateCode": "BZ",
      "latitude": "44.87082000",
      "longitude": "27.11566000"
   },
   {
      "name": "Comuna Pardoşi",
      "countryCode": "RO",
      "stateCode": "BZ",
      "latitude": "45.44989000",
      "longitude": "26.87934000"
   },
   {
      "name": "Comuna Pietroasele",
      "countryCode": "RO",
      "stateCode": "BZ",
      "latitude": "45.10357000",
      "longitude": "26.59143000"
   },
   {
      "name": "Comuna Podgoria",
      "countryCode": "RO",
      "stateCode": "BZ",
      "latitude": "45.45591000",
      "longitude": "27.00626000"
   },
   {
      "name": "Comuna Poşta Câlnãu",
      "countryCode": "RO",
      "stateCode": "BZ",
      "latitude": "45.24683000",
      "longitude": "26.86785000"
   },
   {
      "name": "Comuna Puieşti",
      "countryCode": "RO",
      "stateCode": "BZ",
      "latitude": "45.39338000",
      "longitude": "27.20850000"
   },
   {
      "name": "Comuna Pârscov",
      "countryCode": "RO",
      "stateCode": "BZ",
      "latitude": "45.30760000",
      "longitude": "26.55283000"
   },
   {
      "name": "Comuna Pănătău",
      "countryCode": "RO",
      "stateCode": "BZ",
      "latitude": "45.30516000",
      "longitude": "26.39159000"
   },
   {
      "name": "Comuna Racoviţeni",
      "countryCode": "RO",
      "stateCode": "BZ",
      "latitude": "45.35025000",
      "longitude": "26.89919000"
   },
   {
      "name": "Comuna Robeasca",
      "countryCode": "RO",
      "stateCode": "BZ",
      "latitude": "45.14246000",
      "longitude": "27.14697000"
   },
   {
      "name": "Comuna Ruşeţu",
      "countryCode": "RO",
      "stateCode": "BZ",
      "latitude": "44.94214000",
      "longitude": "27.21863000"
   },
   {
      "name": "Comuna Râmnicelu",
      "countryCode": "RO",
      "stateCode": "BZ",
      "latitude": "45.37840000",
      "longitude": "27.13293000"
   },
   {
      "name": "Comuna Scorţoasa",
      "countryCode": "RO",
      "stateCode": "BZ",
      "latitude": "45.36204000",
      "longitude": "26.66176000"
   },
   {
      "name": "Comuna Scutelnici",
      "countryCode": "RO",
      "stateCode": "BZ",
      "latitude": "44.83964000",
      "longitude": "26.93747000"
   },
   {
      "name": "Comuna Siriu",
      "countryCode": "RO",
      "stateCode": "BZ",
      "latitude": "45.50872000",
      "longitude": "26.24470000"
   },
   {
      "name": "Comuna Smeeni",
      "countryCode": "RO",
      "stateCode": "BZ",
      "latitude": "44.98816000",
      "longitude": "26.91261000"
   },
   {
      "name": "Comuna Stâlpu",
      "countryCode": "RO",
      "stateCode": "BZ",
      "latitude": "45.08519000",
      "longitude": "26.70839000"
   },
   {
      "name": "Comuna Săgeata",
      "countryCode": "RO",
      "stateCode": "BZ",
      "latitude": "45.10063000",
      "longitude": "27.02496000"
   },
   {
      "name": "Comuna Săhăteni",
      "countryCode": "RO",
      "stateCode": "BZ",
      "latitude": "45.02238000",
      "longitude": "26.56344000"
   },
   {
      "name": "Comuna Săpoca",
      "countryCode": "RO",
      "stateCode": "BZ",
      "latitude": "45.22290000",
      "longitude": "26.75175000"
   },
   {
      "name": "Comuna Săruleşti",
      "countryCode": "RO",
      "stateCode": "BZ",
      "latitude": "45.48304000",
      "longitude": "26.77864000"
   },
   {
      "name": "Comuna Tisãu",
      "countryCode": "RO",
      "stateCode": "BZ",
      "latitude": "45.19337000",
      "longitude": "26.57321000"
   },
   {
      "name": "Comuna Topliceni",
      "countryCode": "RO",
      "stateCode": "BZ",
      "latitude": "45.44104000",
      "longitude": "26.98210000"
   },
   {
      "name": "Comuna Ulmeni",
      "countryCode": "RO",
      "stateCode": "BZ",
      "latitude": "45.06881000",
      "longitude": "26.62364000"
   },
   {
      "name": "Comuna Unguriu",
      "countryCode": "RO",
      "stateCode": "BZ",
      "latitude": "45.27963000",
      "longitude": "26.64103000"
   },
   {
      "name": "Comuna Vadu Paşii",
      "countryCode": "RO",
      "stateCode": "BZ",
      "latitude": "45.15743000",
      "longitude": "26.88249000"
   },
   {
      "name": "Comuna Valea Râmnicului",
      "countryCode": "RO",
      "stateCode": "BZ",
      "latitude": "45.36174000",
      "longitude": "27.04675000"
   },
   {
      "name": "Comuna Valea Sălciei",
      "countryCode": "RO",
      "stateCode": "BZ",
      "latitude": "45.48818000",
      "longitude": "26.82912000"
   },
   {
      "name": "Comuna Verneşti",
      "countryCode": "RO",
      "stateCode": "BZ",
      "latitude": "45.20804000",
      "longitude": "26.69650000"
   },
   {
      "name": "Comuna Vintilă Vodă",
      "countryCode": "RO",
      "stateCode": "BZ",
      "latitude": "45.45461000",
      "longitude": "26.72385000"
   },
   {
      "name": "Comuna Vipereşti",
      "countryCode": "RO",
      "stateCode": "BZ",
      "latitude": "45.24643000",
      "longitude": "26.44527000"
   },
   {
      "name": "Comuna Vâlcelele",
      "countryCode": "RO",
      "stateCode": "BZ",
      "latitude": "45.34430000",
      "longitude": "27.34937000"
   },
   {
      "name": "Comuna Ziduri",
      "countryCode": "RO",
      "stateCode": "BZ",
      "latitude": "45.28211000",
      "longitude": "27.05974000"
   },
   {
      "name": "Comuna Zărneşti",
      "countryCode": "RO",
      "stateCode": "BZ",
      "latitude": "45.30951000",
      "longitude": "26.88100000"
   },
   {
      "name": "Comuna Ţinteşti",
      "countryCode": "RO",
      "stateCode": "BZ",
      "latitude": "45.07280000",
      "longitude": "26.85786000"
   },
   {
      "name": "Corbu",
      "countryCode": "RO",
      "stateCode": "BZ",
      "latitude": "45.32108000",
      "longitude": "26.24936000"
   },
   {
      "name": "Costeşti",
      "countryCode": "RO",
      "stateCode": "BZ",
      "latitude": "45.05000000",
      "longitude": "26.76667000"
   },
   {
      "name": "Cozieni",
      "countryCode": "RO",
      "stateCode": "BZ",
      "latitude": "45.33333000",
      "longitude": "26.48333000"
   },
   {
      "name": "Coțatcu",
      "countryCode": "RO",
      "stateCode": "BZ",
      "latitude": "45.46643000",
      "longitude": "27.01486000"
   },
   {
      "name": "Căldărăști",
      "countryCode": "RO",
      "stateCode": "BZ",
      "latitude": "44.89375000",
      "longitude": "27.03400000"
   },
   {
      "name": "Căneşti",
      "countryCode": "RO",
      "stateCode": "BZ",
      "latitude": "45.40000000",
      "longitude": "26.60000000"
   },
   {
      "name": "Căpățânești",
      "countryCode": "RO",
      "stateCode": "BZ",
      "latitude": "45.18333000",
      "longitude": "26.80000000"
   },
   {
      "name": "Cătina",
      "countryCode": "RO",
      "stateCode": "BZ",
      "latitude": "45.30000000",
      "longitude": "26.25000000"
   },
   {
      "name": "Dedulești",
      "countryCode": "RO",
      "stateCode": "BZ",
      "latitude": "45.47003000",
      "longitude": "26.96737000"
   },
   {
      "name": "Dâmbroca",
      "countryCode": "RO",
      "stateCode": "BZ",
      "latitude": "45.12328000",
      "longitude": "26.95578000"
   },
   {
      "name": "Dăscălești",
      "countryCode": "RO",
      "stateCode": "BZ",
      "latitude": "45.40626000",
      "longitude": "27.25039000"
   },
   {
      "name": "Florica",
      "countryCode": "RO",
      "stateCode": "BZ",
      "latitude": "44.90802000",
      "longitude": "26.76627000"
   },
   {
      "name": "Fundeni",
      "countryCode": "RO",
      "stateCode": "BZ",
      "latitude": "45.29141000",
      "longitude": "26.88028000"
   },
   {
      "name": "Furtunești",
      "countryCode": "RO",
      "stateCode": "BZ",
      "latitude": "45.45940000",
      "longitude": "26.39760000"
   },
   {
      "name": "Ghergheasa",
      "countryCode": "RO",
      "stateCode": "BZ",
      "latitude": "45.26667000",
      "longitude": "27.20000000"
   },
   {
      "name": "Gherăseni",
      "countryCode": "RO",
      "stateCode": "BZ",
      "latitude": "45.02589000",
      "longitude": "26.79128000"
   },
   {
      "name": "Glodeanu-Siliştea",
      "countryCode": "RO",
      "stateCode": "BZ",
      "latitude": "44.83333000",
      "longitude": "26.80000000"
   },
   {
      "name": "Glodeanu-Sărat",
      "countryCode": "RO",
      "stateCode": "BZ",
      "latitude": "44.86667000",
      "longitude": "26.65000000"
   },
   {
      "name": "Grebănu",
      "countryCode": "RO",
      "stateCode": "BZ",
      "latitude": "45.38333000",
      "longitude": "26.96667000"
   },
   {
      "name": "Greceanca",
      "countryCode": "RO",
      "stateCode": "BZ",
      "latitude": "45.07863000",
      "longitude": "26.54468000"
   },
   {
      "name": "Grunji",
      "countryCode": "RO",
      "stateCode": "BZ",
      "latitude": "45.50000000",
      "longitude": "26.65000000"
   },
   {
      "name": "Grăjdana",
      "countryCode": "RO",
      "stateCode": "BZ",
      "latitude": "45.20865000",
      "longitude": "26.63114000"
   },
   {
      "name": "Gura Teghii",
      "countryCode": "RO",
      "stateCode": "BZ",
      "latitude": "45.48333000",
      "longitude": "26.41667000"
   },
   {
      "name": "Gălbinaşi",
      "countryCode": "RO",
      "stateCode": "BZ",
      "latitude": "45.08333000",
      "longitude": "26.91667000"
   },
   {
      "name": "Găvănești",
      "countryCode": "RO",
      "stateCode": "BZ",
      "latitude": "45.08825000",
      "longitude": "27.06499000"
   },
   {
      "name": "Izvoru",
      "countryCode": "RO",
      "stateCode": "BZ",
      "latitude": "45.19249000",
      "longitude": "26.59154000"
   },
   {
      "name": "Izvoru Dulce",
      "countryCode": "RO",
      "stateCode": "BZ",
      "latitude": "45.34178000",
      "longitude": "26.77730000"
   },
   {
      "name": "Largu",
      "countryCode": "RO",
      "stateCode": "BZ",
      "latitude": "44.96667000",
      "longitude": "27.15000000"
   },
   {
      "name": "Limpeziș",
      "countryCode": "RO",
      "stateCode": "BZ",
      "latitude": "44.95357000",
      "longitude": "26.70490000"
   },
   {
      "name": "Lipia",
      "countryCode": "RO",
      "stateCode": "BZ",
      "latitude": "45.13970000",
      "longitude": "26.73505000"
   },
   {
      "name": "Lopătari",
      "countryCode": "RO",
      "stateCode": "BZ",
      "latitude": "45.48333000",
      "longitude": "26.58333000"
   },
   {
      "name": "Luciu",
      "countryCode": "RO",
      "stateCode": "BZ",
      "latitude": "44.96667000",
      "longitude": "27.08333000"
   },
   {
      "name": "Lunca",
      "countryCode": "RO",
      "stateCode": "BZ",
      "latitude": "45.00494000",
      "longitude": "27.21335000"
   },
   {
      "name": "Lunca Jariștei",
      "countryCode": "RO",
      "stateCode": "BZ",
      "latitude": "45.48231000",
      "longitude": "26.25483000"
   },
   {
      "name": "Lunca Priporului",
      "countryCode": "RO",
      "stateCode": "BZ",
      "latitude": "45.43909000",
      "longitude": "26.30869000"
   },
   {
      "name": "Maxenu",
      "countryCode": "RO",
      "stateCode": "BZ",
      "latitude": "45.05162000",
      "longitude": "26.85498000"
   },
   {
      "name": "Merei",
      "countryCode": "RO",
      "stateCode": "BZ",
      "latitude": "45.13333000",
      "longitude": "26.68333000"
   },
   {
      "name": "Mihăileşti",
      "countryCode": "RO",
      "stateCode": "BZ",
      "latitude": "44.91667000",
      "longitude": "26.66667000"
   },
   {
      "name": "Movila Banului",
      "countryCode": "RO",
      "stateCode": "BZ",
      "latitude": "44.98333000",
      "longitude": "26.68333000"
   },
   {
      "name": "Municipiul Buzău",
      "countryCode": "RO",
      "stateCode": "BZ",
      "latitude": "45.15046000",
      "longitude": "26.82136000"
   },
   {
      "name": "Municipiul Râmnicu Sãrat",
      "countryCode": "RO",
      "stateCode": "BZ",
      "latitude": "45.38324000",
      "longitude": "27.05162000"
   },
   {
      "name": "Murgeşti",
      "countryCode": "RO",
      "stateCode": "BZ",
      "latitude": "45.40000000",
      "longitude": "26.88333000"
   },
   {
      "name": "Mânzăleşti",
      "countryCode": "RO",
      "stateCode": "BZ",
      "latitude": "45.50000000",
      "longitude": "26.65000000"
   },
   {
      "name": "Măgura",
      "countryCode": "RO",
      "stateCode": "BZ",
      "latitude": "45.26667000",
      "longitude": "26.58333000"
   },
   {
      "name": "Mărgăriteşti",
      "countryCode": "RO",
      "stateCode": "BZ",
      "latitude": "45.43333000",
      "longitude": "26.83333000"
   },
   {
      "name": "Mărunțișu",
      "countryCode": "RO",
      "stateCode": "BZ",
      "latitude": "45.28610000",
      "longitude": "26.35421000"
   },
   {
      "name": "Mărăcineni",
      "countryCode": "RO",
      "stateCode": "BZ",
      "latitude": "45.20000000",
      "longitude": "26.80000000"
   },
   {
      "name": "Mătești",
      "countryCode": "RO",
      "stateCode": "BZ",
      "latitude": "45.21339000",
      "longitude": "26.75607000"
   },
   {
      "name": "Nehoiu",
      "countryCode": "RO",
      "stateCode": "BZ",
      "latitude": "45.41667000",
      "longitude": "26.30000000"
   },
   {
      "name": "Năeni",
      "countryCode": "RO",
      "stateCode": "BZ",
      "latitude": "45.10000000",
      "longitude": "26.48333000"
   },
   {
      "name": "Odăile",
      "countryCode": "RO",
      "stateCode": "BZ",
      "latitude": "45.38333000",
      "longitude": "26.55000000"
   },
   {
      "name": "Oraş Nehoiu",
      "countryCode": "RO",
      "stateCode": "BZ",
      "latitude": "45.41538000",
      "longitude": "26.32089000"
   },
   {
      "name": "Oraş Pogoanele",
      "countryCode": "RO",
      "stateCode": "BZ",
      "latitude": "44.90555000",
      "longitude": "27.01183000"
   },
   {
      "name": "Oraş Pãtârlagele",
      "countryCode": "RO",
      "stateCode": "BZ",
      "latitude": "45.32035000",
      "longitude": "26.34539000"
   },
   {
      "name": "Oreavu",
      "countryCode": "RO",
      "stateCode": "BZ",
      "latitude": "45.36826000",
      "longitude": "27.02301000"
   },
   {
      "name": "Padina",
      "countryCode": "RO",
      "stateCode": "BZ",
      "latitude": "44.83333000",
      "longitude": "27.11667000"
   },
   {
      "name": "Pardoşi",
      "countryCode": "RO",
      "stateCode": "BZ",
      "latitude": "45.36667000",
      "longitude": "26.90000000"
   },
   {
      "name": "Pietroasele",
      "countryCode": "RO",
      "stateCode": "BZ",
      "latitude": "45.10000000",
      "longitude": "26.56667000"
   },
   {
      "name": "Pietrosu",
      "countryCode": "RO",
      "stateCode": "BZ",
      "latitude": "45.05928000",
      "longitude": "26.75827000"
   },
   {
      "name": "Plevna",
      "countryCode": "RO",
      "stateCode": "BZ",
      "latitude": "45.37815000",
      "longitude": "27.01310000"
   },
   {
      "name": "Podgoria",
      "countryCode": "RO",
      "stateCode": "BZ",
      "latitude": "45.41667000",
      "longitude": "27.01667000"
   },
   {
      "name": "Pogoanele",
      "countryCode": "RO",
      "stateCode": "BZ",
      "latitude": "44.91667000",
      "longitude": "27.00000000"
   },
   {
      "name": "Pogonele",
      "countryCode": "RO",
      "stateCode": "BZ",
      "latitude": "45.08645000",
      "longitude": "26.86454000"
   },
   {
      "name": "Potoceni",
      "countryCode": "RO",
      "stateCode": "BZ",
      "latitude": "45.19660000",
      "longitude": "26.77649000"
   },
   {
      "name": "Poşta Câlnău",
      "countryCode": "RO",
      "stateCode": "BZ",
      "latitude": "45.23333000",
      "longitude": "26.85000000"
   },
   {
      "name": "Puieștii de Jos",
      "countryCode": "RO",
      "stateCode": "BZ",
      "latitude": "45.40267000",
      "longitude": "27.22013000"
   },
   {
      "name": "Pârscov",
      "countryCode": "RO",
      "stateCode": "BZ",
      "latitude": "45.28333000",
      "longitude": "26.55000000"
   },
   {
      "name": "Păltineni",
      "countryCode": "RO",
      "stateCode": "BZ",
      "latitude": "45.39596000",
      "longitude": "26.32334000"
   },
   {
      "name": "Pănătău",
      "countryCode": "RO",
      "stateCode": "BZ",
      "latitude": "45.32113000",
      "longitude": "26.39442000"
   },
   {
      "name": "Pătârlagele",
      "countryCode": "RO",
      "stateCode": "BZ",
      "latitude": "45.32081000",
      "longitude": "26.36134000"
   },
   {
      "name": "Racoviţeni",
      "countryCode": "RO",
      "stateCode": "BZ",
      "latitude": "45.36667000",
      "longitude": "26.90000000"
   },
   {
      "name": "Robeasca",
      "countryCode": "RO",
      "stateCode": "BZ",
      "latitude": "45.16667000",
      "longitude": "27.13333000"
   },
   {
      "name": "Rubla",
      "countryCode": "RO",
      "stateCode": "BZ",
      "latitude": "45.35300000",
      "longitude": "27.07525000"
   },
   {
      "name": "Ruşeţu",
      "countryCode": "RO",
      "stateCode": "BZ",
      "latitude": "44.95000000",
      "longitude": "27.21667000"
   },
   {
      "name": "Râmnicelu",
      "countryCode": "RO",
      "stateCode": "BZ",
      "latitude": "45.36381000",
      "longitude": "27.11121000"
   },
   {
      "name": "Râmnicu Sărat",
      "countryCode": "RO",
      "stateCode": "BZ",
      "latitude": "45.38333000",
      "longitude": "27.05000000"
   },
   {
      "name": "Scorţoasa",
      "countryCode": "RO",
      "stateCode": "BZ",
      "latitude": "45.36403000",
      "longitude": "26.66116000"
   },
   {
      "name": "Scurtești",
      "countryCode": "RO",
      "stateCode": "BZ",
      "latitude": "45.13829000",
      "longitude": "26.90397000"
   },
   {
      "name": "Scutelnici",
      "countryCode": "RO",
      "stateCode": "BZ",
      "latitude": "44.85000000",
      "longitude": "26.91667000"
   },
   {
      "name": "Smeeni",
      "countryCode": "RO",
      "stateCode": "BZ",
      "latitude": "44.98333000",
      "longitude": "26.85000000"
   },
   {
      "name": "Stâlpu",
      "countryCode": "RO",
      "stateCode": "BZ",
      "latitude": "45.08333000",
      "longitude": "26.71667000"
   },
   {
      "name": "Stăncești",
      "countryCode": "RO",
      "stateCode": "BZ",
      "latitude": "45.12665000",
      "longitude": "26.92319000"
   },
   {
      "name": "Sudiți",
      "countryCode": "RO",
      "stateCode": "BZ",
      "latitude": "45.26890000",
      "longitude": "26.87183000"
   },
   {
      "name": "Săgeata",
      "countryCode": "RO",
      "stateCode": "BZ",
      "latitude": "45.10000000",
      "longitude": "26.98333000"
   },
   {
      "name": "Săhăteni",
      "countryCode": "RO",
      "stateCode": "BZ",
      "latitude": "45.03333000",
      "longitude": "26.51667000"
   },
   {
      "name": "Sălcioara",
      "countryCode": "RO",
      "stateCode": "BZ",
      "latitude": "45.30874000",
      "longitude": "27.17692000"
   },
   {
      "name": "Săpoca",
      "countryCode": "RO",
      "stateCode": "BZ",
      "latitude": "45.25000000",
      "longitude": "26.75000000"
   },
   {
      "name": "Săruleşti",
      "countryCode": "RO",
      "stateCode": "BZ",
      "latitude": "45.50000000",
      "longitude": "26.75000000"
   },
   {
      "name": "Topliceni",
      "countryCode": "RO",
      "stateCode": "BZ",
      "latitude": "45.41667000",
      "longitude": "27.00000000"
   },
   {
      "name": "Tăbărăști",
      "countryCode": "RO",
      "stateCode": "BZ",
      "latitude": "45.07948000",
      "longitude": "26.91943000"
   },
   {
      "name": "Ulmeni",
      "countryCode": "RO",
      "stateCode": "BZ",
      "latitude": "45.06667000",
      "longitude": "26.65000000"
   },
   {
      "name": "Unguriu",
      "countryCode": "RO",
      "stateCode": "BZ",
      "latitude": "45.27933000",
      "longitude": "26.63208000"
   },
   {
      "name": "Vadu Paşii",
      "countryCode": "RO",
      "stateCode": "BZ",
      "latitude": "45.16667000",
      "longitude": "26.90000000"
   },
   {
      "name": "Vadu Sorești",
      "countryCode": "RO",
      "stateCode": "BZ",
      "latitude": "45.31500000",
      "longitude": "26.87748000"
   },
   {
      "name": "Valea Părului",
      "countryCode": "RO",
      "stateCode": "BZ",
      "latitude": "45.36374000",
      "longitude": "26.77706000"
   },
   {
      "name": "Valea Râmnicului",
      "countryCode": "RO",
      "stateCode": "BZ",
      "latitude": "45.36395000",
      "longitude": "27.04197000"
   },
   {
      "name": "Valea Salciei",
      "countryCode": "RO",
      "stateCode": "BZ",
      "latitude": "45.49622000",
      "longitude": "26.82361000"
   },
   {
      "name": "Verneşti",
      "countryCode": "RO",
      "stateCode": "BZ",
      "latitude": "45.21667000",
      "longitude": "26.73333000"
   },
   {
      "name": "Vintileanca",
      "countryCode": "RO",
      "stateCode": "BZ",
      "latitude": "44.98500000",
      "longitude": "26.58005000"
   },
   {
      "name": "Vintilă Vodă",
      "countryCode": "RO",
      "stateCode": "BZ",
      "latitude": "45.46667000",
      "longitude": "26.71667000"
   },
   {
      "name": "Vipereşti",
      "countryCode": "RO",
      "stateCode": "BZ",
      "latitude": "45.23333000",
      "longitude": "26.46667000"
   },
   {
      "name": "Vâlcele",
      "countryCode": "RO",
      "stateCode": "BZ",
      "latitude": "45.08692000",
      "longitude": "26.63353000"
   },
   {
      "name": "Vâlcelele",
      "countryCode": "RO",
      "stateCode": "BZ",
      "latitude": "45.34430000",
      "longitude": "27.34937000"
   },
   {
      "name": "Ziduri",
      "countryCode": "RO",
      "stateCode": "BZ",
      "latitude": "45.30000000",
      "longitude": "27.08333000"
   },
   {
      "name": "Zorești",
      "countryCode": "RO",
      "stateCode": "BZ",
      "latitude": "45.18177000",
      "longitude": "26.70291000"
   },
   {
      "name": "Zărneşti",
      "countryCode": "RO",
      "stateCode": "BZ",
      "latitude": "45.30000000",
      "longitude": "26.86667000"
   },
   {
      "name": "Zărneștii de Slănic",
      "countryCode": "RO",
      "stateCode": "BZ",
      "latitude": "45.27708000",
      "longitude": "26.75549000"
   },
   {
      "name": "Ţinteşti",
      "countryCode": "RO",
      "stateCode": "BZ",
      "latitude": "45.06667000",
      "longitude": "26.86667000"
   }
]