[
   {
      "name": "Boca de Cupé",
      "countryCode": "PA",
      "stateCode": "5",
      "latitude": "8.03003000",
      "longitude": "-77.58978000"
   },
   {
      "name": "Camogantí",
      "countryCode": "PA",
      "stateCode": "5",
      "latitude": "8.04171000",
      "longitude": "-77.88682000"
   },
   {
      "name": "Cucunatí",
      "countryCode": "PA",
      "stateCode": "5",
      "latitude": "8.57508000",
      "longitude": "-78.25671000"
   },
   {
      "name": "Distrito de Chepigana",
      "countryCode": "PA",
      "stateCode": "5",
      "latitude": "7.84374000",
      "longitude": "-77.83830000"
   },
   {
      "name": "Distrito de Pinogana",
      "countryCode": "PA",
      "stateCode": "5",
      "latitude": "7.89343000",
      "longitude": "-77.52562000"
   },
   {
      "name": "Garachiné",
      "countryCode": "PA",
      "stateCode": "5",
      "latitude": "8.06684000",
      "longitude": "-78.36436000"
   },
   {
      "name": "Jaqué",
      "countryCode": "PA",
      "stateCode": "5",
      "latitude": "7.51826000",
      "longitude": "-78.16343000"
   },
   {
      "name": "La Palma",
      "countryCode": "PA",
      "stateCode": "5",
      "latitude": "8.40608000",
      "longitude": "-78.13964000"
   },
   {
      "name": "Metetí",
      "countryCode": "PA",
      "stateCode": "5",
      "latitude": "8.49909000",
      "longitude": "-77.97897000"
   },
   {
      "name": "Mortí",
      "countryCode": "PA",
      "stateCode": "5",
      "latitude": "8.84246000",
      "longitude": "-77.97539000"
   },
   {
      "name": "Púcuro",
      "countryCode": "PA",
      "stateCode": "5",
      "latitude": "7.97876000",
      "longitude": "-77.48758000"
   },
   {
      "name": "Santa Fé",
      "countryCode": "PA",
      "stateCode": "5",
      "latitude": "8.65525000",
      "longitude": "-78.16140000"
   },
   {
      "name": "Yaviza",
      "countryCode": "PA",
      "stateCode": "5",
      "latitude": "8.15835000",
      "longitude": "-77.69276000"
   }
]