[
   {
      "name": "Aizawl",
      "countryCode": "IN",
      "stateCode": "MZ",
      "latitude": "23.80000000",
      "longitude": "92.90000000"
   },
   {
      "name": "Champhai",
      "countryCode": "IN",
      "stateCode": "MZ",
      "latitude": "23.47444000",
      "longitude": "93.32556000"
   },
   {
      "name": "Darlawn",
      "countryCode": "IN",
      "stateCode": "MZ",
      "latitude": "24.01336000",
      "longitude": "92.92439000"
   },
   {
      "name": "Khawhai",
      "countryCode": "IN",
      "stateCode": "MZ",
      "latitude": "23.37807000",
      "longitude": "93.12797000"
   },
   {
      "name": "Kolasib",
      "countryCode": "IN",
      "stateCode": "MZ",
      "latitude": "24.22388000",
      "longitude": "92.67869000"
   },
   {
      "name": "Kolasib district",
      "countryCode": "IN",
      "stateCode": "MZ",
      "latitude": "24.22215000",
      "longitude": "92.67697000"
   },
   {
      "name": "Lawngtlai",
      "countryCode": "IN",
      "stateCode": "MZ",
      "latitude": "22.53000000",
      "longitude": "92.90000000"
   },
   {
      "name": "Lunglei",
      "countryCode": "IN",
      "stateCode": "MZ",
      "latitude": "22.90000000",
      "longitude": "92.75000000"
   },
   {
      "name": "Mamit",
      "countryCode": "IN",
      "stateCode": "MZ",
      "latitude": "23.78492000",
      "longitude": "92.46939000"
   },
   {
      "name": "North Vanlaiphai",
      "countryCode": "IN",
      "stateCode": "MZ",
      "latitude": "23.13227000",
      "longitude": "93.06532000"
   },
   {
      "name": "Saiha",
      "countryCode": "IN",
      "stateCode": "MZ",
      "latitude": "22.49183000",
      "longitude": "92.98143000"
   },
   {
      "name": "Sairang",
      "countryCode": "IN",
      "stateCode": "MZ",
      "latitude": "23.81034000",
      "longitude": "92.65226000"
   },
   {
      "name": "Saitlaw",
      "countryCode": "IN",
      "stateCode": "MZ",
      "latitude": "23.97187000",
      "longitude": "92.57454000"
   },
   {
      "name": "Serchhip",
      "countryCode": "IN",
      "stateCode": "MZ",
      "latitude": "23.28172000",
      "longitude": "92.90039000"
   },
   {
      "name": "Thenzawl",
      "countryCode": "IN",
      "stateCode": "MZ",
      "latitude": "23.31667000",
      "longitude": "92.75000000"
   }
]