[
   {
      "name": "Abou el Hassan",
      "countryCode": "DZ",
      "stateCode": "02",
      "latitude": "36.41657000",
      "longitude": "1.19616000"
   },
   {
      "name": "Boukadir",
      "countryCode": "DZ",
      "stateCode": "02",
      "latitude": "36.06629000",
      "longitude": "1.12602000"
   },
   {
      "name": "Chlef",
      "countryCode": "DZ",
      "stateCode": "02",
      "latitude": "36.16525000",
      "longitude": "1.33452000"
   },
   {
      "name": "Ech Chettia",
      "countryCode": "DZ",
      "stateCode": "02",
      "latitude": "36.19591000",
      "longitude": "1.25537000"
   },
   {
      "name": "Oued Fodda",
      "countryCode": "DZ",
      "stateCode": "02",
      "latitude": "36.18503000",
      "longitude": "1.53299000"
   },
   {
      "name": "Oued Sly",
      "countryCode": "DZ",
      "stateCode": "02",
      "latitude": "36.10124000",
      "longitude": "1.19949000"
   },
   {
      "name": "Sidi Akkacha",
      "countryCode": "DZ",
      "stateCode": "02",
      "latitude": "36.46472000",
      "longitude": "1.30258000"
   }
]