[
   {
      "name": "Amphoe Kaeng Hang Maeo",
      "countryCode": "TH",
      "stateCode": "22",
      "latitude": "13.09690000",
      "longitude": "101.88543000"
   },
   {
      "name": "Amphoe Khao Khitchakut",
      "countryCode": "TH",
      "stateCode": "22",
      "latitude": "12.93726000",
      "longitude": "102.09762000"
   },
   {
      "name": "Amphoe Khlung",
      "countryCode": "TH",
      "stateCode": "22",
      "latitude": "12.57246000",
      "longitude": "102.30783000"
   },
   {
      "name": "Amphoe Laem Sing",
      "countryCode": "TH",
      "stateCode": "22",
      "latitude": "12.45689000",
      "longitude": "102.14262000"
   },
   {
      "name": "Amphoe Makham",
      "countryCode": "TH",
      "stateCode": "22",
      "latitude": "12.73333000",
      "longitude": "102.21667000"
   },
   {
      "name": "Amphoe Mueang Chanthaburi",
      "countryCode": "TH",
      "stateCode": "22",
      "latitude": "12.59542000",
      "longitude": "102.12263000"
   },
   {
      "name": "Amphoe Na Yai Am",
      "countryCode": "TH",
      "stateCode": "22",
      "latitude": "12.73833000",
      "longitude": "101.87502000"
   },
   {
      "name": "Amphoe Pong Nam Ron",
      "countryCode": "TH",
      "stateCode": "22",
      "latitude": "12.93467000",
      "longitude": "102.37189000"
   },
   {
      "name": "Amphoe Soi Dao",
      "countryCode": "TH",
      "stateCode": "22",
      "latitude": "13.17034000",
      "longitude": "102.22796000"
   },
   {
      "name": "Amphoe Tha Mai",
      "countryCode": "TH",
      "stateCode": "22",
      "latitude": "12.73848000",
      "longitude": "101.97696000"
   },
   {
      "name": "Chanthaburi",
      "countryCode": "TH",
      "stateCode": "22",
      "latitude": "12.60961000",
      "longitude": "102.10447000"
   },
   {
      "name": "Khlung",
      "countryCode": "TH",
      "stateCode": "22",
      "latitude": "12.45467000",
      "longitude": "102.22142000"
   },
   {
      "name": "Laem Sing",
      "countryCode": "TH",
      "stateCode": "22",
      "latitude": "12.48164000",
      "longitude": "102.07375000"
   },
   {
      "name": "Pong Nam Ron",
      "countryCode": "TH",
      "stateCode": "22",
      "latitude": "12.90575000",
      "longitude": "102.26225000"
   },
   {
      "name": "Tha Mai",
      "countryCode": "TH",
      "stateCode": "22",
      "latitude": "12.62137000",
      "longitude": "102.00481000"
   }
]