[
   {
      "name": "Amphoe Lamae",
      "countryCode": "TH",
      "stateCode": "86",
      "latitude": "9.75567000",
      "longitude": "99.04378000"
   },
   {
      "name": "Amphoe Lang Suan",
      "countryCode": "TH",
      "stateCode": "86",
      "latitude": "9.93386000",
      "longitude": "99.05292000"
   },
   {
      "name": "Amphoe Mueang Chumphon",
      "countryCode": "TH",
      "stateCode": "86",
      "latitude": "10.46077000",
      "longitude": "99.10608000"
   },
   {
      "name": "Amphoe Pathio",
      "countryCode": "TH",
      "stateCode": "86",
      "latitude": "10.81008000",
      "longitude": "99.33938000"
   },
   {
      "name": "Amphoe Phato",
      "countryCode": "TH",
      "stateCode": "86",
      "latitude": "9.81066000",
      "longitude": "98.80178000"
   },
   {
      "name": "Amphoe Sawi",
      "countryCode": "TH",
      "stateCode": "86",
      "latitude": "10.24008000",
      "longitude": "99.01865000"
   },
   {
      "name": "Amphoe Tha Sae",
      "countryCode": "TH",
      "stateCode": "86",
      "latitude": "10.76864000",
      "longitude": "99.09878000"
   },
   {
      "name": "Amphoe Thung Tako",
      "countryCode": "TH",
      "stateCode": "86",
      "latitude": "10.09223000",
      "longitude": "99.05337000"
   },
   {
      "name": "Ban Nam Yuen",
      "countryCode": "TH",
      "stateCode": "86",
      "latitude": "9.87686000",
      "longitude": "98.86592000"
   },
   {
      "name": "Chumphon",
      "countryCode": "TH",
      "stateCode": "86",
      "latitude": "10.49570000",
      "longitude": "99.17971000"
   },
   {
      "name": "Lang Suan",
      "countryCode": "TH",
      "stateCode": "86",
      "latitude": "9.94561000",
      "longitude": "99.07847000"
   }
]