[
   {
      "name": "Arandis",
      "countryCode": "NA",
      "stateCode": "ER",
      "latitude": "-22.41667000",
      "longitude": "14.96667000"
   },
   {
      "name": "Hentiesbaai",
      "countryCode": "NA",
      "stateCode": "ER",
      "latitude": "-22.11667000",
      "longitude": "14.28333000"
   },
   {
      "name": "Karibib",
      "countryCode": "NA",
      "stateCode": "ER",
      "latitude": "-21.93333000",
      "longitude": "15.83333000"
   },
   {
      "name": "Omaruru",
      "countryCode": "NA",
      "stateCode": "ER",
      "latitude": "-21.43333000",
      "longitude": "15.93333000"
   },
   {
      "name": "Otjimbingwe",
      "countryCode": "NA",
      "stateCode": "ER",
      "latitude": "-22.35000000",
      "longitude": "16.13333000"
   },
   {
      "name": "Swakopmund",
      "countryCode": "NA",
      "stateCode": "ER",
      "latitude": "-22.67842000",
      "longitude": "14.52663000"
   },
   {
      "name": "Swakopmund Constituency",
      "countryCode": "NA",
      "stateCode": "ER",
      "latitude": "-22.63199000",
      "longitude": "14.60119000"
   },
   {
      "name": "Usakos",
      "countryCode": "NA",
      "stateCode": "ER",
      "latitude": "-22.00000000",
      "longitude": "15.60000000"
   },
   {
      "name": "Walvis Bay",
      "countryCode": "NA",
      "stateCode": "ER",
      "latitude": "-22.95750000",
      "longitude": "14.50528000"
   }
]