[
   {
      "name": "Huyện Chư Prông",
      "countryCode": "VN",
      "stateCode": "30",
      "latitude": "13.59976000",
      "longitude": "107.81099000"
   },
   {
      "name": "Huyện Chư Păh",
      "countryCode": "VN",
      "stateCode": "30",
      "latitude": "14.15941000",
      "longitude": "107.98411000"
   },
   {
      "name": "Huyện Chư Sê",
      "countryCode": "VN",
      "stateCode": "30",
      "latitude": "13.74254000",
      "longitude": "108.08663000"
   },
   {
      "name": "Huyện Ia Grai",
      "countryCode": "VN",
      "stateCode": "30",
      "latitude": "13.98937000",
      "longitude": "107.73740000"
   },
   {
      "name": "Huyện KBang",
      "countryCode": "VN",
      "stateCode": "30",
      "latitude": "14.30506000",
      "longitude": "108.49779000"
   },
   {
      "name": "Huyện Krông Pa",
      "countryCode": "VN",
      "stateCode": "30",
      "latitude": "13.23152000",
      "longitude": "108.65494000"
   },
   {
      "name": "Huyện Kông Chro",
      "countryCode": "VN",
      "stateCode": "30",
      "latitude": "13.73519000",
      "longitude": "108.59697000"
   },
   {
      "name": "Huyện Mang Yang",
      "countryCode": "VN",
      "stateCode": "30",
      "latitude": "13.92840000",
      "longitude": "108.30246000"
   },
   {
      "name": "Huyện Đức Cơ",
      "countryCode": "VN",
      "stateCode": "30",
      "latitude": "13.78454000",
      "longitude": "107.66970000"
   },
   {
      "name": "Pleiku",
      "countryCode": "VN",
      "stateCode": "30",
      "latitude": "13.98333000",
      "longitude": "108.00000000"
   }
]