[
   {
      "name": "Beremend",
      "countryCode": "HU",
      "stateCode": "BA",
      "latitude": "45.79108000",
      "longitude": "18.43263000"
   },
   {
      "name": "Bóly",
      "countryCode": "HU",
      "stateCode": "BA",
      "latitude": "45.96722000",
      "longitude": "18.51833000"
   },
   {
      "name": "Bólyi Járás",
      "countryCode": "HU",
      "stateCode": "BA",
      "latitude": "45.98075000",
      "longitude": "18.48449000"
   },
   {
      "name": "Bükkösd",
      "countryCode": "HU",
      "stateCode": "BA",
      "latitude": "46.10751000",
      "longitude": "17.98820000"
   },
   {
      "name": "Dunaszekcső",
      "countryCode": "HU",
      "stateCode": "BA",
      "latitude": "46.08740000",
      "longitude": "18.75870000"
   },
   {
      "name": "Harkány",
      "countryCode": "HU",
      "stateCode": "BA",
      "latitude": "45.85002000",
      "longitude": "18.23668000"
   },
   {
      "name": "Hegyháti Járás",
      "countryCode": "HU",
      "stateCode": "BA",
      "latitude": "46.27247000",
      "longitude": "18.13758000"
   },
   {
      "name": "Hidas",
      "countryCode": "HU",
      "stateCode": "BA",
      "latitude": "46.25680000",
      "longitude": "18.49540000"
   },
   {
      "name": "Hosszúhetény",
      "countryCode": "HU",
      "stateCode": "BA",
      "latitude": "46.16414000",
      "longitude": "18.35077000"
   },
   {
      "name": "Komló",
      "countryCode": "HU",
      "stateCode": "BA",
      "latitude": "46.19278000",
      "longitude": "18.26494000"
   },
   {
      "name": "Komlói Járás",
      "countryCode": "HU",
      "stateCode": "BA",
      "latitude": "46.22019000",
      "longitude": "18.28620000"
   },
   {
      "name": "Kozármisleny",
      "countryCode": "HU",
      "stateCode": "BA",
      "latitude": "46.02967000",
      "longitude": "18.29210000"
   },
   {
      "name": "Lánycsók",
      "countryCode": "HU",
      "stateCode": "BA",
      "latitude": "46.00543000",
      "longitude": "18.62526000"
   },
   {
      "name": "Mecseknádasd",
      "countryCode": "HU",
      "stateCode": "BA",
      "latitude": "46.22468000",
      "longitude": "18.47076000"
   },
   {
      "name": "Mohács",
      "countryCode": "HU",
      "stateCode": "BA",
      "latitude": "45.99020000",
      "longitude": "18.68621000"
   },
   {
      "name": "Mohácsi Járás",
      "countryCode": "HU",
      "stateCode": "BA",
      "latitude": "46.02004000",
      "longitude": "18.68000000"
   },
   {
      "name": "Mágocs",
      "countryCode": "HU",
      "stateCode": "BA",
      "latitude": "46.34998000",
      "longitude": "18.23240000"
   },
   {
      "name": "Pellérd",
      "countryCode": "HU",
      "stateCode": "BA",
      "latitude": "46.03438000",
      "longitude": "18.15403000"
   },
   {
      "name": "Pécs",
      "countryCode": "HU",
      "stateCode": "BA",
      "latitude": "46.08333000",
      "longitude": "18.23333000"
   },
   {
      "name": "Pécsi Járás",
      "countryCode": "HU",
      "stateCode": "BA",
      "latitude": "46.07990000",
      "longitude": "18.25253000"
   },
   {
      "name": "Pécsvárad",
      "countryCode": "HU",
      "stateCode": "BA",
      "latitude": "46.16033000",
      "longitude": "18.42321000"
   },
   {
      "name": "Pécsváradi Járás",
      "countryCode": "HU",
      "stateCode": "BA",
      "latitude": "46.16782000",
      "longitude": "18.45456000"
   },
   {
      "name": "Sellye",
      "countryCode": "HU",
      "stateCode": "BA",
      "latitude": "45.87247000",
      "longitude": "17.84711000"
   },
   {
      "name": "Sellyei Járás",
      "countryCode": "HU",
      "stateCode": "BA",
      "latitude": "45.86955000",
      "longitude": "17.89827000"
   },
   {
      "name": "Siklós",
      "countryCode": "HU",
      "stateCode": "BA",
      "latitude": "45.85499000",
      "longitude": "18.29752000"
   },
   {
      "name": "Siklósi Járás",
      "countryCode": "HU",
      "stateCode": "BA",
      "latitude": "45.84981000",
      "longitude": "18.31052000"
   },
   {
      "name": "Szentlőrinc",
      "countryCode": "HU",
      "stateCode": "BA",
      "latitude": "46.04016000",
      "longitude": "17.98719000"
   },
   {
      "name": "Szentlőrinci Járás",
      "countryCode": "HU",
      "stateCode": "BA",
      "latitude": "46.04694000",
      "longitude": "18.01528000"
   },
   {
      "name": "Szigetvár",
      "countryCode": "HU",
      "stateCode": "BA",
      "latitude": "46.04865000",
      "longitude": "17.80554000"
   },
   {
      "name": "Szigetvári Járás",
      "countryCode": "HU",
      "stateCode": "BA",
      "latitude": "46.07336000",
      "longitude": "17.80391000"
   },
   {
      "name": "Szászvár",
      "countryCode": "HU",
      "stateCode": "BA",
      "latitude": "46.27673000",
      "longitude": "18.37566000"
   },
   {
      "name": "Sásd",
      "countryCode": "HU",
      "stateCode": "BA",
      "latitude": "46.25520000",
      "longitude": "18.10776000"
   },
   {
      "name": "Vajszló",
      "countryCode": "HU",
      "stateCode": "BA",
      "latitude": "45.85957000",
      "longitude": "17.98406000"
   },
   {
      "name": "Villány",
      "countryCode": "HU",
      "stateCode": "BA",
      "latitude": "45.86889000",
      "longitude": "18.45389000"
   }
]