[
   {
      "name": "Greater Accra",
      "isoCode": "AA",
      "countryCode": "GH",
      "latitude": "5.81428360",
      "longitude": "0.07467670"
   },
   {
      "name": "Ahafo",
      "isoCode": "AF",
      "countryCode": "GH",
      "latitude": "7.58213720",
      "longitude": "-2.54974630"
   },
   {
      "name": "Ashanti",
      "isoCode": "AH",
      "countryCode": "GH",
      "latitude": "6.74704360",
      "longitude": "-1.52086240"
   },
   {
      "name": "Bono East",
      "isoCode": "BE",
      "countryCode": "GH",
      "latitude": "7.75000000",
      "longitude": "-1.05000000"
   },
   {
      "name": "Bono",
      "isoCode": "BO",
      "countryCode": "GH",
      "latitude": "7.65000000",
      "longitude": "-2.50000000"
   },
   {
      "name": "Central",
      "isoCode": "CP",
      "countryCode": "GH",
      "latitude": "5.50000000",
      "longitude": "-1.00000000"
   },
   {
      "name": "Eastern",
      "isoCode": "EP",
      "countryCode": "GH",
      "latitude": "6.50000000",
      "longitude": "-0.50000000"
   },
   {
      "name": "North East",
      "isoCode": "NE",
      "countryCode": "GH",
      "latitude": "10.51666700",
      "longitude": "-0.36666700"
   },
   {
      "name": "Northern",
      "isoCode": "NP",
      "countryCode": "GH",
      "latitude": "9.50000000",
      "longitude": "-1.00000000"
   },
   {
      "name": "Oti",
      "isoCode": "OT",
      "countryCode": "GH",
      "latitude": "7.90000000",
      "longitude": "0.30000000"
   },
   {
      "name": "Savannah",
      "isoCode": "SV",
      "countryCode": "GH",
      "latitude": "9.08333300",
      "longitude": "-1.81666700"
   },
   {
      "name": "Volta",
      "isoCode": "TV",
      "countryCode": "GH",
      "latitude": "6.57813730",
      "longitude": "0.45023680"
   },
   {
      "name": "Upper East",
      "isoCode": "UE",
      "countryCode": "GH",
      "latitude": "10.70824990",
      "longitude": "-0.98206680"
   },
   {
      "name": "Upper West",
      "isoCode": "UW",
      "countryCode": "GH",
      "latitude": "10.25297570",
      "longitude": "-2.14502450"
   },
   {
      "name": "Western North",
      "isoCode": "WN",
      "countryCode": "GH",
      "latitude": "6.30000000",
      "longitude": "-2.80000000"
   },
   {
      "name": "Western",
      "isoCode": "WP",
      "countryCode": "GH",
      "latitude": "5.50000000",
      "longitude": "-2.50000000"
   }
]