[
   {
      "name": "Ademuz",
      "countryCode": "ES",
      "stateCode": "VC",
      "latitude": "40.06139000",
      "longitude": "-1.28677000"
   },
   {
      "name": "Ador",
      "countryCode": "ES",
      "stateCode": "VC",
      "latitude": "38.91823000",
      "longitude": "-0.22247000"
   },
   {
      "name": "Adsubia",
      "countryCode": "ES",
      "stateCode": "VC",
      "latitude": "38.84819000",
      "longitude": "-0.15324000"
   },
   {
      "name": "Adzaneta",
      "countryCode": "ES",
      "stateCode": "VC",
      "latitude": "40.21616000",
      "longitude": "-0.17028000"
   },
   {
      "name": "Agost",
      "countryCode": "ES",
      "stateCode": "VC",
      "latitude": "38.44003000",
      "longitude": "-0.63836000"
   },
   {
      "name": "Agres",
      "countryCode": "ES",
      "stateCode": "VC",
      "latitude": "38.78333000",
      "longitude": "-0.51667000"
   },
   {
      "name": "Agullent",
      "countryCode": "ES",
      "stateCode": "VC",
      "latitude": "38.82273000",
      "longitude": "-0.54833000"
   },
   {
      "name": "Aielo de Malferit",
      "countryCode": "ES",
      "stateCode": "VC",
      "latitude": "38.88333000",
      "longitude": "-0.58333000"
   },
   {
      "name": "Alaquàs",
      "countryCode": "ES",
      "stateCode": "VC",
      "latitude": "39.45568000",
      "longitude": "-0.46100000"
   },
   {
      "name": "Albaida",
      "countryCode": "ES",
      "stateCode": "VC",
      "latitude": "38.83798000",
      "longitude": "-0.51721000"
   },
   {
      "name": "Albal",
      "countryCode": "ES",
      "stateCode": "VC",
      "latitude": "39.40000000",
      "longitude": "-0.41667000"
   },
   {
      "name": "Albalat de la Ribera",
      "countryCode": "ES",
      "stateCode": "VC",
      "latitude": "39.20000000",
      "longitude": "-0.38333000"
   },
   {
      "name": "Albalat dels Sorells",
      "countryCode": "ES",
      "stateCode": "VC",
      "latitude": "39.53333000",
      "longitude": "-0.35000000"
   },
   {
      "name": "Albalat dels Tarongers",
      "countryCode": "ES",
      "stateCode": "VC",
      "latitude": "39.70000000",
      "longitude": "-0.33333000"
   },
   {
      "name": "Albatera",
      "countryCode": "ES",
      "stateCode": "VC",
      "latitude": "38.17902000",
      "longitude": "-0.87059000"
   },
   {
      "name": "Alberic",
      "countryCode": "ES",
      "stateCode": "VC",
      "latitude": "39.11667000",
      "longitude": "-0.51667000"
   },
   {
      "name": "Albocàsser",
      "countryCode": "ES",
      "stateCode": "VC",
      "latitude": "40.35000000",
      "longitude": "0.03333000"
   },
   {
      "name": "Alborache",
      "countryCode": "ES",
      "stateCode": "VC",
      "latitude": "39.38333000",
      "longitude": "-0.76667000"
   },
   {
      "name": "Alboraya",
      "countryCode": "ES",
      "stateCode": "VC",
      "latitude": "39.50000000",
      "longitude": "-0.35000000"
   },
   {
      "name": "Albuixech",
      "countryCode": "ES",
      "stateCode": "VC",
      "latitude": "39.55000000",
      "longitude": "-0.31667000"
   },
   {
      "name": "Alcalalí",
      "countryCode": "ES",
      "stateCode": "VC",
      "latitude": "38.75038000",
      "longitude": "-0.04013000"
   },
   {
      "name": "Alcalà de Xivert",
      "countryCode": "ES",
      "stateCode": "VC",
      "latitude": "40.30000000",
      "longitude": "0.23333000"
   },
   {
      "name": "Alcocer de Planes",
      "countryCode": "ES",
      "stateCode": "VC",
      "latitude": "38.79501000",
      "longitude": "-0.40244000"
   },
   {
      "name": "Alcocéber",
      "countryCode": "ES",
      "stateCode": "VC",
      "latitude": "40.25142000",
      "longitude": "0.28433000"
   },
   {
      "name": "Alcoy",
      "countryCode": "ES",
      "stateCode": "VC",
      "latitude": "38.70545000",
      "longitude": "-0.47432000"
   },
   {
      "name": "Alcublas",
      "countryCode": "ES",
      "stateCode": "VC",
      "latitude": "39.80000000",
      "longitude": "-0.70000000"
   },
   {
      "name": "Alcudia de Veo",
      "countryCode": "ES",
      "stateCode": "VC",
      "latitude": "39.91667000",
      "longitude": "-0.35000000"
   },
   {
      "name": "Alcàntera de Xúquer",
      "countryCode": "ES",
      "stateCode": "VC",
      "latitude": "39.06667000",
      "longitude": "-0.55000000"
   },
   {
      "name": "Alcàsser",
      "countryCode": "ES",
      "stateCode": "VC",
      "latitude": "39.36791000",
      "longitude": "-0.44447000"
   },
   {
      "name": "Aldaia",
      "countryCode": "ES",
      "stateCode": "VC",
      "latitude": "39.46569000",
      "longitude": "-0.46005000"
   },
   {
      "name": "Alfafar",
      "countryCode": "ES",
      "stateCode": "VC",
      "latitude": "39.41667000",
      "longitude": "-0.38333000"
   },
   {
      "name": "Alfafara",
      "countryCode": "ES",
      "stateCode": "VC",
      "latitude": "38.77339000",
      "longitude": "-0.55551000"
   },
   {
      "name": "Alfara de Algimia",
      "countryCode": "ES",
      "stateCode": "VC",
      "latitude": "39.76667000",
      "longitude": "-0.35000000"
   },
   {
      "name": "Alfara del Patriarca",
      "countryCode": "ES",
      "stateCode": "VC",
      "latitude": "39.55000000",
      "longitude": "-0.38333000"
   },
   {
      "name": "Alfarp",
      "countryCode": "ES",
      "stateCode": "VC",
      "latitude": "39.28333000",
      "longitude": "-0.55000000"
   },
   {
      "name": "Alfarrasí",
      "countryCode": "ES",
      "stateCode": "VC",
      "latitude": "38.90000000",
      "longitude": "-0.50000000"
   },
   {
      "name": "Alfauir",
      "countryCode": "ES",
      "stateCode": "VC",
      "latitude": "38.93333000",
      "longitude": "-0.25000000"
   },
   {
      "name": "Alfondeguilla",
      "countryCode": "ES",
      "stateCode": "VC",
      "latitude": "39.83333000",
      "longitude": "-0.26667000"
   },
   {
      "name": "Algemesí",
      "countryCode": "ES",
      "stateCode": "VC",
      "latitude": "39.19042000",
      "longitude": "-0.43572000"
   },
   {
      "name": "Algimia de Alfara",
      "countryCode": "ES",
      "stateCode": "VC",
      "latitude": "39.75000000",
      "longitude": "-0.36667000"
   },
   {
      "name": "Algimia de Almonacid",
      "countryCode": "ES",
      "stateCode": "VC",
      "latitude": "39.91667000",
      "longitude": "-0.43333000"
   },
   {
      "name": "Alginet",
      "countryCode": "ES",
      "stateCode": "VC",
      "latitude": "39.26667000",
      "longitude": "-0.46667000"
   },
   {
      "name": "Algorfa",
      "countryCode": "ES",
      "stateCode": "VC",
      "latitude": "38.08636000",
      "longitude": "-0.79646000"
   },
   {
      "name": "Algueña",
      "countryCode": "ES",
      "stateCode": "VC",
      "latitude": "38.33905000",
      "longitude": "-1.00433000"
   },
   {
      "name": "Alicante",
      "countryCode": "ES",
      "stateCode": "VC",
      "latitude": "38.34517000",
      "longitude": "-0.48149000"
   },
   {
      "name": "Almassora",
      "countryCode": "ES",
      "stateCode": "VC",
      "latitude": "39.94729000",
      "longitude": "-0.06313000"
   },
   {
      "name": "Almedíjar",
      "countryCode": "ES",
      "stateCode": "VC",
      "latitude": "39.86667000",
      "longitude": "-0.40000000"
   },
   {
      "name": "Almenara",
      "countryCode": "ES",
      "stateCode": "VC",
      "latitude": "39.75000000",
      "longitude": "-0.21667000"
   },
   {
      "name": "Almiserà",
      "countryCode": "ES",
      "stateCode": "VC",
      "latitude": "38.91667000",
      "longitude": "-0.28333000"
   },
   {
      "name": "Almoines",
      "countryCode": "ES",
      "stateCode": "VC",
      "latitude": "38.94325000",
      "longitude": "-0.18155000"
   },
   {
      "name": "Almoradí",
      "countryCode": "ES",
      "stateCode": "VC",
      "latitude": "38.10879000",
      "longitude": "-0.79197000"
   },
   {
      "name": "Almudaina",
      "countryCode": "ES",
      "stateCode": "VC",
      "latitude": "38.75999000",
      "longitude": "-0.35149000"
   },
   {
      "name": "Almussafes",
      "countryCode": "ES",
      "stateCode": "VC",
      "latitude": "39.28333000",
      "longitude": "-0.41667000"
   },
   {
      "name": "Alpuente",
      "countryCode": "ES",
      "stateCode": "VC",
      "latitude": "39.86667000",
      "longitude": "-1.01667000"
   },
   {
      "name": "Alquerías del Niño Perdido",
      "countryCode": "ES",
      "stateCode": "VC",
      "latitude": "39.89466000",
      "longitude": "-0.12943000"
   },
   {
      "name": "Altea",
      "countryCode": "ES",
      "stateCode": "VC",
      "latitude": "38.59885000",
      "longitude": "-0.05139000"
   },
   {
      "name": "Altura",
      "countryCode": "ES",
      "stateCode": "VC",
      "latitude": "39.85000000",
      "longitude": "-0.51667000"
   },
   {
      "name": "Alzira",
      "countryCode": "ES",
      "stateCode": "VC",
      "latitude": "39.15000000",
      "longitude": "-0.43333000"
   },
   {
      "name": "Andilla",
      "countryCode": "ES",
      "stateCode": "VC",
      "latitude": "39.83333000",
      "longitude": "-0.80000000"
   },
   {
      "name": "Anna",
      "countryCode": "ES",
      "stateCode": "VC",
      "latitude": "39.02029000",
      "longitude": "-0.64621000"
   },
   {
      "name": "Antella",
      "countryCode": "ES",
      "stateCode": "VC",
      "latitude": "39.07977000",
      "longitude": "-0.59195000"
   },
   {
      "name": "Arañuel",
      "countryCode": "ES",
      "stateCode": "VC",
      "latitude": "40.06667000",
      "longitude": "-0.48333000"
   },
   {
      "name": "Ares del Maestre",
      "countryCode": "ES",
      "stateCode": "VC",
      "latitude": "40.45675000",
      "longitude": "-0.13267000"
   },
   {
      "name": "Argelita",
      "countryCode": "ES",
      "stateCode": "VC",
      "latitude": "40.05000000",
      "longitude": "-0.35000000"
   },
   {
      "name": "Artana",
      "countryCode": "ES",
      "stateCode": "VC",
      "latitude": "39.89104000",
      "longitude": "-0.25758000"
   },
   {
      "name": "Aspe",
      "countryCode": "ES",
      "stateCode": "VC",
      "latitude": "38.34511000",
      "longitude": "-0.76721000"
   },
   {
      "name": "Atzeneta d'Albaida",
      "countryCode": "ES",
      "stateCode": "VC",
      "latitude": "38.83333000",
      "longitude": "-0.50000000"
   },
   {
      "name": "Ayora",
      "countryCode": "ES",
      "stateCode": "VC",
      "latitude": "39.05852000",
      "longitude": "-1.05635000"
   },
   {
      "name": "Ayódar",
      "countryCode": "ES",
      "stateCode": "VC",
      "latitude": "40.00000000",
      "longitude": "-0.36667000"
   },
   {
      "name": "Azuébar",
      "countryCode": "ES",
      "stateCode": "VC",
      "latitude": "39.83333000",
      "longitude": "-0.36667000"
   },
   {
      "name": "Balones",
      "countryCode": "ES",
      "stateCode": "VC",
      "latitude": "38.73726000",
      "longitude": "-0.34324000"
   },
   {
      "name": "Barracas",
      "countryCode": "ES",
      "stateCode": "VC",
      "latitude": "40.01667000",
      "longitude": "-0.68333000"
   },
   {
      "name": "Barx",
      "countryCode": "ES",
      "stateCode": "VC",
      "latitude": "39.01667000",
      "longitude": "-0.30000000"
   },
   {
      "name": "Barxeta",
      "countryCode": "ES",
      "stateCode": "VC",
      "latitude": "39.01667000",
      "longitude": "-0.41667000"
   },
   {
      "name": "Bellreguard",
      "countryCode": "ES",
      "stateCode": "VC",
      "latitude": "38.95000000",
      "longitude": "-0.16667000"
   },
   {
      "name": "Bellús",
      "countryCode": "ES",
      "stateCode": "VC",
      "latitude": "38.94580000",
      "longitude": "-0.48697000"
   },
   {
      "name": "Benafigos",
      "countryCode": "ES",
      "stateCode": "VC",
      "latitude": "40.27641000",
      "longitude": "-0.20772000"
   },
   {
      "name": "Benaguasil",
      "countryCode": "ES",
      "stateCode": "VC",
      "latitude": "39.60000000",
      "longitude": "-0.58333000"
   },
   {
      "name": "Benagéber",
      "countryCode": "ES",
      "stateCode": "VC",
      "latitude": "39.71667000",
      "longitude": "-1.10000000"
   },
   {
      "name": "Benasau",
      "countryCode": "ES",
      "stateCode": "VC",
      "latitude": "38.69047000",
      "longitude": "-0.34278000"
   },
   {
      "name": "Benassal",
      "countryCode": "ES",
      "stateCode": "VC",
      "latitude": "40.37690000",
      "longitude": "-0.13970000"
   },
   {
      "name": "Benavites",
      "countryCode": "ES",
      "stateCode": "VC",
      "latitude": "39.73333000",
      "longitude": "-0.25000000"
   },
   {
      "name": "Beneixama",
      "countryCode": "ES",
      "stateCode": "VC",
      "latitude": "38.70000000",
      "longitude": "-0.76667000"
   },
   {
      "name": "Beneixida",
      "countryCode": "ES",
      "stateCode": "VC",
      "latitude": "39.06667000",
      "longitude": "-0.55000000"
   },
   {
      "name": "Benejúzar",
      "countryCode": "ES",
      "stateCode": "VC",
      "latitude": "38.07728000",
      "longitude": "-0.83942000"
   },
   {
      "name": "Benetússer",
      "countryCode": "ES",
      "stateCode": "VC",
      "latitude": "39.42265000",
      "longitude": "-0.39686000"
   },
   {
      "name": "Benferri",
      "countryCode": "ES",
      "stateCode": "VC",
      "latitude": "38.14129000",
      "longitude": "-0.96212000"
   },
   {
      "name": "Beniarbeig",
      "countryCode": "ES",
      "stateCode": "VC",
      "latitude": "38.82232000",
      "longitude": "-0.00210000"
   },
   {
      "name": "Beniardá",
      "countryCode": "ES",
      "stateCode": "VC",
      "latitude": "38.68433000",
      "longitude": "-0.21629000"
   },
   {
      "name": "Beniarjó",
      "countryCode": "ES",
      "stateCode": "VC",
      "latitude": "38.93249000",
      "longitude": "-0.18634000"
   },
   {
      "name": "Beniarrés",
      "countryCode": "ES",
      "stateCode": "VC",
      "latitude": "38.82019000",
      "longitude": "-0.37741000"
   },
   {
      "name": "Beniatjar",
      "countryCode": "ES",
      "stateCode": "VC",
      "latitude": "38.84754000",
      "longitude": "-0.41736000"
   },
   {
      "name": "Benicarló",
      "countryCode": "ES",
      "stateCode": "VC",
      "latitude": "40.41650000",
      "longitude": "0.42709000"
   },
   {
      "name": "Benicolet",
      "countryCode": "ES",
      "stateCode": "VC",
      "latitude": "38.91987000",
      "longitude": "-0.34694000"
   },
   {
      "name": "Benicàssim",
      "countryCode": "ES",
      "stateCode": "VC",
      "latitude": "40.05000000",
      "longitude": "0.06667000"
   },
   {
      "name": "Benidoleig",
      "countryCode": "ES",
      "stateCode": "VC",
      "latitude": "38.79278000",
      "longitude": "-0.02992000"
   },
   {
      "name": "Benidorm",
      "countryCode": "ES",
      "stateCode": "VC",
      "latitude": "38.53816000",
      "longitude": "-0.13098000"
   },
   {
      "name": "Benifairó de les Valls",
      "countryCode": "ES",
      "stateCode": "VC",
      "latitude": "39.73333000",
      "longitude": "-0.26667000"
   },
   {
      "name": "Benifaió",
      "countryCode": "ES",
      "stateCode": "VC",
      "latitude": "39.28439000",
      "longitude": "-0.42598000"
   },
   {
      "name": "Benifallim",
      "countryCode": "ES",
      "stateCode": "VC",
      "latitude": "38.66259000",
      "longitude": "-0.39994000"
   },
   {
      "name": "Beniflá",
      "countryCode": "ES",
      "stateCode": "VC",
      "latitude": "38.92813000",
      "longitude": "-0.17816000"
   },
   {
      "name": "Benigànim",
      "countryCode": "ES",
      "stateCode": "VC",
      "latitude": "38.95000000",
      "longitude": "-0.43333000"
   },
   {
      "name": "Benijofar",
      "countryCode": "ES",
      "stateCode": "VC",
      "latitude": "38.07785000",
      "longitude": "-0.73680000"
   },
   {
      "name": "Benilloba",
      "countryCode": "ES",
      "stateCode": "VC",
      "latitude": "38.70012000",
      "longitude": "-0.38998000"
   },
   {
      "name": "Benillup",
      "countryCode": "ES",
      "stateCode": "VC",
      "latitude": "38.75397000",
      "longitude": "-0.37991000"
   },
   {
      "name": "Benimantell",
      "countryCode": "ES",
      "stateCode": "VC",
      "latitude": "38.67709000",
      "longitude": "-0.21057000"
   },
   {
      "name": "Benimarfull",
      "countryCode": "ES",
      "stateCode": "VC",
      "latitude": "38.77590000",
      "longitude": "-0.39079000"
   },
   {
      "name": "Benimassot",
      "countryCode": "ES",
      "stateCode": "VC",
      "latitude": "38.75000000",
      "longitude": "-0.28333000"
   },
   {
      "name": "Benimeli",
      "countryCode": "ES",
      "stateCode": "VC",
      "latitude": "38.82362000",
      "longitude": "-0.04221000"
   },
   {
      "name": "Benimodo",
      "countryCode": "ES",
      "stateCode": "VC",
      "latitude": "39.21403000",
      "longitude": "-0.52679000"
   },
   {
      "name": "Benimuslem",
      "countryCode": "ES",
      "stateCode": "VC",
      "latitude": "39.13162000",
      "longitude": "-0.49288000"
   },
   {
      "name": "Beniparrell",
      "countryCode": "ES",
      "stateCode": "VC",
      "latitude": "39.38333000",
      "longitude": "-0.41667000"
   },
   {
      "name": "Benirredrà",
      "countryCode": "ES",
      "stateCode": "VC",
      "latitude": "38.96667000",
      "longitude": "-0.18333000"
   },
   {
      "name": "Benisanó",
      "countryCode": "ES",
      "stateCode": "VC",
      "latitude": "39.61667000",
      "longitude": "-0.56667000"
   },
   {
      "name": "Benissa",
      "countryCode": "ES",
      "stateCode": "VC",
      "latitude": "38.71492000",
      "longitude": "0.04849000"
   },
   {
      "name": "Benissoda",
      "countryCode": "ES",
      "stateCode": "VC",
      "latitude": "38.83333000",
      "longitude": "-0.51667000"
   },
   {
      "name": "Benisuera",
      "countryCode": "ES",
      "stateCode": "VC",
      "latitude": "38.91320000",
      "longitude": "-0.47784000"
   },
   {
      "name": "Benitachell",
      "countryCode": "ES",
      "stateCode": "VC",
      "latitude": "38.73273000",
      "longitude": "0.14354000"
   },
   {
      "name": "Benlloch",
      "countryCode": "ES",
      "stateCode": "VC",
      "latitude": "40.21075000",
      "longitude": "0.02717000"
   },
   {
      "name": "Betxí",
      "countryCode": "ES",
      "stateCode": "VC",
      "latitude": "39.93333000",
      "longitude": "-0.20000000"
   },
   {
      "name": "Biar",
      "countryCode": "ES",
      "stateCode": "VC",
      "latitude": "38.63117000",
      "longitude": "-0.76458000"
   },
   {
      "name": "Bicorp",
      "countryCode": "ES",
      "stateCode": "VC",
      "latitude": "39.13215000",
      "longitude": "-0.78720000"
   },
   {
      "name": "Bigastro",
      "countryCode": "ES",
      "stateCode": "VC",
      "latitude": "38.06237000",
      "longitude": "-0.89841000"
   },
   {
      "name": "Bocairent",
      "countryCode": "ES",
      "stateCode": "VC",
      "latitude": "38.76667000",
      "longitude": "-0.61667000"
   },
   {
      "name": "Bolbaite",
      "countryCode": "ES",
      "stateCode": "VC",
      "latitude": "39.06041000",
      "longitude": "-0.67466000"
   },
   {
      "name": "Bolulla",
      "countryCode": "ES",
      "stateCode": "VC",
      "latitude": "38.67529000",
      "longitude": "-0.11184000"
   },
   {
      "name": "Borriol",
      "countryCode": "ES",
      "stateCode": "VC",
      "latitude": "40.04249000",
      "longitude": "-0.07025000"
   },
   {
      "name": "Bufali",
      "countryCode": "ES",
      "stateCode": "VC",
      "latitude": "38.86775000",
      "longitude": "-0.51617000"
   },
   {
      "name": "Bugarra",
      "countryCode": "ES",
      "stateCode": "VC",
      "latitude": "39.61667000",
      "longitude": "-0.76667000"
   },
   {
      "name": "Burjassot",
      "countryCode": "ES",
      "stateCode": "VC",
      "latitude": "39.50984000",
      "longitude": "-0.41327000"
   },
   {
      "name": "Burriana",
      "countryCode": "ES",
      "stateCode": "VC",
      "latitude": "39.88901000",
      "longitude": "-0.08499000"
   },
   {
      "name": "Busot",
      "countryCode": "ES",
      "stateCode": "VC",
      "latitude": "38.48206000",
      "longitude": "-0.41918000"
   },
   {
      "name": "Buñol",
      "countryCode": "ES",
      "stateCode": "VC",
      "latitude": "39.41667000",
      "longitude": "-0.78333000"
   },
   {
      "name": "Bèlgida",
      "countryCode": "ES",
      "stateCode": "VC",
      "latitude": "38.85000000",
      "longitude": "-0.46667000"
   },
   {
      "name": "Bétera",
      "countryCode": "ES",
      "stateCode": "VC",
      "latitude": "39.59111000",
      "longitude": "-0.46151000"
   },
   {
      "name": "Cabanes",
      "countryCode": "ES",
      "stateCode": "VC",
      "latitude": "40.15600000",
      "longitude": "0.04325000"
   },
   {
      "name": "Calles",
      "countryCode": "ES",
      "stateCode": "VC",
      "latitude": "39.72118000",
      "longitude": "-0.97057000"
   },
   {
      "name": "Callosa de Segura",
      "countryCode": "ES",
      "stateCode": "VC",
      "latitude": "38.12497000",
      "longitude": "-0.87822000"
   },
   {
      "name": "Calp",
      "countryCode": "ES",
      "stateCode": "VC",
      "latitude": "38.64470000",
      "longitude": "0.04450000"
   },
   {
      "name": "Camporrobles",
      "countryCode": "ES",
      "stateCode": "VC",
      "latitude": "39.65000000",
      "longitude": "-1.40000000"
   },
   {
      "name": "Canals",
      "countryCode": "ES",
      "stateCode": "VC",
      "latitude": "38.96251000",
      "longitude": "-0.58443000"
   },
   {
      "name": "Canet d'En Berenguer",
      "countryCode": "ES",
      "stateCode": "VC",
      "latitude": "39.68333000",
      "longitude": "-0.21667000"
   },
   {
      "name": "Canet lo Roig",
      "countryCode": "ES",
      "stateCode": "VC",
      "latitude": "40.55142000",
      "longitude": "0.24308000"
   },
   {
      "name": "Carcaixent",
      "countryCode": "ES",
      "stateCode": "VC",
      "latitude": "39.12180000",
      "longitude": "-0.44812000"
   },
   {
      "name": "Carlet",
      "countryCode": "ES",
      "stateCode": "VC",
      "latitude": "39.22660000",
      "longitude": "-0.52142000"
   },
   {
      "name": "Carrícola",
      "countryCode": "ES",
      "stateCode": "VC",
      "latitude": "38.84133000",
      "longitude": "-0.47260000"
   },
   {
      "name": "Casas Altas",
      "countryCode": "ES",
      "stateCode": "VC",
      "latitude": "40.03333000",
      "longitude": "-1.26667000"
   },
   {
      "name": "Casas Bajas",
      "countryCode": "ES",
      "stateCode": "VC",
      "latitude": "40.01667000",
      "longitude": "-1.26667000"
   },
   {
      "name": "Casinos",
      "countryCode": "ES",
      "stateCode": "VC",
      "latitude": "39.70000000",
      "longitude": "-0.70000000"
   },
   {
      "name": "Castalla",
      "countryCode": "ES",
      "stateCode": "VC",
      "latitude": "38.59694000",
      "longitude": "-0.67207000"
   },
   {
      "name": "Castell de Cabres",
      "countryCode": "ES",
      "stateCode": "VC",
      "latitude": "40.66058000",
      "longitude": "0.04217000"
   },
   {
      "name": "Castell de Castells",
      "countryCode": "ES",
      "stateCode": "VC",
      "latitude": "38.72555000",
      "longitude": "-0.19242000"
   },
   {
      "name": "Castellfort",
      "countryCode": "ES",
      "stateCode": "VC",
      "latitude": "40.50208000",
      "longitude": "-0.19133000"
   },
   {
      "name": "Castellnovo",
      "countryCode": "ES",
      "stateCode": "VC",
      "latitude": "39.86667000",
      "longitude": "-0.45000000"
   },
   {
      "name": "Castellonet de la Conquesta",
      "countryCode": "ES",
      "stateCode": "VC",
      "latitude": "38.91667000",
      "longitude": "-0.26667000"
   },
   {
      "name": "Castelló de Rugat",
      "countryCode": "ES",
      "stateCode": "VC",
      "latitude": "38.88333000",
      "longitude": "-0.36667000"
   },
   {
      "name": "Castelló de la Plana",
      "countryCode": "ES",
      "stateCode": "VC",
      "latitude": "39.98567000",
      "longitude": "-0.04935000"
   },
   {
      "name": "Castielfabib",
      "countryCode": "ES",
      "stateCode": "VC",
      "latitude": "40.13076000",
      "longitude": "-1.30396000"
   },
   {
      "name": "Castillo de Villamalefa",
      "countryCode": "ES",
      "stateCode": "VC",
      "latitude": "40.13333000",
      "longitude": "-0.38333000"
   },
   {
      "name": "Catadau",
      "countryCode": "ES",
      "stateCode": "VC",
      "latitude": "39.26667000",
      "longitude": "-0.56667000"
   },
   {
      "name": "Catarroja",
      "countryCode": "ES",
      "stateCode": "VC",
      "latitude": "39.40000000",
      "longitude": "-0.40000000"
   },
   {
      "name": "Catral",
      "countryCode": "ES",
      "stateCode": "VC",
      "latitude": "38.16061000",
      "longitude": "-0.80209000"
   },
   {
      "name": "Catí",
      "countryCode": "ES",
      "stateCode": "VC",
      "latitude": "40.47156000",
      "longitude": "0.02275000"
   },
   {
      "name": "Caudete de las Fuentes",
      "countryCode": "ES",
      "stateCode": "VC",
      "latitude": "39.55965000",
      "longitude": "-1.27853000"
   },
   {
      "name": "Cerdà",
      "countryCode": "ES",
      "stateCode": "VC",
      "latitude": "38.98333000",
      "longitude": "-0.56667000"
   },
   {
      "name": "Cervera del Maestre",
      "countryCode": "ES",
      "stateCode": "VC",
      "latitude": "40.45366000",
      "longitude": "0.27659000"
   },
   {
      "name": "Chella",
      "countryCode": "ES",
      "stateCode": "VC",
      "latitude": "39.04203000",
      "longitude": "-0.65916000"
   },
   {
      "name": "Chelva",
      "countryCode": "ES",
      "stateCode": "VC",
      "latitude": "39.74930000",
      "longitude": "-0.99684000"
   },
   {
      "name": "Chera",
      "countryCode": "ES",
      "stateCode": "VC",
      "latitude": "39.60000000",
      "longitude": "-0.96667000"
   },
   {
      "name": "Chert/Xert",
      "countryCode": "ES",
      "stateCode": "VC",
      "latitude": "40.51944000",
      "longitude": "0.15831000"
   },
   {
      "name": "Cheste",
      "countryCode": "ES",
      "stateCode": "VC",
      "latitude": "39.48333000",
      "longitude": "-0.68333000"
   },
   {
      "name": "Chilches",
      "countryCode": "ES",
      "stateCode": "VC",
      "latitude": "39.78238000",
      "longitude": "-0.18742000"
   },
   {
      "name": "Chiva",
      "countryCode": "ES",
      "stateCode": "VC",
      "latitude": "39.46667000",
      "longitude": "-0.71667000"
   },
   {
      "name": "Chulilla",
      "countryCode": "ES",
      "stateCode": "VC",
      "latitude": "39.65000000",
      "longitude": "-0.88333000"
   },
   {
      "name": "Chóvar",
      "countryCode": "ES",
      "stateCode": "VC",
      "latitude": "39.85000000",
      "longitude": "-0.31667000"
   },
   {
      "name": "Cinctorres",
      "countryCode": "ES",
      "stateCode": "VC",
      "latitude": "40.58333000",
      "longitude": "-0.21667000"
   },
   {
      "name": "Cirat",
      "countryCode": "ES",
      "stateCode": "VC",
      "latitude": "40.05000000",
      "longitude": "-0.45000000"
   },
   {
      "name": "Cocentaina",
      "countryCode": "ES",
      "stateCode": "VC",
      "latitude": "38.73975000",
      "longitude": "-0.43976000"
   },
   {
      "name": "Cofrentes",
      "countryCode": "ES",
      "stateCode": "VC",
      "latitude": "39.22926000",
      "longitude": "-1.06061000"
   },
   {
      "name": "Confrides",
      "countryCode": "ES",
      "stateCode": "VC",
      "latitude": "38.68451000",
      "longitude": "-0.26890000"
   },
   {
      "name": "Corbera",
      "countryCode": "ES",
      "stateCode": "VC",
      "latitude": "39.15000000",
      "longitude": "-0.35000000"
   },
   {
      "name": "Cortes de Arenoso",
      "countryCode": "ES",
      "stateCode": "VC",
      "latitude": "40.18812000",
      "longitude": "-0.54195000"
   },
   {
      "name": "Cortes de Pallás",
      "countryCode": "ES",
      "stateCode": "VC",
      "latitude": "39.25000000",
      "longitude": "-0.93333000"
   },
   {
      "name": "Costur",
      "countryCode": "ES",
      "stateCode": "VC",
      "latitude": "40.11971000",
      "longitude": "-0.17385000"
   },
   {
      "name": "Cotes",
      "countryCode": "ES",
      "stateCode": "VC",
      "latitude": "39.07010000",
      "longitude": "-0.57449000"
   },
   {
      "name": "Cox",
      "countryCode": "ES",
      "stateCode": "VC",
      "latitude": "38.14164000",
      "longitude": "-0.88736000"
   },
   {
      "name": "Crevillente",
      "countryCode": "ES",
      "stateCode": "VC",
      "latitude": "38.24994000",
      "longitude": "-0.80975000"
   },
   {
      "name": "Cuevas de Vinromá",
      "countryCode": "ES",
      "stateCode": "VC",
      "latitude": "40.30976000",
      "longitude": "0.12084000"
   },
   {
      "name": "Culla",
      "countryCode": "ES",
      "stateCode": "VC",
      "latitude": "40.33650000",
      "longitude": "-0.16569000"
   },
   {
      "name": "Cullera",
      "countryCode": "ES",
      "stateCode": "VC",
      "latitude": "39.16667000",
      "longitude": "-0.25000000"
   },
   {
      "name": "Càlig",
      "countryCode": "ES",
      "stateCode": "VC",
      "latitude": "40.46262000",
      "longitude": "0.35521000"
   },
   {
      "name": "Càrcer",
      "countryCode": "ES",
      "stateCode": "VC",
      "latitude": "39.06667000",
      "longitude": "-0.56667000"
   },
   {
      "name": "Daimús",
      "countryCode": "ES",
      "stateCode": "VC",
      "latitude": "38.96667000",
      "longitude": "-0.15000000"
   },
   {
      "name": "Daya Nueva",
      "countryCode": "ES",
      "stateCode": "VC",
      "latitude": "38.11313000",
      "longitude": "-0.76028000"
   },
   {
      "name": "Daya Vieja",
      "countryCode": "ES",
      "stateCode": "VC",
      "latitude": "38.10480000",
      "longitude": "-0.73804000"
   },
   {
      "name": "Denia",
      "countryCode": "ES",
      "stateCode": "VC",
      "latitude": "38.84078000",
      "longitude": "0.10574000"
   },
   {
      "name": "Dolores",
      "countryCode": "ES",
      "stateCode": "VC",
      "latitude": "38.14002000",
      "longitude": "-0.77088000"
   },
   {
      "name": "Domeño",
      "countryCode": "ES",
      "stateCode": "VC",
      "latitude": "39.66115000",
      "longitude": "-0.67077000"
   },
   {
      "name": "Dos Aguas",
      "countryCode": "ES",
      "stateCode": "VC",
      "latitude": "39.28333000",
      "longitude": "-0.80000000"
   },
   {
      "name": "El Campello",
      "countryCode": "ES",
      "stateCode": "VC",
      "latitude": "38.42885000",
      "longitude": "-0.39774000"
   },
   {
      "name": "El Grao",
      "countryCode": "ES",
      "stateCode": "VC",
      "latitude": "39.97358000",
      "longitude": "0.01284000"
   },
   {
      "name": "El Perelló",
      "countryCode": "ES",
      "stateCode": "VC",
      "latitude": "39.27718000",
      "longitude": "-0.27569000"
   },
   {
      "name": "Elche",
      "countryCode": "ES",
      "stateCode": "VC",
      "latitude": "38.26218000",
      "longitude": "-0.70107000"
   },
   {
      "name": "Elda",
      "countryCode": "ES",
      "stateCode": "VC",
      "latitude": "38.47783000",
      "longitude": "-0.79157000"
   },
   {
      "name": "Emperador",
      "countryCode": "ES",
      "stateCode": "VC",
      "latitude": "39.55000000",
      "longitude": "-0.33333000"
   },
   {
      "name": "Enguera",
      "countryCode": "ES",
      "stateCode": "VC",
      "latitude": "38.97974000",
      "longitude": "-0.68683000"
   },
   {
      "name": "Eslida",
      "countryCode": "ES",
      "stateCode": "VC",
      "latitude": "39.88333000",
      "longitude": "-0.30000000"
   },
   {
      "name": "Espadilla",
      "countryCode": "ES",
      "stateCode": "VC",
      "latitude": "40.03333000",
      "longitude": "-0.35000000"
   },
   {
      "name": "Estivella",
      "countryCode": "ES",
      "stateCode": "VC",
      "latitude": "39.71667000",
      "longitude": "-0.35000000"
   },
   {
      "name": "Estubeny",
      "countryCode": "ES",
      "stateCode": "VC",
      "latitude": "39.01792000",
      "longitude": "-0.62379000"
   },
   {
      "name": "Facheca",
      "countryCode": "ES",
      "stateCode": "VC",
      "latitude": "38.73501000",
      "longitude": "-0.26766000"
   },
   {
      "name": "Famorca",
      "countryCode": "ES",
      "stateCode": "VC",
      "latitude": "38.73101000",
      "longitude": "-0.24726000"
   },
   {
      "name": "Fanzara",
      "countryCode": "ES",
      "stateCode": "VC",
      "latitude": "40.01667000",
      "longitude": "-0.31667000"
   },
   {
      "name": "Faura",
      "countryCode": "ES",
      "stateCode": "VC",
      "latitude": "39.71667000",
      "longitude": "-0.25000000"
   },
   {
      "name": "Favara",
      "countryCode": "ES",
      "stateCode": "VC",
      "latitude": "39.11667000",
      "longitude": "-0.28333000"
   },
   {
      "name": "Figueroles",
      "countryCode": "ES",
      "stateCode": "VC",
      "latitude": "40.11667000",
      "longitude": "-0.23333000"
   },
   {
      "name": "Finestrat",
      "countryCode": "ES",
      "stateCode": "VC",
      "latitude": "38.56737000",
      "longitude": "-0.21235000"
   },
   {
      "name": "Foios",
      "countryCode": "ES",
      "stateCode": "VC",
      "latitude": "39.53333000",
      "longitude": "-0.35000000"
   },
   {
      "name": "Fontanars dels Alforins",
      "countryCode": "ES",
      "stateCode": "VC",
      "latitude": "38.78423000",
      "longitude": "-0.78667000"
   },
   {
      "name": "Forcall",
      "countryCode": "ES",
      "stateCode": "VC",
      "latitude": "40.64542000",
      "longitude": "-0.19992000"
   },
   {
      "name": "Formentera de Segura",
      "countryCode": "ES",
      "stateCode": "VC",
      "latitude": "38.08509000",
      "longitude": "-0.74604000"
   },
   {
      "name": "Fortaleny",
      "countryCode": "ES",
      "stateCode": "VC",
      "latitude": "39.18333000",
      "longitude": "-0.30000000"
   },
   {
      "name": "Fuente la Reina",
      "countryCode": "ES",
      "stateCode": "VC",
      "latitude": "40.06667000",
      "longitude": "-0.60000000"
   },
   {
      "name": "Fuenterrobles",
      "countryCode": "ES",
      "stateCode": "VC",
      "latitude": "39.58333000",
      "longitude": "-1.35000000"
   },
   {
      "name": "Fuentes de Ayódar",
      "countryCode": "ES",
      "stateCode": "VC",
      "latitude": "40.03333000",
      "longitude": "-0.41667000"
   },
   {
      "name": "Gaibiel",
      "countryCode": "ES",
      "stateCode": "VC",
      "latitude": "39.93333000",
      "longitude": "-0.48333000"
   },
   {
      "name": "Gandia",
      "countryCode": "ES",
      "stateCode": "VC",
      "latitude": "38.96667000",
      "longitude": "-0.18333000"
   },
   {
      "name": "Gata de Gorgos",
      "countryCode": "ES",
      "stateCode": "VC",
      "latitude": "38.77443000",
      "longitude": "0.08538000"
   },
   {
      "name": "Gavarda",
      "countryCode": "ES",
      "stateCode": "VC",
      "latitude": "39.08333000",
      "longitude": "-0.55000000"
   },
   {
      "name": "Geldo",
      "countryCode": "ES",
      "stateCode": "VC",
      "latitude": "39.83333000",
      "longitude": "-0.46667000"
   },
   {
      "name": "Genovés",
      "countryCode": "ES",
      "stateCode": "VC",
      "latitude": "38.98915000",
      "longitude": "-0.46992000"
   },
   {
      "name": "Gestalgar",
      "countryCode": "ES",
      "stateCode": "VC",
      "latitude": "39.60000000",
      "longitude": "-0.83333000"
   },
   {
      "name": "Gilet",
      "countryCode": "ES",
      "stateCode": "VC",
      "latitude": "39.68333000",
      "longitude": "-0.31667000"
   },
   {
      "name": "Godella",
      "countryCode": "ES",
      "stateCode": "VC",
      "latitude": "39.53333000",
      "longitude": "-0.41667000"
   },
   {
      "name": "Godelleta",
      "countryCode": "ES",
      "stateCode": "VC",
      "latitude": "39.41667000",
      "longitude": "-0.68333000"
   },
   {
      "name": "Gorga",
      "countryCode": "ES",
      "stateCode": "VC",
      "latitude": "38.71896000",
      "longitude": "-0.35589000"
   },
   {
      "name": "Granja de Rocamora",
      "countryCode": "ES",
      "stateCode": "VC",
      "latitude": "38.15157000",
      "longitude": "-0.89170000"
   },
   {
      "name": "Grao de Murviedro",
      "countryCode": "ES",
      "stateCode": "VC",
      "latitude": "39.64167000",
      "longitude": "-0.23889000"
   },
   {
      "name": "Guadasequies",
      "countryCode": "ES",
      "stateCode": "VC",
      "latitude": "38.92539000",
      "longitude": "-0.48585000"
   },
   {
      "name": "Guadassuar",
      "countryCode": "ES",
      "stateCode": "VC",
      "latitude": "39.18663000",
      "longitude": "-0.47859000"
   },
   {
      "name": "Guardamar del Segura",
      "countryCode": "ES",
      "stateCode": "VC",
      "latitude": "38.09031000",
      "longitude": "-0.65556000"
   },
   {
      "name": "Herbés",
      "countryCode": "ES",
      "stateCode": "VC",
      "latitude": "40.72100000",
      "longitude": "-0.00441000"
   },
   {
      "name": "Higueras",
      "countryCode": "ES",
      "stateCode": "VC",
      "latitude": "39.98333000",
      "longitude": "-0.50000000"
   },
   {
      "name": "Higueruelas",
      "countryCode": "ES",
      "stateCode": "VC",
      "latitude": "39.78333000",
      "longitude": "-0.85000000"
   },
   {
      "name": "Hondón de las Nieves",
      "countryCode": "ES",
      "stateCode": "VC",
      "latitude": "38.30844000",
      "longitude": "-0.85330000"
   },
   {
      "name": "Hondón de los Frailes",
      "countryCode": "ES",
      "stateCode": "VC",
      "latitude": "38.27390000",
      "longitude": "-0.92938000"
   },
   {
      "name": "Ibi",
      "countryCode": "ES",
      "stateCode": "VC",
      "latitude": "38.62533000",
      "longitude": "-0.57225000"
   },
   {
      "name": "Jacarilla",
      "countryCode": "ES",
      "stateCode": "VC",
      "latitude": "38.06247000",
      "longitude": "-0.86822000"
   },
   {
      "name": "Jalance",
      "countryCode": "ES",
      "stateCode": "VC",
      "latitude": "39.20000000",
      "longitude": "-1.06667000"
   },
   {
      "name": "Jalón",
      "countryCode": "ES",
      "stateCode": "VC",
      "latitude": "38.74063000",
      "longitude": "-0.01129000"
   },
   {
      "name": "Jarafuel",
      "countryCode": "ES",
      "stateCode": "VC",
      "latitude": "39.14013000",
      "longitude": "-1.07306000"
   },
   {
      "name": "Javea",
      "countryCode": "ES",
      "stateCode": "VC",
      "latitude": "38.78333000",
      "longitude": "0.16667000"
   },
   {
      "name": "Jijona",
      "countryCode": "ES",
      "stateCode": "VC",
      "latitude": "38.54086000",
      "longitude": "-0.50263000"
   },
   {
      "name": "Jérica",
      "countryCode": "ES",
      "stateCode": "VC",
      "latitude": "39.91667000",
      "longitude": "-0.56667000"
   },
   {
      "name": "L'Alcúdia",
      "countryCode": "ES",
      "stateCode": "VC",
      "latitude": "39.19717000",
      "longitude": "-0.50537000"
   },
   {
      "name": "L'Alcúdia de Crespìns",
      "countryCode": "ES",
      "stateCode": "VC",
      "latitude": "38.96667000",
      "longitude": "-0.58333000"
   },
   {
      "name": "L'Alqueria de la Comtessa",
      "countryCode": "ES",
      "stateCode": "VC",
      "latitude": "38.93333000",
      "longitude": "-0.15000000"
   },
   {
      "name": "L'Eliana",
      "countryCode": "ES",
      "stateCode": "VC",
      "latitude": "39.56667000",
      "longitude": "-0.53333000"
   },
   {
      "name": "L'Olleria",
      "countryCode": "ES",
      "stateCode": "VC",
      "latitude": "38.91667000",
      "longitude": "-0.55000000"
   },
   {
      "name": "La Font de la Figuera",
      "countryCode": "ES",
      "stateCode": "VC",
      "latitude": "38.80000000",
      "longitude": "-0.88333000"
   },
   {
      "name": "La Pobla Llarga",
      "countryCode": "ES",
      "stateCode": "VC",
      "latitude": "39.08333000",
      "longitude": "-0.46667000"
   },
   {
      "name": "La Pobla de Farnals",
      "countryCode": "ES",
      "stateCode": "VC",
      "latitude": "39.56571000",
      "longitude": "-0.28425000"
   },
   {
      "name": "La Pobla de Vallbona",
      "countryCode": "ES",
      "stateCode": "VC",
      "latitude": "39.59747000",
      "longitude": "-0.55468000"
   },
   {
      "name": "La Romana",
      "countryCode": "ES",
      "stateCode": "VC",
      "latitude": "38.36753000",
      "longitude": "-0.89862000"
   },
   {
      "name": "La Yesa",
      "countryCode": "ES",
      "stateCode": "VC",
      "latitude": "39.88333000",
      "longitude": "-0.95000000"
   },
   {
      "name": "Llanera de Ranes",
      "countryCode": "ES",
      "stateCode": "VC",
      "latitude": "38.99507000",
      "longitude": "-0.57534000"
   },
   {
      "name": "Llaurí",
      "countryCode": "ES",
      "stateCode": "VC",
      "latitude": "39.14671000",
      "longitude": "-0.32944000"
   },
   {
      "name": "Llocnou de Sant Jeroni",
      "countryCode": "ES",
      "stateCode": "VC",
      "latitude": "38.91667000",
      "longitude": "-0.28333000"
   },
   {
      "name": "Llombai",
      "countryCode": "ES",
      "stateCode": "VC",
      "latitude": "39.28333000",
      "longitude": "-0.56667000"
   },
   {
      "name": "Llosa de Ranes",
      "countryCode": "ES",
      "stateCode": "VC",
      "latitude": "39.02163000",
      "longitude": "-0.53803000"
   },
   {
      "name": "Llutxent",
      "countryCode": "ES",
      "stateCode": "VC",
      "latitude": "38.93333000",
      "longitude": "-0.35000000"
   },
   {
      "name": "Llíria",
      "countryCode": "ES",
      "stateCode": "VC",
      "latitude": "39.62894000",
      "longitude": "-0.59783000"
   },
   {
      "name": "Loriguilla",
      "countryCode": "ES",
      "stateCode": "VC",
      "latitude": "39.68333000",
      "longitude": "-0.91667000"
   },
   {
      "name": "Los Montesinos",
      "countryCode": "ES",
      "stateCode": "VC",
      "latitude": "38.02822000",
      "longitude": "-0.74501000"
   },
   {
      "name": "Losa del Obispo",
      "countryCode": "ES",
      "stateCode": "VC",
      "latitude": "39.70000000",
      "longitude": "-0.86667000"
   },
   {
      "name": "Lucena del Cid",
      "countryCode": "ES",
      "stateCode": "VC",
      "latitude": "40.13333000",
      "longitude": "-0.28333000"
   },
   {
      "name": "Ludiente",
      "countryCode": "ES",
      "stateCode": "VC",
      "latitude": "40.08333000",
      "longitude": "-0.36667000"
   },
   {
      "name": "Macastre",
      "countryCode": "ES",
      "stateCode": "VC",
      "latitude": "39.38333000",
      "longitude": "-0.78333000"
   },
   {
      "name": "Manises",
      "countryCode": "ES",
      "stateCode": "VC",
      "latitude": "39.49139000",
      "longitude": "-0.46349000"
   },
   {
      "name": "Manuel",
      "countryCode": "ES",
      "stateCode": "VC",
      "latitude": "39.05059000",
      "longitude": "-0.48978000"
   },
   {
      "name": "Marines",
      "countryCode": "ES",
      "stateCode": "VC",
      "latitude": "39.74165000",
      "longitude": "-0.53103000"
   },
   {
      "name": "Masalavés",
      "countryCode": "ES",
      "stateCode": "VC",
      "latitude": "39.14377000",
      "longitude": "-0.52260000"
   },
   {
      "name": "Massamagrell",
      "countryCode": "ES",
      "stateCode": "VC",
      "latitude": "39.56667000",
      "longitude": "-0.33333000"
   },
   {
      "name": "Matet",
      "countryCode": "ES",
      "stateCode": "VC",
      "latitude": "39.93333000",
      "longitude": "-0.46667000"
   },
   {
      "name": "Meliana",
      "countryCode": "ES",
      "stateCode": "VC",
      "latitude": "39.53333000",
      "longitude": "-0.33333000"
   },
   {
      "name": "Millares",
      "countryCode": "ES",
      "stateCode": "VC",
      "latitude": "39.25000000",
      "longitude": "-0.76667000"
   },
   {
      "name": "Millena",
      "countryCode": "ES",
      "stateCode": "VC",
      "latitude": "38.73082000",
      "longitude": "-0.36274000"
   },
   {
      "name": "Miramar",
      "countryCode": "ES",
      "stateCode": "VC",
      "latitude": "38.95036000",
      "longitude": "-0.14007000"
   },
   {
      "name": "Mislata",
      "countryCode": "ES",
      "stateCode": "VC",
      "latitude": "39.47523000",
      "longitude": "-0.41825000"
   },
   {
      "name": "Mogente",
      "countryCode": "ES",
      "stateCode": "VC",
      "latitude": "38.87598000",
      "longitude": "-0.75150000"
   },
   {
      "name": "Moncada",
      "countryCode": "ES",
      "stateCode": "VC",
      "latitude": "39.54555000",
      "longitude": "-0.39551000"
   },
   {
      "name": "Moncofa",
      "countryCode": "ES",
      "stateCode": "VC",
      "latitude": "39.80907000",
      "longitude": "-0.14701000"
   },
   {
      "name": "Monforte del Cid",
      "countryCode": "ES",
      "stateCode": "VC",
      "latitude": "38.38027000",
      "longitude": "-0.72850000"
   },
   {
      "name": "Monserrat",
      "countryCode": "ES",
      "stateCode": "VC",
      "latitude": "39.36667000",
      "longitude": "-0.60000000"
   },
   {
      "name": "Montaberner",
      "countryCode": "ES",
      "stateCode": "VC",
      "latitude": "38.89021000",
      "longitude": "-0.49582000"
   },
   {
      "name": "Montanejos",
      "countryCode": "ES",
      "stateCode": "VC",
      "latitude": "40.06667000",
      "longitude": "-0.51667000"
   },
   {
      "name": "Montesa",
      "countryCode": "ES",
      "stateCode": "VC",
      "latitude": "38.95030000",
      "longitude": "-0.65200000"
   },
   {
      "name": "Montichelvo",
      "countryCode": "ES",
      "stateCode": "VC",
      "latitude": "38.89129000",
      "longitude": "-0.34123000"
   },
   {
      "name": "Montroy",
      "countryCode": "ES",
      "stateCode": "VC",
      "latitude": "39.33333000",
      "longitude": "-0.61667000"
   },
   {
      "name": "Montán",
      "countryCode": "ES",
      "stateCode": "VC",
      "latitude": "40.03333000",
      "longitude": "-0.55000000"
   },
   {
      "name": "Monóvar",
      "countryCode": "ES",
      "stateCode": "VC",
      "latitude": "38.43809000",
      "longitude": "-0.84062000"
   },
   {
      "name": "Moraira",
      "countryCode": "ES",
      "stateCode": "VC",
      "latitude": "38.68866000",
      "longitude": "0.13484000"
   },
   {
      "name": "Morella",
      "countryCode": "ES",
      "stateCode": "VC",
      "latitude": "40.61966000",
      "longitude": "-0.09892000"
   },
   {
      "name": "Murla",
      "countryCode": "ES",
      "stateCode": "VC",
      "latitude": "38.76037000",
      "longitude": "-0.08208000"
   },
   {
      "name": "Muro del Alcoy",
      "countryCode": "ES",
      "stateCode": "VC",
      "latitude": "38.78120000",
      "longitude": "-0.43608000"
   },
   {
      "name": "Museros",
      "countryCode": "ES",
      "stateCode": "VC",
      "latitude": "39.56667000",
      "longitude": "-0.35000000"
   },
   {
      "name": "Mutxamel",
      "countryCode": "ES",
      "stateCode": "VC",
      "latitude": "38.41580000",
      "longitude": "-0.44529000"
   },
   {
      "name": "Navajas",
      "countryCode": "ES",
      "stateCode": "VC",
      "latitude": "39.88333000",
      "longitude": "-0.50000000"
   },
   {
      "name": "Navarrés",
      "countryCode": "ES",
      "stateCode": "VC",
      "latitude": "39.10198000",
      "longitude": "-0.69469000"
   },
   {
      "name": "Novelda",
      "countryCode": "ES",
      "stateCode": "VC",
      "latitude": "38.38479000",
      "longitude": "-0.76773000"
   },
   {
      "name": "Nules",
      "countryCode": "ES",
      "stateCode": "VC",
      "latitude": "39.85362000",
      "longitude": "-0.15643000"
   },
   {
      "name": "Náquera",
      "countryCode": "ES",
      "stateCode": "VC",
      "latitude": "39.65000000",
      "longitude": "-0.41667000"
   },
   {
      "name": "Oliva",
      "countryCode": "ES",
      "stateCode": "VC",
      "latitude": "38.91971000",
      "longitude": "-0.11935000"
   },
   {
      "name": "Olocau",
      "countryCode": "ES",
      "stateCode": "VC",
      "latitude": "39.70000000",
      "longitude": "-0.53333000"
   },
   {
      "name": "Olocau del Rey",
      "countryCode": "ES",
      "stateCode": "VC",
      "latitude": "40.63775000",
      "longitude": "-0.34041000"
   },
   {
      "name": "Onda",
      "countryCode": "ES",
      "stateCode": "VC",
      "latitude": "39.96495000",
      "longitude": "-0.26041000"
   },
   {
      "name": "Ondara",
      "countryCode": "ES",
      "stateCode": "VC",
      "latitude": "38.82817000",
      "longitude": "0.01720000"
   },
   {
      "name": "Onil",
      "countryCode": "ES",
      "stateCode": "VC",
      "latitude": "38.62606000",
      "longitude": "-0.67313000"
   },
   {
      "name": "Ontinyent",
      "countryCode": "ES",
      "stateCode": "VC",
      "latitude": "38.82191000",
      "longitude": "-0.60603000"
   },
   {
      "name": "Orba",
      "countryCode": "ES",
      "stateCode": "VC",
      "latitude": "38.78041000",
      "longitude": "-0.06278000"
   },
   {
      "name": "Orcheta",
      "countryCode": "ES",
      "stateCode": "VC",
      "latitude": "38.56397000",
      "longitude": "-0.26299000"
   },
   {
      "name": "Orihuela",
      "countryCode": "ES",
      "stateCode": "VC",
      "latitude": "38.08483000",
      "longitude": "-0.94401000"
   },
   {
      "name": "Oropesa del Mar",
      "countryCode": "ES",
      "stateCode": "VC",
      "latitude": "40.09134000",
      "longitude": "0.14115000"
   },
   {
      "name": "Otos",
      "countryCode": "ES",
      "stateCode": "VC",
      "latitude": "38.85427000",
      "longitude": "-0.44399000"
   },
   {
      "name": "Paiporta",
      "countryCode": "ES",
      "stateCode": "VC",
      "latitude": "39.42814000",
      "longitude": "-0.41765000"
   },
   {
      "name": "Palanques",
      "countryCode": "ES",
      "stateCode": "VC",
      "latitude": "40.71800000",
      "longitude": "-0.17941000"
   },
   {
      "name": "Palma de Gandía",
      "countryCode": "ES",
      "stateCode": "VC",
      "latitude": "38.92672000",
      "longitude": "-0.22028000"
   },
   {
      "name": "Palmera",
      "countryCode": "ES",
      "stateCode": "VC",
      "latitude": "38.93927000",
      "longitude": "-0.15411000"
   },
   {
      "name": "Parcent",
      "countryCode": "ES",
      "stateCode": "VC",
      "latitude": "38.74502000",
      "longitude": "-0.06446000"
   },
   {
      "name": "Paterna",
      "countryCode": "ES",
      "stateCode": "VC",
      "latitude": "39.50263000",
      "longitude": "-0.44079000"
   },
   {
      "name": "Pavías",
      "countryCode": "ES",
      "stateCode": "VC",
      "latitude": "39.96667000",
      "longitude": "-0.48333000"
   },
   {
      "name": "Pedralba",
      "countryCode": "ES",
      "stateCode": "VC",
      "latitude": "39.60000000",
      "longitude": "-0.71667000"
   },
   {
      "name": "Pedreguer",
      "countryCode": "ES",
      "stateCode": "VC",
      "latitude": "38.79312000",
      "longitude": "0.03411000"
   },
   {
      "name": "Pego",
      "countryCode": "ES",
      "stateCode": "VC",
      "latitude": "38.84305000",
      "longitude": "-0.11707000"
   },
   {
      "name": "Peníscola",
      "countryCode": "ES",
      "stateCode": "VC",
      "latitude": "40.35740000",
      "longitude": "0.40692000"
   },
   {
      "name": "Petrés",
      "countryCode": "ES",
      "stateCode": "VC",
      "latitude": "39.68333000",
      "longitude": "-0.30000000"
   },
   {
      "name": "Picanya",
      "countryCode": "ES",
      "stateCode": "VC",
      "latitude": "39.43333000",
      "longitude": "-0.43333000"
   },
   {
      "name": "Picassent",
      "countryCode": "ES",
      "stateCode": "VC",
      "latitude": "39.36350000",
      "longitude": "-0.45949000"
   },
   {
      "name": "Pilar de la Horadada",
      "countryCode": "ES",
      "stateCode": "VC",
      "latitude": "37.86591000",
      "longitude": "-0.79256000"
   },
   {
      "name": "Piles",
      "countryCode": "ES",
      "stateCode": "VC",
      "latitude": "38.94143000",
      "longitude": "-0.13286000"
   },
   {
      "name": "Pina de Montalgrao",
      "countryCode": "ES",
      "stateCode": "VC",
      "latitude": "40.01667000",
      "longitude": "-0.65000000"
   },
   {
      "name": "Pinet",
      "countryCode": "ES",
      "stateCode": "VC",
      "latitude": "38.98176000",
      "longitude": "-0.33870000"
   },
   {
      "name": "Pinoso",
      "countryCode": "ES",
      "stateCode": "VC",
      "latitude": "38.40164000",
      "longitude": "-1.04196000"
   },
   {
      "name": "Planes",
      "countryCode": "ES",
      "stateCode": "VC",
      "latitude": "38.78524000",
      "longitude": "-0.34271000"
   },
   {
      "name": "Polinyà de Xúquer",
      "countryCode": "ES",
      "stateCode": "VC",
      "latitude": "39.20000000",
      "longitude": "-0.36667000"
   },
   {
      "name": "Polop",
      "countryCode": "ES",
      "stateCode": "VC",
      "latitude": "38.62258000",
      "longitude": "-0.13090000"
   },
   {
      "name": "Portell de Morella",
      "countryCode": "ES",
      "stateCode": "VC",
      "latitude": "40.53267000",
      "longitude": "-0.26249000"
   },
   {
      "name": "Potríes",
      "countryCode": "ES",
      "stateCode": "VC",
      "latitude": "38.91617000",
      "longitude": "-0.19594000"
   },
   {
      "name": "Provincia de Alicante",
      "countryCode": "ES",
      "stateCode": "VC",
      "latitude": "38.50000000",
      "longitude": "-0.50000000"
   },
   {
      "name": "Província de Castelló",
      "countryCode": "ES",
      "stateCode": "VC",
      "latitude": "40.16667000",
      "longitude": "-0.16667000"
   },
   {
      "name": "Província de València",
      "countryCode": "ES",
      "stateCode": "VC",
      "latitude": "39.33333000",
      "longitude": "-0.83333000"
   },
   {
      "name": "Puebla de Arenoso",
      "countryCode": "ES",
      "stateCode": "VC",
      "latitude": "40.10000000",
      "longitude": "-0.58333000"
   },
   {
      "name": "Puebla de San Miguel",
      "countryCode": "ES",
      "stateCode": "VC",
      "latitude": "40.05000000",
      "longitude": "-1.13333000"
   },
   {
      "name": "Puig",
      "countryCode": "ES",
      "stateCode": "VC",
      "latitude": "39.58869000",
      "longitude": "-0.30333000"
   },
   {
      "name": "Puçol",
      "countryCode": "ES",
      "stateCode": "VC",
      "latitude": "39.61667000",
      "longitude": "-0.30000000"
   },
   {
      "name": "Quart de Poblet",
      "countryCode": "ES",
      "stateCode": "VC",
      "latitude": "39.48139000",
      "longitude": "-0.43937000"
   },
   {
      "name": "Quart de les Valls",
      "countryCode": "ES",
      "stateCode": "VC",
      "latitude": "39.73333000",
      "longitude": "-0.26667000"
   },
   {
      "name": "Quartell",
      "countryCode": "ES",
      "stateCode": "VC",
      "latitude": "39.73751000",
      "longitude": "-0.26458000"
   },
   {
      "name": "Quatretonda",
      "countryCode": "ES",
      "stateCode": "VC",
      "latitude": "38.95000000",
      "longitude": "-0.40000000"
   },
   {
      "name": "Quesa",
      "countryCode": "ES",
      "stateCode": "VC",
      "latitude": "39.11970000",
      "longitude": "-0.74000000"
   },
   {
      "name": "Rafal",
      "countryCode": "ES",
      "stateCode": "VC",
      "latitude": "38.10458000",
      "longitude": "-0.84904000"
   },
   {
      "name": "Rafelcofer",
      "countryCode": "ES",
      "stateCode": "VC",
      "latitude": "38.93248000",
      "longitude": "-0.16772000"
   },
   {
      "name": "Rafelguaraf",
      "countryCode": "ES",
      "stateCode": "VC",
      "latitude": "39.05126000",
      "longitude": "-0.45543000"
   },
   {
      "name": "Real de Gandía",
      "countryCode": "ES",
      "stateCode": "VC",
      "latitude": "38.94817000",
      "longitude": "-0.19239000"
   },
   {
      "name": "Real de Montroi",
      "countryCode": "ES",
      "stateCode": "VC",
      "latitude": "39.33333000",
      "longitude": "-0.60000000"
   },
   {
      "name": "Redován",
      "countryCode": "ES",
      "stateCode": "VC",
      "latitude": "38.11619000",
      "longitude": "-0.90981000"
   },
   {
      "name": "Relleu",
      "countryCode": "ES",
      "stateCode": "VC",
      "latitude": "38.58725000",
      "longitude": "-0.31157000"
   },
   {
      "name": "Requena",
      "countryCode": "ES",
      "stateCode": "VC",
      "latitude": "39.48834000",
      "longitude": "-1.10044000"
   },
   {
      "name": "Ribarroja del Turia",
      "countryCode": "ES",
      "stateCode": "VC",
      "latitude": "39.54595000",
      "longitude": "-0.57069000"
   },
   {
      "name": "Ribesalbes",
      "countryCode": "ES",
      "stateCode": "VC",
      "latitude": "40.01667000",
      "longitude": "-0.26667000"
   },
   {
      "name": "Riola",
      "countryCode": "ES",
      "stateCode": "VC",
      "latitude": "39.20000000",
      "longitude": "-0.33333000"
   },
   {
      "name": "Rocafort",
      "countryCode": "ES",
      "stateCode": "VC",
      "latitude": "39.53333000",
      "longitude": "-0.40000000"
   },
   {
      "name": "Rojales",
      "countryCode": "ES",
      "stateCode": "VC",
      "latitude": "38.08799000",
      "longitude": "-0.72544000"
   },
   {
      "name": "Rosell",
      "countryCode": "ES",
      "stateCode": "VC",
      "latitude": "40.61792000",
      "longitude": "0.22133000"
   },
   {
      "name": "Rotglá y Corbera",
      "countryCode": "ES",
      "stateCode": "VC",
      "latitude": "39.00465000",
      "longitude": "-0.56482000"
   },
   {
      "name": "Rugat",
      "countryCode": "ES",
      "stateCode": "VC",
      "latitude": "38.87933000",
      "longitude": "-0.36115000"
   },
   {
      "name": "Ráfol de Salem",
      "countryCode": "ES",
      "stateCode": "VC",
      "latitude": "38.86651000",
      "longitude": "-0.39991000"
   },
   {
      "name": "Rótova",
      "countryCode": "ES",
      "stateCode": "VC",
      "latitude": "38.93205000",
      "longitude": "-0.25765000"
   },
   {
      "name": "Sacañet",
      "countryCode": "ES",
      "stateCode": "VC",
      "latitude": "39.86667000",
      "longitude": "-0.71667000"
   },
   {
      "name": "Sagra",
      "countryCode": "ES",
      "stateCode": "VC",
      "latitude": "38.81102000",
      "longitude": "-0.06559000"
   },
   {
      "name": "Sagunto",
      "countryCode": "ES",
      "stateCode": "VC",
      "latitude": "39.68333000",
      "longitude": "-0.26667000"
   },
   {
      "name": "Salinas",
      "countryCode": "ES",
      "stateCode": "VC",
      "latitude": "38.52025000",
      "longitude": "-0.91202000"
   },
   {
      "name": "San Juan de Alicante",
      "countryCode": "ES",
      "stateCode": "VC",
      "latitude": "38.40148000",
      "longitude": "-0.43623000"
   },
   {
      "name": "San Juan de Moró",
      "countryCode": "ES",
      "stateCode": "VC",
      "latitude": "40.05990000",
      "longitude": "-0.13691000"
   },
   {
      "name": "San Juan de Énova",
      "countryCode": "ES",
      "stateCode": "VC",
      "latitude": "39.07104000",
      "longitude": "-0.48705000"
   },
   {
      "name": "San Miguel de Salinas",
      "countryCode": "ES",
      "stateCode": "VC",
      "latitude": "37.97972000",
      "longitude": "-0.78904000"
   },
   {
      "name": "San Vicent del Raspeig",
      "countryCode": "ES",
      "stateCode": "VC",
      "latitude": "38.39640000",
      "longitude": "-0.52550000"
   },
   {
      "name": "Sanet y Negrals",
      "countryCode": "ES",
      "stateCode": "VC",
      "latitude": "38.81967000",
      "longitude": "-0.03406000"
   },
   {
      "name": "Sant Jordi",
      "countryCode": "ES",
      "stateCode": "VC",
      "latitude": "40.50982000",
      "longitude": "0.33208000"
   },
   {
      "name": "Santa Magdalena de Pulpis",
      "countryCode": "ES",
      "stateCode": "VC",
      "latitude": "40.35625000",
      "longitude": "0.30258000"
   },
   {
      "name": "Santa Pola",
      "countryCode": "ES",
      "stateCode": "VC",
      "latitude": "38.19165000",
      "longitude": "-0.56580000"
   },
   {
      "name": "Sarratella",
      "countryCode": "ES",
      "stateCode": "VC",
      "latitude": "40.31284000",
      "longitude": "0.03150000"
   },
   {
      "name": "Sax",
      "countryCode": "ES",
      "stateCode": "VC",
      "latitude": "38.53729000",
      "longitude": "-0.81779000"
   },
   {
      "name": "Sedaví",
      "countryCode": "ES",
      "stateCode": "VC",
      "latitude": "39.43333000",
      "longitude": "-0.38333000"
   },
   {
      "name": "Segart",
      "countryCode": "ES",
      "stateCode": "VC",
      "latitude": "39.68333000",
      "longitude": "-0.36667000"
   },
   {
      "name": "Segorbe",
      "countryCode": "ES",
      "stateCode": "VC",
      "latitude": "39.85000000",
      "longitude": "-0.48333000"
   },
   {
      "name": "Sella",
      "countryCode": "ES",
      "stateCode": "VC",
      "latitude": "38.60926000",
      "longitude": "-0.27305000"
   },
   {
      "name": "Sellent",
      "countryCode": "ES",
      "stateCode": "VC",
      "latitude": "39.03221000",
      "longitude": "-0.58784000"
   },
   {
      "name": "Sempere",
      "countryCode": "ES",
      "stateCode": "VC",
      "latitude": "38.92014000",
      "longitude": "-0.48140000"
   },
   {
      "name": "Senija",
      "countryCode": "ES",
      "stateCode": "VC",
      "latitude": "38.72804000",
      "longitude": "0.04176000"
   },
   {
      "name": "Senyera",
      "countryCode": "ES",
      "stateCode": "VC",
      "latitude": "39.06667000",
      "longitude": "-0.50000000"
   },
   {
      "name": "Serra",
      "countryCode": "ES",
      "stateCode": "VC",
      "latitude": "39.68333000",
      "longitude": "-0.43333000"
   },
   {
      "name": "Sierra-Engarcerán",
      "countryCode": "ES",
      "stateCode": "VC",
      "latitude": "40.26929000",
      "longitude": "-0.01892000"
   },
   {
      "name": "Siete Aguas",
      "countryCode": "ES",
      "stateCode": "VC",
      "latitude": "39.46667000",
      "longitude": "-0.91667000"
   },
   {
      "name": "Silla",
      "countryCode": "ES",
      "stateCode": "VC",
      "latitude": "39.36257000",
      "longitude": "-0.41169000"
   },
   {
      "name": "Simat de la Valldigna",
      "countryCode": "ES",
      "stateCode": "VC",
      "latitude": "39.03333000",
      "longitude": "-0.31667000"
   },
   {
      "name": "Sinarcas",
      "countryCode": "ES",
      "stateCode": "VC",
      "latitude": "39.73333000",
      "longitude": "-1.23333000"
   },
   {
      "name": "Sollana",
      "countryCode": "ES",
      "stateCode": "VC",
      "latitude": "39.27830000",
      "longitude": "-0.38238000"
   },
   {
      "name": "Soneja",
      "countryCode": "ES",
      "stateCode": "VC",
      "latitude": "39.81667000",
      "longitude": "-0.41667000"
   },
   {
      "name": "Sot de Chera",
      "countryCode": "ES",
      "stateCode": "VC",
      "latitude": "39.63333000",
      "longitude": "-0.90000000"
   },
   {
      "name": "Sot de Ferrer",
      "countryCode": "ES",
      "stateCode": "VC",
      "latitude": "39.80000000",
      "longitude": "-0.40000000"
   },
   {
      "name": "Sueca",
      "countryCode": "ES",
      "stateCode": "VC",
      "latitude": "39.20260000",
      "longitude": "-0.31114000"
   },
   {
      "name": "Sumacàrcer",
      "countryCode": "ES",
      "stateCode": "VC",
      "latitude": "39.10000000",
      "longitude": "-0.63333000"
   },
   {
      "name": "Tales",
      "countryCode": "ES",
      "stateCode": "VC",
      "latitude": "39.94844000",
      "longitude": "-0.30719000"
   },
   {
      "name": "Tavernes Blanques",
      "countryCode": "ES",
      "stateCode": "VC",
      "latitude": "39.50000000",
      "longitude": "-0.36667000"
   },
   {
      "name": "Tavernes de la Valldigna",
      "countryCode": "ES",
      "stateCode": "VC",
      "latitude": "39.07195000",
      "longitude": "-0.26623000"
   },
   {
      "name": "Terrateig",
      "countryCode": "ES",
      "stateCode": "VC",
      "latitude": "38.89453000",
      "longitude": "-0.31993000"
   },
   {
      "name": "Teulada",
      "countryCode": "ES",
      "stateCode": "VC",
      "latitude": "38.72940000",
      "longitude": "0.10383000"
   },
   {
      "name": "Tibi",
      "countryCode": "ES",
      "stateCode": "VC",
      "latitude": "38.53072000",
      "longitude": "-0.57776000"
   },
   {
      "name": "Titaguas",
      "countryCode": "ES",
      "stateCode": "VC",
      "latitude": "39.86667000",
      "longitude": "-1.08333000"
   },
   {
      "name": "Todolella",
      "countryCode": "ES",
      "stateCode": "VC",
      "latitude": "40.64675000",
      "longitude": "-0.24675000"
   },
   {
      "name": "Toga",
      "countryCode": "ES",
      "stateCode": "VC",
      "latitude": "40.05000000",
      "longitude": "-0.36667000"
   },
   {
      "name": "Tollos",
      "countryCode": "ES",
      "stateCode": "VC",
      "latitude": "38.75629000",
      "longitude": "-0.27466000"
   },
   {
      "name": "Tormos",
      "countryCode": "ES",
      "stateCode": "VC",
      "latitude": "38.80143000",
      "longitude": "-0.07160000"
   },
   {
      "name": "Torralba del Pinar",
      "countryCode": "ES",
      "stateCode": "VC",
      "latitude": "39.98333000",
      "longitude": "-0.43333000"
   },
   {
      "name": "Torre de la Horadada",
      "countryCode": "ES",
      "stateCode": "VC",
      "latitude": "37.86970000",
      "longitude": "-0.75840000"
   },
   {
      "name": "Torreblanca",
      "countryCode": "ES",
      "stateCode": "VC",
      "latitude": "40.22033000",
      "longitude": "0.19650000"
   },
   {
      "name": "Torrechiva",
      "countryCode": "ES",
      "stateCode": "VC",
      "latitude": "40.05000000",
      "longitude": "-0.40000000"
   },
   {
      "name": "Torrella",
      "countryCode": "ES",
      "stateCode": "VC",
      "latitude": "38.98446000",
      "longitude": "-0.56727000"
   },
   {
      "name": "Torrent",
      "countryCode": "ES",
      "stateCode": "VC",
      "latitude": "39.43705000",
      "longitude": "-0.46546000"
   },
   {
      "name": "Torrevieja",
      "countryCode": "ES",
      "stateCode": "VC",
      "latitude": "37.97872000",
      "longitude": "-0.68222000"
   },
   {
      "name": "Torás",
      "countryCode": "ES",
      "stateCode": "VC",
      "latitude": "39.91667000",
      "longitude": "-0.68333000"
   },
   {
      "name": "Tous",
      "countryCode": "ES",
      "stateCode": "VC",
      "latitude": "39.13951000",
      "longitude": "-0.58777000"
   },
   {
      "name": "Traiguera",
      "countryCode": "ES",
      "stateCode": "VC",
      "latitude": "40.52511000",
      "longitude": "0.29023000"
   },
   {
      "name": "Turís",
      "countryCode": "ES",
      "stateCode": "VC",
      "latitude": "39.38333000",
      "longitude": "-0.70000000"
   },
   {
      "name": "Tuéjar",
      "countryCode": "ES",
      "stateCode": "VC",
      "latitude": "39.76667000",
      "longitude": "-1.03333000"
   },
   {
      "name": "Utiel",
      "countryCode": "ES",
      "stateCode": "VC",
      "latitude": "39.56667000",
      "longitude": "-1.20000000"
   },
   {
      "name": "Valencia",
      "countryCode": "ES",
      "stateCode": "VC",
      "latitude": "39.46975000",
      "longitude": "-0.37739000"
   },
   {
      "name": "Vall de Almonacid",
      "countryCode": "ES",
      "stateCode": "VC",
      "latitude": "39.90000000",
      "longitude": "-0.45000000"
   },
   {
      "name": "Vall de Ebo",
      "countryCode": "ES",
      "stateCode": "VC",
      "latitude": "38.80561000",
      "longitude": "-0.15890000"
   },
   {
      "name": "Vallada",
      "countryCode": "ES",
      "stateCode": "VC",
      "latitude": "38.89575000",
      "longitude": "-0.69104000"
   },
   {
      "name": "Vallanca",
      "countryCode": "ES",
      "stateCode": "VC",
      "latitude": "40.06667000",
      "longitude": "-1.33333000"
   },
   {
      "name": "Vallibona",
      "countryCode": "ES",
      "stateCode": "VC",
      "latitude": "40.60300000",
      "longitude": "0.04642000"
   },
   {
      "name": "Vallés",
      "countryCode": "ES",
      "stateCode": "VC",
      "latitude": "38.98518000",
      "longitude": "-0.55696000"
   },
   {
      "name": "Venta del Moro",
      "countryCode": "ES",
      "stateCode": "VC",
      "latitude": "39.48333000",
      "longitude": "-1.35000000"
   },
   {
      "name": "Vergel",
      "countryCode": "ES",
      "stateCode": "VC",
      "latitude": "38.84709000",
      "longitude": "0.01034000"
   },
   {
      "name": "Vila-real",
      "countryCode": "ES",
      "stateCode": "VC",
      "latitude": "39.93830000",
      "longitude": "-0.10087000"
   },
   {
      "name": "Vilamarxant",
      "countryCode": "ES",
      "stateCode": "VC",
      "latitude": "39.56916000",
      "longitude": "-0.62453000"
   },
   {
      "name": "Villafamés",
      "countryCode": "ES",
      "stateCode": "VC",
      "latitude": "40.11667000",
      "longitude": "-0.05000000"
   },
   {
      "name": "Villafranca del Cid",
      "countryCode": "ES",
      "stateCode": "VC",
      "latitude": "40.42885000",
      "longitude": "-0.25775000"
   },
   {
      "name": "Villahermosa del Río",
      "countryCode": "ES",
      "stateCode": "VC",
      "latitude": "40.20268000",
      "longitude": "-0.41990000"
   },
   {
      "name": "Villajoyosa",
      "countryCode": "ES",
      "stateCode": "VC",
      "latitude": "38.50754000",
      "longitude": "-0.23346000"
   },
   {
      "name": "Villalonga",
      "countryCode": "ES",
      "stateCode": "VC",
      "latitude": "38.88566000",
      "longitude": "-0.20795000"
   },
   {
      "name": "Villamalur",
      "countryCode": "ES",
      "stateCode": "VC",
      "latitude": "39.96667000",
      "longitude": "-0.40000000"
   },
   {
      "name": "Villanueva de Castellón",
      "countryCode": "ES",
      "stateCode": "VC",
      "latitude": "39.07741000",
      "longitude": "-0.51167000"
   },
   {
      "name": "Villanueva de Viver",
      "countryCode": "ES",
      "stateCode": "VC",
      "latitude": "40.05000000",
      "longitude": "-0.65000000"
   },
   {
      "name": "Villar del Arzobispo",
      "countryCode": "ES",
      "stateCode": "VC",
      "latitude": "39.73333000",
      "longitude": "-0.81667000"
   },
   {
      "name": "Villargordo del Cabriel",
      "countryCode": "ES",
      "stateCode": "VC",
      "latitude": "39.53333000",
      "longitude": "-1.43333000"
   },
   {
      "name": "Villavieja",
      "countryCode": "ES",
      "stateCode": "VC",
      "latitude": "39.85000000",
      "longitude": "-0.18333000"
   },
   {
      "name": "Villena",
      "countryCode": "ES",
      "stateCode": "VC",
      "latitude": "38.63730000",
      "longitude": "-0.86568000"
   },
   {
      "name": "Villores",
      "countryCode": "ES",
      "stateCode": "VC",
      "latitude": "40.67478000",
      "longitude": "-0.20023000"
   },
   {
      "name": "Vinalesa",
      "countryCode": "ES",
      "stateCode": "VC",
      "latitude": "39.53333000",
      "longitude": "-0.36667000"
   },
   {
      "name": "Vinaròs",
      "countryCode": "ES",
      "stateCode": "VC",
      "latitude": "40.47033000",
      "longitude": "0.47559000"
   },
   {
      "name": "Vistabella del Maestrazgo",
      "countryCode": "ES",
      "stateCode": "VC",
      "latitude": "40.29617000",
      "longitude": "-0.29435000"
   },
   {
      "name": "Viver",
      "countryCode": "ES",
      "stateCode": "VC",
      "latitude": "39.91667000",
      "longitude": "-0.60000000"
   },
   {
      "name": "Xeraco,Jaraco",
      "countryCode": "ES",
      "stateCode": "VC",
      "latitude": "39.03333000",
      "longitude": "-0.21667000"
   },
   {
      "name": "Xeresa",
      "countryCode": "ES",
      "stateCode": "VC",
      "latitude": "39.01667000",
      "longitude": "-0.21667000"
   },
   {
      "name": "Xirivella",
      "countryCode": "ES",
      "stateCode": "VC",
      "latitude": "39.46588000",
      "longitude": "-0.42589000"
   },
   {
      "name": "Xàtiva",
      "countryCode": "ES",
      "stateCode": "VC",
      "latitude": "38.99042000",
      "longitude": "-0.51852000"
   },
   {
      "name": "Yátova",
      "countryCode": "ES",
      "stateCode": "VC",
      "latitude": "39.38333000",
      "longitude": "-0.80000000"
   },
   {
      "name": "Zarra",
      "countryCode": "ES",
      "stateCode": "VC",
      "latitude": "39.09175000",
      "longitude": "-1.07532000"
   },
   {
      "name": "Zorita del Maestrazgo",
      "countryCode": "ES",
      "stateCode": "VC",
      "latitude": "40.72817000",
      "longitude": "-0.16667000"
   },
   {
      "name": "Zucaina",
      "countryCode": "ES",
      "stateCode": "VC",
      "latitude": "40.11667000",
      "longitude": "-0.41667000"
   },
   {
      "name": "els Poblets",
      "countryCode": "ES",
      "stateCode": "VC",
      "latitude": "38.85381000",
      "longitude": "0.02103000"
   },
   {
      "name": "l'Alcora",
      "countryCode": "ES",
      "stateCode": "VC",
      "latitude": "40.06667000",
      "longitude": "-0.20000000"
   },
   {
      "name": "l'Alfàs del Pi",
      "countryCode": "ES",
      "stateCode": "VC",
      "latitude": "38.58055000",
      "longitude": "-0.10321000"
   },
   {
      "name": "la Nucia",
      "countryCode": "ES",
      "stateCode": "VC",
      "latitude": "38.61372000",
      "longitude": "-0.12690000"
   }
]