[
   {
      "name": "Ahırlı İlçesi",
      "countryCode": "TR",
      "stateCode": "42",
      "latitude": "37.24828000",
      "longitude": "32.12419000"
   },
   {
      "name": "Akören İlçesi",
      "countryCode": "TR",
      "stateCode": "42",
      "latitude": "37.46265000",
      "longitude": "32.37489000"
   },
   {
      "name": "Akşehir",
      "countryCode": "TR",
      "stateCode": "42",
      "latitude": "38.35750000",
      "longitude": "31.41639000"
   },
   {
      "name": "Altınekin",
      "countryCode": "TR",
      "stateCode": "42",
      "latitude": "38.30778000",
      "longitude": "32.86861000"
   },
   {
      "name": "Beyşehir",
      "countryCode": "TR",
      "stateCode": "42",
      "latitude": "37.67735000",
      "longitude": "31.72458000"
   },
   {
      "name": "Bozkır",
      "countryCode": "TR",
      "stateCode": "42",
      "latitude": "37.18963000",
      "longitude": "32.24736000"
   },
   {
      "name": "Cihanbeyli",
      "countryCode": "TR",
      "stateCode": "42",
      "latitude": "38.66072000",
      "longitude": "32.92437000"
   },
   {
      "name": "Cihanbeyli District",
      "countryCode": "TR",
      "stateCode": "42",
      "latitude": "38.67131000",
      "longitude": "32.92522000"
   },
   {
      "name": "Derbent",
      "countryCode": "TR",
      "stateCode": "42",
      "latitude": "38.01422000",
      "longitude": "32.01639000"
   },
   {
      "name": "Derebucak",
      "countryCode": "TR",
      "stateCode": "42",
      "latitude": "37.39179000",
      "longitude": "31.50918000"
   },
   {
      "name": "Doğanhisar",
      "countryCode": "TR",
      "stateCode": "42",
      "latitude": "38.14630000",
      "longitude": "31.67648000"
   },
   {
      "name": "Emirgazi",
      "countryCode": "TR",
      "stateCode": "42",
      "latitude": "37.90222000",
      "longitude": "33.83722000"
   },
   {
      "name": "Ereğli",
      "countryCode": "TR",
      "stateCode": "42",
      "latitude": "37.51333000",
      "longitude": "34.04672000"
   },
   {
      "name": "Güneysınır İlçesi",
      "countryCode": "TR",
      "stateCode": "42",
      "latitude": "37.27977000",
      "longitude": "32.73735000"
   },
   {
      "name": "Hadim",
      "countryCode": "TR",
      "stateCode": "42",
      "latitude": "36.98776000",
      "longitude": "32.45674000"
   },
   {
      "name": "Halkapınar",
      "countryCode": "TR",
      "stateCode": "42",
      "latitude": "37.43394000",
      "longitude": "34.18743000"
   },
   {
      "name": "Hüyük",
      "countryCode": "TR",
      "stateCode": "42",
      "latitude": "37.95388000",
      "longitude": "31.59639000"
   },
   {
      "name": "Ilgın",
      "countryCode": "TR",
      "stateCode": "42",
      "latitude": "38.27917000",
      "longitude": "31.91389000"
   },
   {
      "name": "Kadınhanı",
      "countryCode": "TR",
      "stateCode": "42",
      "latitude": "38.23972000",
      "longitude": "32.21139000"
   },
   {
      "name": "Karapınar",
      "countryCode": "TR",
      "stateCode": "42",
      "latitude": "37.71596000",
      "longitude": "33.55064000"
   },
   {
      "name": "Karatay",
      "countryCode": "TR",
      "stateCode": "42",
      "latitude": "37.94001000",
      "longitude": "32.99828000"
   },
   {
      "name": "Konya",
      "countryCode": "TR",
      "stateCode": "42",
      "latitude": "37.87135000",
      "longitude": "32.48464000"
   },
   {
      "name": "Kulu",
      "countryCode": "TR",
      "stateCode": "42",
      "latitude": "39.09513000",
      "longitude": "33.07989000"
   },
   {
      "name": "Kuyulusebil",
      "countryCode": "TR",
      "stateCode": "42",
      "latitude": "38.65389000",
      "longitude": "32.52972000"
   },
   {
      "name": "Meram İlçesi",
      "countryCode": "TR",
      "stateCode": "42",
      "latitude": "37.83984000",
      "longitude": "32.47111000"
   },
   {
      "name": "Ovakavağı",
      "countryCode": "TR",
      "stateCode": "42",
      "latitude": "37.71079000",
      "longitude": "32.93482000"
   },
   {
      "name": "Sarayönü",
      "countryCode": "TR",
      "stateCode": "42",
      "latitude": "38.26201000",
      "longitude": "32.40457000"
   },
   {
      "name": "Selcuklu",
      "countryCode": "TR",
      "stateCode": "42",
      "latitude": "38.05761000",
      "longitude": "32.54088000"
   },
   {
      "name": "Seydişehir",
      "countryCode": "TR",
      "stateCode": "42",
      "latitude": "37.41926000",
      "longitude": "31.84527000"
   },
   {
      "name": "Taşkent",
      "countryCode": "TR",
      "stateCode": "42",
      "latitude": "36.92430000",
      "longitude": "32.49131000"
   },
   {
      "name": "Tuzlukçu",
      "countryCode": "TR",
      "stateCode": "42",
      "latitude": "38.47778000",
      "longitude": "31.62639000"
   },
   {
      "name": "Yalıhüyük",
      "countryCode": "TR",
      "stateCode": "42",
      "latitude": "37.30077000",
      "longitude": "32.08548000"
   },
   {
      "name": "Yarma",
      "countryCode": "TR",
      "stateCode": "42",
      "latitude": "37.81149000",
      "longitude": "32.88278000"
   },
   {
      "name": "Yeniceoba",
      "countryCode": "TR",
      "stateCode": "42",
      "latitude": "38.86972000",
      "longitude": "32.78833000"
   },
   {
      "name": "Yunak",
      "countryCode": "TR",
      "stateCode": "42",
      "latitude": "38.81418000",
      "longitude": "31.73223000"
   },
   {
      "name": "Çatalhöyük",
      "countryCode": "TR",
      "stateCode": "42",
      "latitude": "37.66847000",
      "longitude": "32.82689000"
   },
   {
      "name": "Çeltik İlçesi",
      "countryCode": "TR",
      "stateCode": "42",
      "latitude": "39.03388000",
      "longitude": "31.79408000"
   },
   {
      "name": "Çumra",
      "countryCode": "TR",
      "stateCode": "42",
      "latitude": "37.57320000",
      "longitude": "32.77446000"
   }
]