[
   {
      "name": "Arvika",
      "countryCode": "SE",
      "stateCode": "S",
      "latitude": "59.65528000",
      "longitude": "12.58518000"
   },
   {
      "name": "Björneborg",
      "countryCode": "SE",
      "stateCode": "S",
      "latitude": "59.24122000",
      "longitude": "14.24942000"
   },
   {
      "name": "Charlottenberg",
      "countryCode": "SE",
      "stateCode": "S",
      "latitude": "59.88422000",
      "longitude": "12.30398000"
   },
   {
      "name": "Deje",
      "countryCode": "SE",
      "stateCode": "S",
      "latitude": "59.60300000",
      "longitude": "13.47200000"
   },
   {
      "name": "Ekshärad",
      "countryCode": "SE",
      "stateCode": "S",
      "latitude": "60.17275000",
      "longitude": "13.49647000"
   },
   {
      "name": "Filipstad",
      "countryCode": "SE",
      "stateCode": "S",
      "latitude": "59.71236000",
      "longitude": "14.16831000"
   },
   {
      "name": "Forshaga",
      "countryCode": "SE",
      "stateCode": "S",
      "latitude": "59.52541000",
      "longitude": "13.48127000"
   },
   {
      "name": "Grums",
      "countryCode": "SE",
      "stateCode": "S",
      "latitude": "59.35141000",
      "longitude": "13.11105000"
   },
   {
      "name": "Hagfors",
      "countryCode": "SE",
      "stateCode": "S",
      "latitude": "60.02378000",
      "longitude": "13.67214000"
   },
   {
      "name": "Karlstad",
      "countryCode": "SE",
      "stateCode": "S",
      "latitude": "59.37930000",
      "longitude": "13.50357000"
   },
   {
      "name": "Kil",
      "countryCode": "SE",
      "stateCode": "S",
      "latitude": "59.50234000",
      "longitude": "13.31277000"
   },
   {
      "name": "Kristinehamn",
      "countryCode": "SE",
      "stateCode": "S",
      "latitude": "59.30978000",
      "longitude": "14.10808000"
   },
   {
      "name": "Molkom",
      "countryCode": "SE",
      "stateCode": "S",
      "latitude": "59.60057000",
      "longitude": "13.72115000"
   },
   {
      "name": "Munkfors",
      "countryCode": "SE",
      "stateCode": "S",
      "latitude": "59.83856000",
      "longitude": "13.54361000"
   },
   {
      "name": "Råtorp",
      "countryCode": "SE",
      "stateCode": "S",
      "latitude": "59.40197000",
      "longitude": "13.49144000"
   },
   {
      "name": "Skattkärr",
      "countryCode": "SE",
      "stateCode": "S",
      "latitude": "59.41208000",
      "longitude": "13.67078000"
   },
   {
      "name": "Skoghall",
      "countryCode": "SE",
      "stateCode": "S",
      "latitude": "59.32324000",
      "longitude": "13.46552000"
   },
   {
      "name": "Skåre",
      "countryCode": "SE",
      "stateCode": "S",
      "latitude": "59.43333000",
      "longitude": "13.43333000"
   },
   {
      "name": "Slottsbron",
      "countryCode": "SE",
      "stateCode": "S",
      "latitude": "59.32270000",
      "longitude": "13.10268000"
   },
   {
      "name": "Storfors",
      "countryCode": "SE",
      "stateCode": "S",
      "latitude": "59.53183000",
      "longitude": "14.27201000"
   },
   {
      "name": "Sunne",
      "countryCode": "SE",
      "stateCode": "S",
      "latitude": "59.83764000",
      "longitude": "13.14302000"
   },
   {
      "name": "Säffle",
      "countryCode": "SE",
      "stateCode": "S",
      "latitude": "59.13229000",
      "longitude": "12.92888000"
   },
   {
      "name": "Torsby",
      "countryCode": "SE",
      "stateCode": "S",
      "latitude": "60.13527000",
      "longitude": "13.00820000"
   },
   {
      "name": "Töcksfors",
      "countryCode": "SE",
      "stateCode": "S",
      "latitude": "59.50816000",
      "longitude": "11.84431000"
   },
   {
      "name": "Vålberg",
      "countryCode": "SE",
      "stateCode": "S",
      "latitude": "59.39145000",
      "longitude": "13.18633000"
   },
   {
      "name": "Åmotfors",
      "countryCode": "SE",
      "stateCode": "S",
      "latitude": "59.76191000",
      "longitude": "12.36211000"
   },
   {
      "name": "Årjäng",
      "countryCode": "SE",
      "stateCode": "S",
      "latitude": "59.39217000",
      "longitude": "12.13336000"
   }
]