[
   {
      "name": "Anse Rouge",
      "countryCode": "HT",
      "stateCode": "AR",
      "latitude": "19.63382000",
      "longitude": "-73.05530000"
   },
   {
      "name": "Arrondissement de Saint-Marc",
      "countryCode": "HT",
      "stateCode": "AR",
      "latitude": "19.00000000",
      "longitude": "-72.50000000"
   },
   {
      "name": "Dessalines",
      "countryCode": "HT",
      "stateCode": "AR",
      "latitude": "19.26177000",
      "longitude": "-72.51611000"
   },
   {
      "name": "Désarmes",
      "countryCode": "HT",
      "stateCode": "AR",
      "latitude": "18.99345000",
      "longitude": "-72.39058000"
   },
   {
      "name": "Ennery",
      "countryCode": "HT",
      "stateCode": "AR",
      "latitude": "19.48342000",
      "longitude": "-72.48537000"
   },
   {
      "name": "Gonaïves",
      "countryCode": "HT",
      "stateCode": "AR",
      "latitude": "19.44755000",
      "longitude": "-72.68928000"
   },
   {
      "name": "Grande Saline",
      "countryCode": "HT",
      "stateCode": "AR",
      "latitude": "19.26513000",
      "longitude": "-72.76897000"
   },
   {
      "name": "Gros Morne",
      "countryCode": "HT",
      "stateCode": "AR",
      "latitude": "19.67080000",
      "longitude": "-72.67808000"
   },
   {
      "name": "Marmelade",
      "countryCode": "HT",
      "stateCode": "AR",
      "latitude": "19.51736000",
      "longitude": "-72.36133000"
   },
   {
      "name": "Saint-Marc",
      "countryCode": "HT",
      "stateCode": "AR",
      "latitude": "19.10819000",
      "longitude": "-72.69379000"
   },
   {
      "name": "Verrettes",
      "countryCode": "HT",
      "stateCode": "AR",
      "latitude": "19.05050000",
      "longitude": "-72.46585000"
   }
]