[
   {
      "name": "Doha",
      "isoCode": "DA",
      "countryCode": "QA",
      "latitude": "25.28544730",
      "longitude": "51.53103980"
   },
   {
      "name": "Al Khor",
      "isoCode": "KH",
      "countryCode": "QA",
      "latitude": "25.68040780",
      "longitude": "51.49685020"
   },
   {
      "name": "Madinat ash Shamal",
      "isoCode": "MS",
      "countryCode": "QA",
      "latitude": "26.11827430",
      "longitude": "51.21572650"
   },
   {
      "name": "Al Rayyan Municipality",
      "isoCode": "RA",
      "countryCode": "QA",
      "latitude": "25.25225510",
      "longitude": "51.43887130"
   },
   {
      "name": "Al-Shahaniya",
      "isoCode": "SH",
      "countryCode": "QA",
      "latitude": "25.41063860",
      "longitude": "51.18460250"
   },
   {
      "name": "Umm Salal Municipality",
      "isoCode": "US",
      "countryCode": "QA",
      "latitude": "25.48752420",
      "longitude": "51.39656800"
   },
   {
      "name": "Al Wakrah",
      "isoCode": "WA",
      "countryCode": "QA",
      "latitude": "25.16593140",
      "longitude": "51.59755240"
   },
   {
      "name": "Al Daayen",
      "isoCode": "ZA",
      "countryCode": "QA",
      "latitude": "25.57845590",
      "longitude": "51.48213870"
   }
]