[
   {
      "name": "Apía",
      "countryCode": "CO",
      "stateCode": "RIS",
      "latitude": "5.10658000",
      "longitude": "-75.94244000"
   },
   {
      "name": "Balboa",
      "countryCode": "CO",
      "stateCode": "RIS",
      "latitude": "4.92284000",
      "longitude": "-75.94030000"
   },
   {
      "name": "Belén de Umbría",
      "countryCode": "CO",
      "stateCode": "RIS",
      "latitude": "5.20087000",
      "longitude": "-75.86865000"
   },
   {
      "name": "Dosquebradas",
      "countryCode": "CO",
      "stateCode": "RIS",
      "latitude": "4.83916000",
      "longitude": "-75.66727000"
   },
   {
      "name": "Guática",
      "countryCode": "CO",
      "stateCode": "RIS",
      "latitude": "5.31569000",
      "longitude": "-75.79826000"
   },
   {
      "name": "La Celia",
      "countryCode": "CO",
      "stateCode": "RIS",
      "latitude": "5.00332000",
      "longitude": "-76.00355000"
   },
   {
      "name": "La Virginia",
      "countryCode": "CO",
      "stateCode": "RIS",
      "latitude": "4.89972000",
      "longitude": "-75.88250000"
   },
   {
      "name": "Marsella",
      "countryCode": "CO",
      "stateCode": "RIS",
      "latitude": "4.95238000",
      "longitude": "-75.75265000"
   },
   {
      "name": "Mistrató",
      "countryCode": "CO",
      "stateCode": "RIS",
      "latitude": "5.29622000",
      "longitude": "-75.88390000"
   },
   {
      "name": "Pereira",
      "countryCode": "CO",
      "stateCode": "RIS",
      "latitude": "4.76896000",
      "longitude": "-75.72222000"
   },
   {
      "name": "Pueblo Rico",
      "countryCode": "CO",
      "stateCode": "RIS",
      "latitude": "5.29453000",
      "longitude": "-76.06702000"
   },
   {
      "name": "Quinchía",
      "countryCode": "CO",
      "stateCode": "RIS",
      "latitude": "5.33957000",
      "longitude": "-75.73018000"
   },
   {
      "name": "Santa Rosa de Cabal",
      "countryCode": "CO",
      "stateCode": "RIS",
      "latitude": "4.86806000",
      "longitude": "-75.62139000"
   },
   {
      "name": "Santuario",
      "countryCode": "CO",
      "stateCode": "RIS",
      "latitude": "5.05321000",
      "longitude": "-75.99060000"
   }
]