[
   {
      "name": "'s Gravenmoer",
      "countryCode": "NL",
      "stateCode": "NB",
      "latitude": "51.65594000",
      "longitude": "4.94076000"
   },
   {
      "name": "'s-Hertogenbosch",
      "countryCode": "NL",
      "stateCode": "NB",
      "latitude": "51.69917000",
      "longitude": "5.30417000"
   },
   {
      "name": "'t Hofke",
      "countryCode": "NL",
      "stateCode": "NB",
      "latitude": "51.44943000",
      "longitude": "5.51926000"
   },
   {
      "name": "Aalburg",
      "countryCode": "NL",
      "stateCode": "NB",
      "latitude": "51.75482000",
      "longitude": "5.13156000"
   },
   {
      "name": "Aalst",
      "countryCode": "NL",
      "stateCode": "NB",
      "latitude": "51.39667000",
      "longitude": "5.47778000"
   },
   {
      "name": "Aarle-Rixtel",
      "countryCode": "NL",
      "stateCode": "NB",
      "latitude": "51.50976000",
      "longitude": "5.63839000"
   },
   {
      "name": "Abcoven",
      "countryCode": "NL",
      "stateCode": "NB",
      "latitude": "51.52750000",
      "longitude": "5.08333000"
   },
   {
      "name": "Akert",
      "countryCode": "NL",
      "stateCode": "NB",
      "latitude": "51.41407000",
      "longitude": "5.55960000"
   },
   {
      "name": "Almkerk",
      "countryCode": "NL",
      "stateCode": "NB",
      "latitude": "51.77083000",
      "longitude": "4.95972000"
   },
   {
      "name": "Alphen",
      "countryCode": "NL",
      "stateCode": "NB",
      "latitude": "51.48167000",
      "longitude": "4.95833000"
   },
   {
      "name": "Andel",
      "countryCode": "NL",
      "stateCode": "NB",
      "latitude": "51.78333000",
      "longitude": "5.05833000"
   },
   {
      "name": "Asten",
      "countryCode": "NL",
      "stateCode": "NB",
      "latitude": "51.40417000",
      "longitude": "5.74861000"
   },
   {
      "name": "Baardwijk",
      "countryCode": "NL",
      "stateCode": "NB",
      "latitude": "51.69246000",
      "longitude": "5.09628000"
   },
   {
      "name": "Baarle-Nassau",
      "countryCode": "NL",
      "stateCode": "NB",
      "latitude": "51.44750000",
      "longitude": "4.92917000"
   },
   {
      "name": "Bakel",
      "countryCode": "NL",
      "stateCode": "NB",
      "latitude": "51.50333000",
      "longitude": "5.74028000"
   },
   {
      "name": "Bavel",
      "countryCode": "NL",
      "stateCode": "NB",
      "latitude": "51.56583000",
      "longitude": "4.83056000"
   },
   {
      "name": "Beek",
      "countryCode": "NL",
      "stateCode": "NB",
      "latitude": "51.52890000",
      "longitude": "5.63382000"
   },
   {
      "name": "Beers",
      "countryCode": "NL",
      "stateCode": "NB",
      "latitude": "51.72583000",
      "longitude": "5.82778000"
   },
   {
      "name": "Belcrum",
      "countryCode": "NL",
      "stateCode": "NB",
      "latitude": "51.59911000",
      "longitude": "4.76994000"
   },
   {
      "name": "Bergeijk",
      "countryCode": "NL",
      "stateCode": "NB",
      "latitude": "51.30182000",
      "longitude": "5.33946000"
   },
   {
      "name": "Bergen op Zoom",
      "countryCode": "NL",
      "stateCode": "NB",
      "latitude": "51.49500000",
      "longitude": "4.29167000"
   },
   {
      "name": "Berghem",
      "countryCode": "NL",
      "stateCode": "NB",
      "latitude": "51.76991000",
      "longitude": "5.56827000"
   },
   {
      "name": "Berlicum",
      "countryCode": "NL",
      "stateCode": "NB",
      "latitude": "51.67750000",
      "longitude": "5.40000000"
   },
   {
      "name": "Besoijen",
      "countryCode": "NL",
      "stateCode": "NB",
      "latitude": "51.68333000",
      "longitude": "5.05000000"
   },
   {
      "name": "Best",
      "countryCode": "NL",
      "stateCode": "NB",
      "latitude": "51.50750000",
      "longitude": "5.39028000"
   },
   {
      "name": "Besterd",
      "countryCode": "NL",
      "stateCode": "NB",
      "latitude": "51.56380000",
      "longitude": "5.08658000"
   },
   {
      "name": "Biesdonk",
      "countryCode": "NL",
      "stateCode": "NB",
      "latitude": "51.60613000",
      "longitude": "4.78515000"
   },
   {
      "name": "Bitswijk",
      "countryCode": "NL",
      "stateCode": "NB",
      "latitude": "51.66870000",
      "longitude": "5.60921000"
   },
   {
      "name": "Blaarthem",
      "countryCode": "NL",
      "stateCode": "NB",
      "latitude": "51.42501000",
      "longitude": "5.45784000"
   },
   {
      "name": "Bladel",
      "countryCode": "NL",
      "stateCode": "NB",
      "latitude": "51.36833000",
      "longitude": "5.22083000"
   },
   {
      "name": "Boekel",
      "countryCode": "NL",
      "stateCode": "NB",
      "latitude": "51.60333000",
      "longitude": "5.67500000"
   },
   {
      "name": "Bosschenhoofd",
      "countryCode": "NL",
      "stateCode": "NB",
      "latitude": "51.56083000",
      "longitude": "4.54028000"
   },
   {
      "name": "Boxmeer",
      "countryCode": "NL",
      "stateCode": "NB",
      "latitude": "51.64667000",
      "longitude": "5.94722000"
   },
   {
      "name": "Boxtel",
      "countryCode": "NL",
      "stateCode": "NB",
      "latitude": "51.59083000",
      "longitude": "5.32917000"
   },
   {
      "name": "Brand",
      "countryCode": "NL",
      "stateCode": "NB",
      "latitude": "51.45839000",
      "longitude": "5.62427000"
   },
   {
      "name": "Breda",
      "countryCode": "NL",
      "stateCode": "NB",
      "latitude": "51.58656000",
      "longitude": "4.77596000"
   },
   {
      "name": "Breugel",
      "countryCode": "NL",
      "stateCode": "NB",
      "latitude": "51.51750000",
      "longitude": "5.51111000"
   },
   {
      "name": "Broekhoven",
      "countryCode": "NL",
      "stateCode": "NB",
      "latitude": "51.54801000",
      "longitude": "5.09175000"
   },
   {
      "name": "Budel",
      "countryCode": "NL",
      "stateCode": "NB",
      "latitude": "51.27167000",
      "longitude": "5.57500000"
   },
   {
      "name": "Budel-Dorplein",
      "countryCode": "NL",
      "stateCode": "NB",
      "latitude": "51.23667000",
      "longitude": "5.58750000"
   },
   {
      "name": "Budel-Schoot",
      "countryCode": "NL",
      "stateCode": "NB",
      "latitude": "51.24750000",
      "longitude": "5.56528000"
   },
   {
      "name": "Chaam",
      "countryCode": "NL",
      "stateCode": "NB",
      "latitude": "51.50583000",
      "longitude": "4.86111000"
   },
   {
      "name": "Coevering",
      "countryCode": "NL",
      "stateCode": "NB",
      "latitude": "51.41742000",
      "longitude": "5.57463000"
   },
   {
      "name": "Cranendonck",
      "countryCode": "NL",
      "stateCode": "NB",
      "latitude": "51.30417000",
      "longitude": "5.58889000"
   },
   {
      "name": "Cuijk",
      "countryCode": "NL",
      "stateCode": "NB",
      "latitude": "51.73083000",
      "longitude": "5.87917000"
   },
   {
      "name": "De Blaak",
      "countryCode": "NL",
      "stateCode": "NB",
      "latitude": "51.54626000",
      "longitude": "5.04465000"
   },
   {
      "name": "De Doornakkers",
      "countryCode": "NL",
      "stateCode": "NB",
      "latitude": "51.43844000",
      "longitude": "5.50887000"
   },
   {
      "name": "De Kruiskamp",
      "countryCode": "NL",
      "stateCode": "NB",
      "latitude": "51.69978000",
      "longitude": "5.26032000"
   },
   {
      "name": "De Reit",
      "countryCode": "NL",
      "stateCode": "NB",
      "latitude": "51.56038000",
      "longitude": "5.04932000"
   },
   {
      "name": "De Rompert",
      "countryCode": "NL",
      "stateCode": "NB",
      "latitude": "51.71667000",
      "longitude": "5.31667000"
   },
   {
      "name": "Den Dungen",
      "countryCode": "NL",
      "stateCode": "NB",
      "latitude": "51.66500000",
      "longitude": "5.37222000"
   },
   {
      "name": "Deurne",
      "countryCode": "NL",
      "stateCode": "NB",
      "latitude": "51.46388900",
      "longitude": "5.79500000"
   },
   {
      "name": "Deuteren",
      "countryCode": "NL",
      "stateCode": "NB",
      "latitude": "51.68667000",
      "longitude": "5.26667000"
   },
   {
      "name": "Diessen",
      "countryCode": "NL",
      "stateCode": "NB",
      "latitude": "51.47583000",
      "longitude": "5.17500000"
   },
   {
      "name": "Dinteloord",
      "countryCode": "NL",
      "stateCode": "NB",
      "latitude": "51.63500000",
      "longitude": "4.36944000"
   },
   {
      "name": "Dommelen",
      "countryCode": "NL",
      "stateCode": "NB",
      "latitude": "51.34624000",
      "longitude": "5.43394000"
   },
   {
      "name": "Dongen",
      "countryCode": "NL",
      "stateCode": "NB",
      "latitude": "51.62667000",
      "longitude": "4.93889000"
   },
   {
      "name": "Donk",
      "countryCode": "NL",
      "stateCode": "NB",
      "latitude": "51.53843000",
      "longitude": "5.62914000"
   },
   {
      "name": "Doonheide",
      "countryCode": "NL",
      "stateCode": "NB",
      "latitude": "51.56667000",
      "longitude": "5.69444000"
   },
   {
      "name": "Dorst",
      "countryCode": "NL",
      "stateCode": "NB",
      "latitude": "51.59000000",
      "longitude": "4.85694000"
   },
   {
      "name": "Duizel",
      "countryCode": "NL",
      "stateCode": "NB",
      "latitude": "51.36833000",
      "longitude": "5.29722000"
   },
   {
      "name": "Eckart",
      "countryCode": "NL",
      "stateCode": "NB",
      "latitude": "51.47320000",
      "longitude": "5.49449000"
   },
   {
      "name": "Eerde",
      "countryCode": "NL",
      "stateCode": "NB",
      "latitude": "51.60417000",
      "longitude": "5.49861000"
   },
   {
      "name": "Eerschot",
      "countryCode": "NL",
      "stateCode": "NB",
      "latitude": "51.56833000",
      "longitude": "5.47361000"
   },
   {
      "name": "Eersel",
      "countryCode": "NL",
      "stateCode": "NB",
      "latitude": "51.35750000",
      "longitude": "5.31806000"
   },
   {
      "name": "Eindhoven",
      "countryCode": "NL",
      "stateCode": "NB",
      "latitude": "51.44083000",
      "longitude": "5.47778000"
   },
   {
      "name": "Ekenrooi",
      "countryCode": "NL",
      "stateCode": "NB",
      "latitude": "51.39656000",
      "longitude": "5.48624000"
   },
   {
      "name": "Elshout",
      "countryCode": "NL",
      "stateCode": "NB",
      "latitude": "51.70083000",
      "longitude": "5.14167000"
   },
   {
      "name": "Enschot",
      "countryCode": "NL",
      "stateCode": "NB",
      "latitude": "51.57846000",
      "longitude": "5.13885000"
   },
   {
      "name": "Erp",
      "countryCode": "NL",
      "stateCode": "NB",
      "latitude": "51.60000000",
      "longitude": "5.60694000"
   },
   {
      "name": "Esch",
      "countryCode": "NL",
      "stateCode": "NB",
      "latitude": "51.61083000",
      "longitude": "5.29028000"
   },
   {
      "name": "Fijnaart",
      "countryCode": "NL",
      "stateCode": "NB",
      "latitude": "51.63750000",
      "longitude": "4.46944000"
   },
   {
      "name": "Gageldonk",
      "countryCode": "NL",
      "stateCode": "NB",
      "latitude": "51.60167000",
      "longitude": "4.73889000"
   },
   {
      "name": "Geenhoven",
      "countryCode": "NL",
      "stateCode": "NB",
      "latitude": "51.35935000",
      "longitude": "5.46021000"
   },
   {
      "name": "Geertruidenberg",
      "countryCode": "NL",
      "stateCode": "NB",
      "latitude": "51.70167000",
      "longitude": "4.85694000"
   },
   {
      "name": "Geffen",
      "countryCode": "NL",
      "stateCode": "NB",
      "latitude": "51.74000000",
      "longitude": "5.46389000"
   },
   {
      "name": "Geldrop",
      "countryCode": "NL",
      "stateCode": "NB",
      "latitude": "51.42167000",
      "longitude": "5.55972000"
   },
   {
      "name": "Gemeente 's-Hertogenbosch",
      "countryCode": "NL",
      "stateCode": "NB",
      "latitude": "51.68267000",
      "longitude": "5.30056000"
   },
   {
      "name": "Gemeente Alphen-Chaam",
      "countryCode": "NL",
      "stateCode": "NB",
      "latitude": "51.50341000",
      "longitude": "4.88013000"
   },
   {
      "name": "Gemeente Asten",
      "countryCode": "NL",
      "stateCode": "NB",
      "latitude": "51.39231000",
      "longitude": "5.77910000"
   },
   {
      "name": "Gemeente Baarle-Nassau",
      "countryCode": "NL",
      "stateCode": "NB",
      "latitude": "51.43544000",
      "longitude": "4.91180000"
   },
   {
      "name": "Gemeente Bergen op Zoom",
      "countryCode": "NL",
      "stateCode": "NB",
      "latitude": "51.50451000",
      "longitude": "4.29108000"
   },
   {
      "name": "Gemeente Bernheze",
      "countryCode": "NL",
      "stateCode": "NB",
      "latitude": "51.68556000",
      "longitude": "5.52378000"
   },
   {
      "name": "Gemeente Best",
      "countryCode": "NL",
      "stateCode": "NB",
      "latitude": "51.50000000",
      "longitude": "5.38333000"
   },
   {
      "name": "Gemeente Bladel",
      "countryCode": "NL",
      "stateCode": "NB",
      "latitude": "51.35000000",
      "longitude": "5.21667000"
   },
   {
      "name": "Gemeente Boekel",
      "countryCode": "NL",
      "stateCode": "NB",
      "latitude": "51.60489000",
      "longitude": "5.69357000"
   },
   {
      "name": "Gemeente Boxmeer",
      "countryCode": "NL",
      "stateCode": "NB",
      "latitude": "51.63333000",
      "longitude": "5.95000000"
   },
   {
      "name": "Gemeente Boxtel",
      "countryCode": "NL",
      "stateCode": "NB",
      "latitude": "51.58472000",
      "longitude": "5.32654000"
   },
   {
      "name": "Gemeente Breda",
      "countryCode": "NL",
      "stateCode": "NB",
      "latitude": "51.57790000",
      "longitude": "4.76039000"
   },
   {
      "name": "Gemeente Cranendonck",
      "countryCode": "NL",
      "stateCode": "NB",
      "latitude": "51.27746000",
      "longitude": "5.58373000"
   },
   {
      "name": "Gemeente Cuijk",
      "countryCode": "NL",
      "stateCode": "NB",
      "latitude": "51.71739000",
      "longitude": "5.85773000"
   },
   {
      "name": "Gemeente Deurne",
      "countryCode": "NL",
      "stateCode": "NB",
      "latitude": "51.43701000",
      "longitude": "5.82245000"
   },
   {
      "name": "Gemeente Dongen",
      "countryCode": "NL",
      "stateCode": "NB",
      "latitude": "51.63754000",
      "longitude": "4.95361000"
   },
   {
      "name": "Gemeente Drimmelen",
      "countryCode": "NL",
      "stateCode": "NB",
      "latitude": "51.66667000",
      "longitude": "4.78333000"
   },
   {
      "name": "Gemeente Eersel",
      "countryCode": "NL",
      "stateCode": "NB",
      "latitude": "51.39579000",
      "longitude": "5.31956000"
   },
   {
      "name": "Gemeente Eindhoven",
      "countryCode": "NL",
      "stateCode": "NB",
      "latitude": "51.45037000",
      "longitude": "5.45279000"
   },
   {
      "name": "Gemeente Etten-Leur",
      "countryCode": "NL",
      "stateCode": "NB",
      "latitude": "51.57711000",
      "longitude": "4.64253000"
   },
   {
      "name": "Gemeente Geertruidenberg",
      "countryCode": "NL",
      "stateCode": "NB",
      "latitude": "51.69634000",
      "longitude": "4.87836000"
   },
   {
      "name": "Gemeente Geldrop-Mierlo",
      "countryCode": "NL",
      "stateCode": "NB",
      "latitude": "51.43372000",
      "longitude": "5.59926000"
   },
   {
      "name": "Gemeente Gemert-Bakel",
      "countryCode": "NL",
      "stateCode": "NB",
      "latitude": "51.52554000",
      "longitude": "5.72802000"
   },
   {
      "name": "Gemeente Gilze en Rijen",
      "countryCode": "NL",
      "stateCode": "NB",
      "latitude": "51.55656000",
      "longitude": "4.91253000"
   },
   {
      "name": "Gemeente Goirle",
      "countryCode": "NL",
      "stateCode": "NB",
      "latitude": "51.50875000",
      "longitude": "5.03381000"
   },
   {
      "name": "Gemeente Grave",
      "countryCode": "NL",
      "stateCode": "NB",
      "latitude": "51.73970000",
      "longitude": "5.74366000"
   },
   {
      "name": "Gemeente Haaren",
      "countryCode": "NL",
      "stateCode": "NB",
      "latitude": "51.61831000",
      "longitude": "5.22779000"
   },
   {
      "name": "Gemeente Halderberge",
      "countryCode": "NL",
      "stateCode": "NB",
      "latitude": "51.58925000",
      "longitude": "4.50597000"
   },
   {
      "name": "Gemeente Heeze-Leende",
      "countryCode": "NL",
      "stateCode": "NB",
      "latitude": "51.36404000",
      "longitude": "5.55870000"
   },
   {
      "name": "Gemeente Helmond",
      "countryCode": "NL",
      "stateCode": "NB",
      "latitude": "51.47968000",
      "longitude": "5.65559000"
   },
   {
      "name": "Gemeente Heusden",
      "countryCode": "NL",
      "stateCode": "NB",
      "latitude": "51.69975000",
      "longitude": "5.16598000"
   },
   {
      "name": "Gemeente Hilvarenbeek",
      "countryCode": "NL",
      "stateCode": "NB",
      "latitude": "51.47772000",
      "longitude": "5.14778000"
   },
   {
      "name": "Gemeente Laarbeek",
      "countryCode": "NL",
      "stateCode": "NB",
      "latitude": "51.52643000",
      "longitude": "5.61283000"
   },
   {
      "name": "Gemeente Landerd",
      "countryCode": "NL",
      "stateCode": "NB",
      "latitude": "51.71151000",
      "longitude": "5.66580000"
   },
   {
      "name": "Gemeente Loon op Zand",
      "countryCode": "NL",
      "stateCode": "NB",
      "latitude": "51.63782000",
      "longitude": "5.04860000"
   },
   {
      "name": "Gemeente Mill en Sint Hubert",
      "countryCode": "NL",
      "stateCode": "NB",
      "latitude": "51.68712000",
      "longitude": "5.77077000"
   },
   {
      "name": "Gemeente Moerdijk",
      "countryCode": "NL",
      "stateCode": "NB",
      "latitude": "51.63933000",
      "longitude": "4.56379000"
   },
   {
      "name": "Gemeente Nuenen, Gerwen en Nederwetten",
      "countryCode": "NL",
      "stateCode": "NB",
      "latitude": "51.46667000",
      "longitude": "5.53333000"
   },
   {
      "name": "Gemeente Oirschot",
      "countryCode": "NL",
      "stateCode": "NB",
      "latitude": "51.49062000",
      "longitude": "5.28959000"
   },
   {
      "name": "Gemeente Oisterwijk",
      "countryCode": "NL",
      "stateCode": "NB",
      "latitude": "51.55289000",
      "longitude": "5.20188000"
   },
   {
      "name": "Gemeente Oosterhout",
      "countryCode": "NL",
      "stateCode": "NB",
      "latitude": "51.63435000",
      "longitude": "4.86399000"
   },
   {
      "name": "Gemeente Oss",
      "countryCode": "NL",
      "stateCode": "NB",
      "latitude": "51.78103000",
      "longitude": "5.58111000"
   },
   {
      "name": "Gemeente Reusel-De Mierden",
      "countryCode": "NL",
      "stateCode": "NB",
      "latitude": "51.38047000",
      "longitude": "5.15790000"
   },
   {
      "name": "Gemeente Rucphen",
      "countryCode": "NL",
      "stateCode": "NB",
      "latitude": "51.52357000",
      "longitude": "4.56586000"
   },
   {
      "name": "Gemeente Sint Anthonis",
      "countryCode": "NL",
      "stateCode": "NB",
      "latitude": "51.61826000",
      "longitude": "5.84354000"
   },
   {
      "name": "Gemeente Sint-Michielsgestel",
      "countryCode": "NL",
      "stateCode": "NB",
      "latitude": "51.66076000",
      "longitude": "5.37851000"
   },
   {
      "name": "Gemeente Someren",
      "countryCode": "NL",
      "stateCode": "NB",
      "latitude": "51.38233000",
      "longitude": "5.71049000"
   },
   {
      "name": "Gemeente Son en Breugel",
      "countryCode": "NL",
      "stateCode": "NB",
      "latitude": "51.50970000",
      "longitude": "5.49934000"
   },
   {
      "name": "Gemeente Steenbergen",
      "countryCode": "NL",
      "stateCode": "NB",
      "latitude": "51.60081000",
      "longitude": "4.32077000"
   },
   {
      "name": "Gemeente Tilburg",
      "countryCode": "NL",
      "stateCode": "NB",
      "latitude": "51.57787000",
      "longitude": "5.06555000"
   },
   {
      "name": "Gemeente Uden",
      "countryCode": "NL",
      "stateCode": "NB",
      "latitude": "51.65682000",
      "longitude": "5.61258000"
   },
   {
      "name": "Gemeente Valkenswaard",
      "countryCode": "NL",
      "stateCode": "NB",
      "latitude": "51.32575000",
      "longitude": "5.45323000"
   },
   {
      "name": "Gemeente Veldhoven",
      "countryCode": "NL",
      "stateCode": "NB",
      "latitude": "51.41253000",
      "longitude": "5.38052000"
   },
   {
      "name": "Gemeente Vught",
      "countryCode": "NL",
      "stateCode": "NB",
      "latitude": "51.65822000",
      "longitude": "5.26746000"
   },
   {
      "name": "Gemeente Waalre",
      "countryCode": "NL",
      "stateCode": "NB",
      "latitude": "51.38757000",
      "longitude": "5.46380000"
   },
   {
      "name": "Gemeente Waalwijk",
      "countryCode": "NL",
      "stateCode": "NB",
      "latitude": "51.68970000",
      "longitude": "5.01721000"
   },
   {
      "name": "Gemeente Woensdrecht",
      "countryCode": "NL",
      "stateCode": "NB",
      "latitude": "51.40948000",
      "longitude": "4.33512000"
   },
   {
      "name": "Gemeente Zundert",
      "countryCode": "NL",
      "stateCode": "NB",
      "latitude": "51.47352000",
      "longitude": "4.64180000"
   },
   {
      "name": "Gemert",
      "countryCode": "NL",
      "stateCode": "NB",
      "latitude": "51.55583000",
      "longitude": "5.69028000"
   },
   {
      "name": "Gemonde",
      "countryCode": "NL",
      "stateCode": "NB",
      "latitude": "51.61833000",
      "longitude": "5.35694000"
   },
   {
      "name": "Genderen",
      "countryCode": "NL",
      "stateCode": "NB",
      "latitude": "51.73583000",
      "longitude": "5.08750000"
   },
   {
      "name": "Genoenhuis",
      "countryCode": "NL",
      "stateCode": "NB",
      "latitude": "51.40917000",
      "longitude": "5.53889000"
   },
   {
      "name": "Gerwen",
      "countryCode": "NL",
      "stateCode": "NB",
      "latitude": "51.49000000",
      "longitude": "5.56250000"
   },
   {
      "name": "Giessen",
      "countryCode": "NL",
      "stateCode": "NB",
      "latitude": "51.79000000",
      "longitude": "5.03056000"
   },
   {
      "name": "Gilze",
      "countryCode": "NL",
      "stateCode": "NB",
      "latitude": "51.54417000",
      "longitude": "4.94028000"
   },
   {
      "name": "Ginneken",
      "countryCode": "NL",
      "stateCode": "NB",
      "latitude": "51.56593000",
      "longitude": "4.79310000"
   },
   {
      "name": "Goirle",
      "countryCode": "NL",
      "stateCode": "NB",
      "latitude": "51.52083000",
      "longitude": "5.06667000"
   },
   {
      "name": "Grasrijk",
      "countryCode": "NL",
      "stateCode": "NB",
      "latitude": "51.43916000",
      "longitude": "5.41544000"
   },
   {
      "name": "Grave",
      "countryCode": "NL",
      "stateCode": "NB",
      "latitude": "51.75902000",
      "longitude": "5.73882000"
   },
   {
      "name": "Groenewoud",
      "countryCode": "NL",
      "stateCode": "NB",
      "latitude": "51.53860000",
      "longitude": "5.09028000"
   },
   {
      "name": "Haaren",
      "countryCode": "NL",
      "stateCode": "NB",
      "latitude": "51.60250000",
      "longitude": "5.22222000"
   },
   {
      "name": "Haarsteeg",
      "countryCode": "NL",
      "stateCode": "NB",
      "latitude": "51.71167000",
      "longitude": "5.19861000"
   },
   {
      "name": "Halsteren",
      "countryCode": "NL",
      "stateCode": "NB",
      "latitude": "51.52834000",
      "longitude": "4.26785000"
   },
   {
      "name": "Handel",
      "countryCode": "NL",
      "stateCode": "NB",
      "latitude": "51.58000000",
      "longitude": "5.70972000"
   },
   {
      "name": "Hapert",
      "countryCode": "NL",
      "stateCode": "NB",
      "latitude": "51.36833000",
      "longitude": "5.25694000"
   },
   {
      "name": "Haps",
      "countryCode": "NL",
      "stateCode": "NB",
      "latitude": "51.68917000",
      "longitude": "5.86111000"
   },
   {
      "name": "Heerle",
      "countryCode": "NL",
      "stateCode": "NB",
      "latitude": "51.51917000",
      "longitude": "4.35972000"
   },
   {
      "name": "Heesch",
      "countryCode": "NL",
      "stateCode": "NB",
      "latitude": "51.73362000",
      "longitude": "5.52672000"
   },
   {
      "name": "Heesterakker",
      "countryCode": "NL",
      "stateCode": "NB",
      "latitude": "51.48610000",
      "longitude": "5.49681000"
   },
   {
      "name": "Heeswijk-Dinther",
      "countryCode": "NL",
      "stateCode": "NB",
      "latitude": "51.65083000",
      "longitude": "5.47500000"
   },
   {
      "name": "Heeze",
      "countryCode": "NL",
      "stateCode": "NB",
      "latitude": "51.38280000",
      "longitude": "5.57145000"
   },
   {
      "name": "Helmond",
      "countryCode": "NL",
      "stateCode": "NB",
      "latitude": "51.48167000",
      "longitude": "5.66111000"
   },
   {
      "name": "Helvoirt",
      "countryCode": "NL",
      "stateCode": "NB",
      "latitude": "51.63167000",
      "longitude": "5.23056000"
   },
   {
      "name": "Herpen",
      "countryCode": "NL",
      "stateCode": "NB",
      "latitude": "51.77167000",
      "longitude": "5.64167000"
   },
   {
      "name": "Heusden",
      "countryCode": "NL",
      "stateCode": "NB",
      "latitude": "51.38417000",
      "longitude": "5.76389000"
   },
   {
      "name": "Heusdenhout",
      "countryCode": "NL",
      "stateCode": "NB",
      "latitude": "51.58811000",
      "longitude": "4.81930000"
   },
   {
      "name": "Hilvarenbeek",
      "countryCode": "NL",
      "stateCode": "NB",
      "latitude": "51.48583000",
      "longitude": "5.13750000"
   },
   {
      "name": "Hoeven",
      "countryCode": "NL",
      "stateCode": "NB",
      "latitude": "51.57917000",
      "longitude": "4.58333000"
   },
   {
      "name": "Hoge Vucht",
      "countryCode": "NL",
      "stateCode": "NB",
      "latitude": "51.60794000",
      "longitude": "4.79150000"
   },
   {
      "name": "Hooge Mierde",
      "countryCode": "NL",
      "stateCode": "NB",
      "latitude": "51.38750000",
      "longitude": "5.12917000"
   },
   {
      "name": "Hooge Zwaluwe",
      "countryCode": "NL",
      "stateCode": "NB",
      "latitude": "51.68750000",
      "longitude": "4.74444000"
   },
   {
      "name": "Hoogeloon",
      "countryCode": "NL",
      "stateCode": "NB",
      "latitude": "51.39750000",
      "longitude": "5.26806000"
   },
   {
      "name": "Hoogerheide",
      "countryCode": "NL",
      "stateCode": "NB",
      "latitude": "51.42417000",
      "longitude": "4.32500000"
   },
   {
      "name": "Huijbergen",
      "countryCode": "NL",
      "stateCode": "NB",
      "latitude": "51.43250000",
      "longitude": "4.37639000"
   },
   {
      "name": "Jagershoef",
      "countryCode": "NL",
      "stateCode": "NB",
      "latitude": "51.47330000",
      "longitude": "5.46720000"
   },
   {
      "name": "Kalsdonk",
      "countryCode": "NL",
      "stateCode": "NB",
      "latitude": "51.53973000",
      "longitude": "4.47111000"
   },
   {
      "name": "Klein-Zundert",
      "countryCode": "NL",
      "stateCode": "NB",
      "latitude": "51.48083000",
      "longitude": "4.65417000"
   },
   {
      "name": "Klundert",
      "countryCode": "NL",
      "stateCode": "NB",
      "latitude": "51.66500000",
      "longitude": "4.53472000"
   },
   {
      "name": "Korvel",
      "countryCode": "NL",
      "stateCode": "NB",
      "latitude": "51.54954000",
      "longitude": "5.07079000"
   },
   {
      "name": "Krooswijk",
      "countryCode": "NL",
      "stateCode": "NB",
      "latitude": "51.64665000",
      "longitude": "4.59203000"
   },
   {
      "name": "Kruisland",
      "countryCode": "NL",
      "stateCode": "NB",
      "latitude": "51.56917000",
      "longitude": "4.40972000"
   },
   {
      "name": "Lage Mierde",
      "countryCode": "NL",
      "stateCode": "NB",
      "latitude": "51.40583000",
      "longitude": "5.14722000"
   },
   {
      "name": "Lakerlopen",
      "countryCode": "NL",
      "stateCode": "NB",
      "latitude": "51.43791000",
      "longitude": "5.50106000"
   },
   {
      "name": "Langenboom",
      "countryCode": "NL",
      "stateCode": "NB",
      "latitude": "51.70417000",
      "longitude": "5.73056000"
   },
   {
      "name": "Leende",
      "countryCode": "NL",
      "stateCode": "NB",
      "latitude": "51.35083000",
      "longitude": "5.55417000"
   },
   {
      "name": "Leest",
      "countryCode": "NL",
      "stateCode": "NB",
      "latitude": "51.60983000",
      "longitude": "5.54312000"
   },
   {
      "name": "Lepelstraat",
      "countryCode": "NL",
      "stateCode": "NB",
      "latitude": "51.54833000",
      "longitude": "4.27639000"
   },
   {
      "name": "Liempde",
      "countryCode": "NL",
      "stateCode": "NB",
      "latitude": "51.56917000",
      "longitude": "5.37222000"
   },
   {
      "name": "Lierop",
      "countryCode": "NL",
      "stateCode": "NB",
      "latitude": "51.41917000",
      "longitude": "5.67917000"
   },
   {
      "name": "Lieshout",
      "countryCode": "NL",
      "stateCode": "NB",
      "latitude": "51.52036000",
      "longitude": "5.59479000"
   },
   {
      "name": "Liessel",
      "countryCode": "NL",
      "stateCode": "NB",
      "latitude": "51.41333000",
      "longitude": "5.82083000"
   },
   {
      "name": "Lievendaal",
      "countryCode": "NL",
      "stateCode": "NB",
      "latitude": "51.44219000",
      "longitude": "5.43405000"
   },
   {
      "name": "Lith",
      "countryCode": "NL",
      "stateCode": "NB",
      "latitude": "51.80583000",
      "longitude": "5.43889000"
   },
   {
      "name": "Loon op Zand",
      "countryCode": "NL",
      "stateCode": "NB",
      "latitude": "51.62750000",
      "longitude": "5.07500000"
   },
   {
      "name": "Loosbroek",
      "countryCode": "NL",
      "stateCode": "NB",
      "latitude": "51.67833000",
      "longitude": "5.50694000"
   },
   {
      "name": "Loven",
      "countryCode": "NL",
      "stateCode": "NB",
      "latitude": "51.56480000",
      "longitude": "5.09748000"
   },
   {
      "name": "Luyksgestel",
      "countryCode": "NL",
      "stateCode": "NB",
      "latitude": "51.28917000",
      "longitude": "5.32361000"
   },
   {
      "name": "Maarheeze",
      "countryCode": "NL",
      "stateCode": "NB",
      "latitude": "51.31167000",
      "longitude": "5.61667000"
   },
   {
      "name": "Maaskantje",
      "countryCode": "NL",
      "stateCode": "NB",
      "latitude": "51.65833000",
      "longitude": "5.37083000"
   },
   {
      "name": "Made",
      "countryCode": "NL",
      "stateCode": "NB",
      "latitude": "51.67667000",
      "longitude": "4.79306000"
   },
   {
      "name": "Mariahout",
      "countryCode": "NL",
      "stateCode": "NB",
      "latitude": "51.54083000",
      "longitude": "5.57222000"
   },
   {
      "name": "Meerhoven",
      "countryCode": "NL",
      "stateCode": "NB",
      "latitude": "51.44267000",
      "longitude": "5.41102000"
   },
   {
      "name": "Meerveldhoven",
      "countryCode": "NL",
      "stateCode": "NB",
      "latitude": "51.41705000",
      "longitude": "5.41618000"
   },
   {
      "name": "Megen",
      "countryCode": "NL",
      "stateCode": "NB",
      "latitude": "51.82167000",
      "longitude": "5.56250000"
   },
   {
      "name": "Meierijstad",
      "countryCode": "NL",
      "stateCode": "NB",
      "latitude": "51.59968000",
      "longitude": "5.50278000"
   },
   {
      "name": "Melle",
      "countryCode": "NL",
      "stateCode": "NB",
      "latitude": "51.66244000",
      "longitude": "5.63367000"
   },
   {
      "name": "Middelbeers",
      "countryCode": "NL",
      "stateCode": "NB",
      "latitude": "51.46667000",
      "longitude": "5.25000000"
   },
   {
      "name": "Middelrode",
      "countryCode": "NL",
      "stateCode": "NB",
      "latitude": "51.66417000",
      "longitude": "5.41944000"
   },
   {
      "name": "Mierlo",
      "countryCode": "NL",
      "stateCode": "NB",
      "latitude": "51.44000000",
      "longitude": "5.61944000"
   },
   {
      "name": "Milheeze",
      "countryCode": "NL",
      "stateCode": "NB",
      "latitude": "51.50167000",
      "longitude": "5.77917000"
   },
   {
      "name": "Moerdijk",
      "countryCode": "NL",
      "stateCode": "NB",
      "latitude": "51.70167000",
      "longitude": "4.62639000"
   },
   {
      "name": "Molenhoek",
      "countryCode": "NL",
      "stateCode": "NB",
      "latitude": "51.71113000",
      "longitude": "5.36809000"
   },
   {
      "name": "Muschberg en Geestenberg",
      "countryCode": "NL",
      "stateCode": "NB",
      "latitude": "51.44384000",
      "longitude": "5.52329000"
   },
   {
      "name": "Naastenbest",
      "countryCode": "NL",
      "stateCode": "NB",
      "latitude": "51.50484000",
      "longitude": "5.38579000"
   },
   {
      "name": "Neerkant",
      "countryCode": "NL",
      "stateCode": "NB",
      "latitude": "51.36833000",
      "longitude": "5.86667000"
   },
   {
      "name": "Nieuw-Vossemeer",
      "countryCode": "NL",
      "stateCode": "NB",
      "latitude": "51.59000000",
      "longitude": "4.21806000"
   },
   {
      "name": "Nieuwkuijk",
      "countryCode": "NL",
      "stateCode": "NB",
      "latitude": "51.69000000",
      "longitude": "5.18194000"
   },
   {
      "name": "Nijnsel",
      "countryCode": "NL",
      "stateCode": "NB",
      "latitude": "51.55083000",
      "longitude": "5.48333000"
   },
   {
      "name": "Nispen",
      "countryCode": "NL",
      "stateCode": "NB",
      "latitude": "51.48331000",
      "longitude": "4.46131000"
   },
   {
      "name": "Nistelrode",
      "countryCode": "NL",
      "stateCode": "NB",
      "latitude": "51.70417000",
      "longitude": "5.56250000"
   },
   {
      "name": "Noordgeest",
      "countryCode": "NL",
      "stateCode": "NB",
      "latitude": "51.50917000",
      "longitude": "4.27917000"
   },
   {
      "name": "Noordhoek",
      "countryCode": "NL",
      "stateCode": "NB",
      "latitude": "51.64250000",
      "longitude": "4.53194000"
   },
   {
      "name": "Nuenen",
      "countryCode": "NL",
      "stateCode": "NB",
      "latitude": "51.47000000",
      "longitude": "5.55278000"
   },
   {
      "name": "Odiliapeel",
      "countryCode": "NL",
      "stateCode": "NB",
      "latitude": "51.64333000",
      "longitude": "5.70556000"
   },
   {
      "name": "Oerle",
      "countryCode": "NL",
      "stateCode": "NB",
      "latitude": "51.42255000",
      "longitude": "5.37163000"
   },
   {
      "name": "Oirschot",
      "countryCode": "NL",
      "stateCode": "NB",
      "latitude": "51.50500000",
      "longitude": "5.31389000"
   },
   {
      "name": "Oisterwijk",
      "countryCode": "NL",
      "stateCode": "NB",
      "latitude": "51.57917000",
      "longitude": "5.18889000"
   },
   {
      "name": "Oosteind",
      "countryCode": "NL",
      "stateCode": "NB",
      "latitude": "51.64418000",
      "longitude": "4.89784000"
   },
   {
      "name": "Oostelbeers",
      "countryCode": "NL",
      "stateCode": "NB",
      "latitude": "51.47171000",
      "longitude": "5.26897000"
   },
   {
      "name": "Oosterhout",
      "countryCode": "NL",
      "stateCode": "NB",
      "latitude": "51.64500000",
      "longitude": "4.85972000"
   },
   {
      "name": "Orthen",
      "countryCode": "NL",
      "stateCode": "NB",
      "latitude": "51.70613000",
      "longitude": "5.30468000"
   },
   {
      "name": "Oss",
      "countryCode": "NL",
      "stateCode": "NB",
      "latitude": "51.76500000",
      "longitude": "5.51806000"
   },
   {
      "name": "Ossendrecht",
      "countryCode": "NL",
      "stateCode": "NB",
      "latitude": "51.39417000",
      "longitude": "4.32639000"
   },
   {
      "name": "Oud Gastel",
      "countryCode": "NL",
      "stateCode": "NB",
      "latitude": "51.58667000",
      "longitude": "4.45972000"
   },
   {
      "name": "Overloon",
      "countryCode": "NL",
      "stateCode": "NB",
      "latitude": "51.57167000",
      "longitude": "5.94722000"
   },
   {
      "name": "Princenhage",
      "countryCode": "NL",
      "stateCode": "NB",
      "latitude": "51.57632000",
      "longitude": "4.73906000"
   },
   {
      "name": "Prinsenbeek",
      "countryCode": "NL",
      "stateCode": "NB",
      "latitude": "51.59833000",
      "longitude": "4.71250000"
   },
   {
      "name": "Putte",
      "countryCode": "NL",
      "stateCode": "NB",
      "latitude": "51.36000000",
      "longitude": "4.39583000"
   },
   {
      "name": "Quirijnstok",
      "countryCode": "NL",
      "stateCode": "NB",
      "latitude": "51.58430000",
      "longitude": "5.09810000"
   },
   {
      "name": "Raam",
      "countryCode": "NL",
      "stateCode": "NB",
      "latitude": "51.65967000",
      "longitude": "5.63637000"
   },
   {
      "name": "Raamsdonk",
      "countryCode": "NL",
      "stateCode": "NB",
      "latitude": "51.68750000",
      "longitude": "4.90833000"
   },
   {
      "name": "Raamsdonksveer",
      "countryCode": "NL",
      "stateCode": "NB",
      "latitude": "51.69667000",
      "longitude": "4.87361000"
   },
   {
      "name": "Ravenstein",
      "countryCode": "NL",
      "stateCode": "NB",
      "latitude": "51.79667000",
      "longitude": "5.65000000"
   },
   {
      "name": "Reek",
      "countryCode": "NL",
      "stateCode": "NB",
      "latitude": "51.74583000",
      "longitude": "5.68194000"
   },
   {
      "name": "Reusel",
      "countryCode": "NL",
      "stateCode": "NB",
      "latitude": "51.36250000",
      "longitude": "5.16528000"
   },
   {
      "name": "Riethoven",
      "countryCode": "NL",
      "stateCode": "NB",
      "latitude": "51.35417000",
      "longitude": "5.38750000"
   },
   {
      "name": "Rijen",
      "countryCode": "NL",
      "stateCode": "NB",
      "latitude": "51.59083000",
      "longitude": "4.91944000"
   },
   {
      "name": "Rijsbergen",
      "countryCode": "NL",
      "stateCode": "NB",
      "latitude": "51.51750000",
      "longitude": "4.69722000"
   },
   {
      "name": "Rijswijk",
      "countryCode": "NL",
      "stateCode": "NB",
      "latitude": "51.79750000",
      "longitude": "5.02500000"
   },
   {
      "name": "Roosendaal",
      "countryCode": "NL",
      "stateCode": "NB",
      "latitude": "51.53083000",
      "longitude": "4.46528000"
   },
   {
      "name": "Rucphen",
      "countryCode": "NL",
      "stateCode": "NB",
      "latitude": "51.53167000",
      "longitude": "4.55833000"
   },
   {
      "name": "Salderes",
      "countryCode": "NL",
      "stateCode": "NB",
      "latitude": "51.51505000",
      "longitude": "5.38991000"
   },
   {
      "name": "Schaijk",
      "countryCode": "NL",
      "stateCode": "NB",
      "latitude": "51.74583000",
      "longitude": "5.63194000"
   },
   {
      "name": "Schijndel",
      "countryCode": "NL",
      "stateCode": "NB",
      "latitude": "51.62250000",
      "longitude": "5.43194000"
   },
   {
      "name": "Schutsboom",
      "countryCode": "NL",
      "stateCode": "NB",
      "latitude": "51.46152000",
      "longitude": "5.62260000"
   },
   {
      "name": "Sint Anthonis",
      "countryCode": "NL",
      "stateCode": "NB",
      "latitude": "51.62667000",
      "longitude": "5.88194000"
   },
   {
      "name": "Sint Willebrord",
      "countryCode": "NL",
      "stateCode": "NB",
      "latitude": "51.54833000",
      "longitude": "4.58889000"
   },
   {
      "name": "Sint-Michielsgestel",
      "countryCode": "NL",
      "stateCode": "NB",
      "latitude": "51.64167000",
      "longitude": "5.35278000"
   },
   {
      "name": "Sint-Oedenrode",
      "countryCode": "NL",
      "stateCode": "NB",
      "latitude": "51.56750000",
      "longitude": "5.45972000"
   },
   {
      "name": "Soerendonk",
      "countryCode": "NL",
      "stateCode": "NB",
      "latitude": "51.30083000",
      "longitude": "5.57500000"
   },
   {
      "name": "Someren",
      "countryCode": "NL",
      "stateCode": "NB",
      "latitude": "51.38500000",
      "longitude": "5.71111000"
   },
   {
      "name": "Someren-Eind",
      "countryCode": "NL",
      "stateCode": "NB",
      "latitude": "51.35750000",
      "longitude": "5.73333000"
   },
   {
      "name": "Son",
      "countryCode": "NL",
      "stateCode": "NB",
      "latitude": "51.51136000",
      "longitude": "5.49282000"
   },
   {
      "name": "Speelheide",
      "countryCode": "NL",
      "stateCode": "NB",
      "latitude": "51.50607000",
      "longitude": "5.40519000"
   },
   {
      "name": "Sprundel",
      "countryCode": "NL",
      "stateCode": "NB",
      "latitude": "51.53750000",
      "longitude": "4.59722000"
   },
   {
      "name": "Stampersgat",
      "countryCode": "NL",
      "stateCode": "NB",
      "latitude": "51.61333000",
      "longitude": "4.44444000"
   },
   {
      "name": "Standdaarbuiten",
      "countryCode": "NL",
      "stateCode": "NB",
      "latitude": "51.61333000",
      "longitude": "4.51389000"
   },
   {
      "name": "Steenbergen",
      "countryCode": "NL",
      "stateCode": "NB",
      "latitude": "51.58417000",
      "longitude": "4.31944000"
   },
   {
      "name": "Steensel",
      "countryCode": "NL",
      "stateCode": "NB",
      "latitude": "51.37667000",
      "longitude": "5.35278000"
   },
   {
      "name": "Stepekolk",
      "countryCode": "NL",
      "stateCode": "NB",
      "latitude": "51.45500000",
      "longitude": "5.61251000"
   },
   {
      "name": "Terheijden",
      "countryCode": "NL",
      "stateCode": "NB",
      "latitude": "51.64333000",
      "longitude": "4.75417000"
   },
   {
      "name": "Teteringen",
      "countryCode": "NL",
      "stateCode": "NB",
      "latitude": "51.60917000",
      "longitude": "4.82083000"
   },
   {
      "name": "Theereheide",
      "countryCode": "NL",
      "stateCode": "NB",
      "latitude": "51.63843000",
      "longitude": "5.33729000"
   },
   {
      "name": "Tilburg",
      "countryCode": "NL",
      "stateCode": "NB",
      "latitude": "51.55551000",
      "longitude": "5.09130000"
   },
   {
      "name": "Tivoli",
      "countryCode": "NL",
      "stateCode": "NB",
      "latitude": "51.42069000",
      "longitude": "5.50818000"
   },
   {
      "name": "Tongelre",
      "countryCode": "NL",
      "stateCode": "NB",
      "latitude": "51.44889000",
      "longitude": "5.51978000"
   },
   {
      "name": "Uden",
      "countryCode": "NL",
      "stateCode": "NB",
      "latitude": "51.66083000",
      "longitude": "5.61944000"
   },
   {
      "name": "Udenhout",
      "countryCode": "NL",
      "stateCode": "NB",
      "latitude": "51.60917000",
      "longitude": "5.14306000"
   },
   {
      "name": "Ulvenhout",
      "countryCode": "NL",
      "stateCode": "NB",
      "latitude": "51.54907000",
      "longitude": "4.79931000"
   },
   {
      "name": "Vaartbroek",
      "countryCode": "NL",
      "stateCode": "NB",
      "latitude": "51.47954000",
      "longitude": "5.49806000"
   },
   {
      "name": "Valkenswaard",
      "countryCode": "NL",
      "stateCode": "NB",
      "latitude": "51.35083000",
      "longitude": "5.45972000"
   },
   {
      "name": "Veen",
      "countryCode": "NL",
      "stateCode": "NB",
      "latitude": "51.77750000",
      "longitude": "5.10833000"
   },
   {
      "name": "Veghel",
      "countryCode": "NL",
      "stateCode": "NB",
      "latitude": "51.61667000",
      "longitude": "5.54861000"
   },
   {
      "name": "Veldhoven",
      "countryCode": "NL",
      "stateCode": "NB",
      "latitude": "51.41833000",
      "longitude": "5.40278000"
   },
   {
      "name": "Ven",
      "countryCode": "NL",
      "stateCode": "NB",
      "latitude": "51.64000000",
      "longitude": "5.55000000"
   },
   {
      "name": "Venhorst",
      "countryCode": "NL",
      "stateCode": "NB",
      "latitude": "51.60833000",
      "longitude": "5.73750000"
   },
   {
      "name": "Villapark",
      "countryCode": "NL",
      "stateCode": "NB",
      "latitude": "51.44144000",
      "longitude": "5.49385000"
   },
   {
      "name": "Vliedberg",
      "countryCode": "NL",
      "stateCode": "NB",
      "latitude": "51.68961000",
      "longitude": "5.19031000"
   },
   {
      "name": "Vlierden",
      "countryCode": "NL",
      "stateCode": "NB",
      "latitude": "51.44500000",
      "longitude": "5.75833000"
   },
   {
      "name": "Vlokhoven",
      "countryCode": "NL",
      "stateCode": "NB",
      "latitude": "51.46667000",
      "longitude": "5.48333000"
   },
   {
      "name": "Voldijn",
      "countryCode": "NL",
      "stateCode": "NB",
      "latitude": "51.40052000",
      "longitude": "5.47196000"
   },
   {
      "name": "Volkel",
      "countryCode": "NL",
      "stateCode": "NB",
      "latitude": "51.64250000",
      "longitude": "5.65417000"
   },
   {
      "name": "Vorstenbosch",
      "countryCode": "NL",
      "stateCode": "NB",
      "latitude": "51.65250000",
      "longitude": "5.55000000"
   },
   {
      "name": "Vught",
      "countryCode": "NL",
      "stateCode": "NB",
      "latitude": "51.65333000",
      "longitude": "5.28750000"
   },
   {
      "name": "Waalre",
      "countryCode": "NL",
      "stateCode": "NB",
      "latitude": "51.38667000",
      "longitude": "5.44444000"
   },
   {
      "name": "Waalwijk",
      "countryCode": "NL",
      "stateCode": "NB",
      "latitude": "51.68250000",
      "longitude": "5.07083000"
   },
   {
      "name": "Wagenberg",
      "countryCode": "NL",
      "stateCode": "NB",
      "latitude": "51.66500000",
      "longitude": "4.74861000"
   },
   {
      "name": "Wanroij",
      "countryCode": "NL",
      "stateCode": "NB",
      "latitude": "51.65750000",
      "longitude": "5.81806000"
   },
   {
      "name": "Waspik",
      "countryCode": "NL",
      "stateCode": "NB",
      "latitude": "51.68667000",
      "longitude": "4.94444000"
   },
   {
      "name": "Waterdonken",
      "countryCode": "NL",
      "stateCode": "NB",
      "latitude": "51.60959000",
      "longitude": "4.80452000"
   },
   {
      "name": "Welberg",
      "countryCode": "NL",
      "stateCode": "NB",
      "latitude": "51.57667000",
      "longitude": "4.33056000"
   },
   {
      "name": "Werkendam",
      "countryCode": "NL",
      "stateCode": "NB",
      "latitude": "51.81000000",
      "longitude": "4.89444000"
   },
   {
      "name": "Wernhout",
      "countryCode": "NL",
      "stateCode": "NB",
      "latitude": "51.45500000",
      "longitude": "4.64167000"
   },
   {
      "name": "Westerhoven",
      "countryCode": "NL",
      "stateCode": "NB",
      "latitude": "51.33250000",
      "longitude": "5.39583000"
   },
   {
      "name": "Wijbosch",
      "countryCode": "NL",
      "stateCode": "NB",
      "latitude": "51.61667000",
      "longitude": "5.46806000"
   },
   {
      "name": "Wilhelminadorp",
      "countryCode": "NL",
      "stateCode": "NB",
      "latitude": "51.49742000",
      "longitude": "5.39223000"
   },
   {
      "name": "Wisselaar",
      "countryCode": "NL",
      "stateCode": "NB",
      "latitude": "51.61285000",
      "longitude": "4.78444000"
   },
   {
      "name": "Woensdrecht",
      "countryCode": "NL",
      "stateCode": "NB",
      "latitude": "51.42897000",
      "longitude": "4.30355000"
   },
   {
      "name": "Woenselse Heide",
      "countryCode": "NL",
      "stateCode": "NB",
      "latitude": "51.48333000",
      "longitude": "5.46667000"
   },
   {
      "name": "Woudrichem",
      "countryCode": "NL",
      "stateCode": "NB",
      "latitude": "51.81500000",
      "longitude": "5.00139000"
   },
   {
      "name": "Wouw",
      "countryCode": "NL",
      "stateCode": "NB",
      "latitude": "51.52167000",
      "longitude": "4.39028000"
   },
   {
      "name": "Zandberg",
      "countryCode": "NL",
      "stateCode": "NB",
      "latitude": "51.57333000",
      "longitude": "4.78472000"
   },
   {
      "name": "Zeeland",
      "countryCode": "NL",
      "stateCode": "NB",
      "latitude": "51.69750000",
      "longitude": "5.67639000"
   },
   {
      "name": "Zeelst",
      "countryCode": "NL",
      "stateCode": "NB",
      "latitude": "51.42421000",
      "longitude": "5.41566000"
   },
   {
      "name": "Zegge",
      "countryCode": "NL",
      "stateCode": "NB",
      "latitude": "51.55667000",
      "longitude": "4.51806000"
   },
   {
      "name": "Zeilberg",
      "countryCode": "NL",
      "stateCode": "NB",
      "latitude": "51.45469000",
      "longitude": "5.81878000"
   },
   {
      "name": "Zesgehuchten",
      "countryCode": "NL",
      "stateCode": "NB",
      "latitude": "51.41667000",
      "longitude": "5.55000000"
   },
   {
      "name": "Zevenbergschen Hoek",
      "countryCode": "NL",
      "stateCode": "NB",
      "latitude": "51.67250000",
      "longitude": "4.67917000"
   },
   {
      "name": "Zijtaart",
      "countryCode": "NL",
      "stateCode": "NB",
      "latitude": "51.59250000",
      "longitude": "5.54167000"
   },
   {
      "name": "Zonderwijk",
      "countryCode": "NL",
      "stateCode": "NB",
      "latitude": "51.41141000",
      "longitude": "5.39361000"
   },
   {
      "name": "Zundert",
      "countryCode": "NL",
      "stateCode": "NB",
      "latitude": "51.47167000",
      "longitude": "4.65556000"
   }
]
