[
   {
      "name": "Hamhŭng",
      "countryCode": "KP",
      "stateCode": "08",
      "latitude": "39.91833000",
      "longitude": "127.53639000"
   },
   {
      "name": "Hongwŏn",
      "countryCode": "KP",
      "stateCode": "08",
      "latitude": "40.02528000",
      "longitude": "127.95583000"
   },
   {
      "name": "Hŭngnam",
      "countryCode": "KP",
      "stateCode": "08",
      "latitude": "39.83167000",
      "longitude": "127.61861000"
   },
   {
      "name": "Iwŏn-ŭp",
      "countryCode": "KP",
      "stateCode": "08",
      "latitude": "40.32306000",
      "longitude": "128.65528000"
   },
   {
      "name": "Kowŏn-ŭp",
      "countryCode": "KP",
      "stateCode": "08",
      "latitude": "39.43806000",
      "longitude": "127.24306000"
   },
   {
      "name": "Samho-rodongjagu",
      "countryCode": "KP",
      "stateCode": "08",
      "latitude": "39.94750000",
      "longitude": "127.87111000"
   },
   {
      "name": "Sinsang-ni",
      "countryCode": "KP",
      "stateCode": "08",
      "latitude": "39.65028000",
      "longitude": "127.40583000"
   },
   {
      "name": "Yuktae-dong",
      "countryCode": "KP",
      "stateCode": "08",
      "latitude": "40.02472000",
      "longitude": "128.15972000"
   },
   {
      "name": "Yŏnggwang-ŭp",
      "countryCode": "KP",
      "stateCode": "08",
      "latitude": "40.01833000",
      "longitude": "127.45472000"
   }
]