[
   {
      "name": "Ayorou",
      "countryCode": "NE",
      "stateCode": "6",
      "latitude": "14.73075000",
      "longitude": "0.91739000"
   },
   {
      "name": "Balleyara",
      "countryCode": "NE",
      "stateCode": "6",
      "latitude": "13.72848000",
      "longitude": "2.87503000"
   },
   {
      "name": "Département de Filingué",
      "countryCode": "NE",
      "stateCode": "6",
      "latitude": "14.31645000",
      "longitude": "3.23611000"
   },
   {
      "name": "Département de Ouallam",
      "countryCode": "NE",
      "stateCode": "6",
      "latitude": "14.63333000",
      "longitude": "2.25000000"
   },
   {
      "name": "Département de Say",
      "countryCode": "NE",
      "stateCode": "6",
      "latitude": "13.03579000",
      "longitude": "2.22112000"
   },
   {
      "name": "Filingué",
      "countryCode": "NE",
      "stateCode": "6",
      "latitude": "14.35210000",
      "longitude": "3.31680000"
   },
   {
      "name": "Kollo",
      "countryCode": "NE",
      "stateCode": "6",
      "latitude": "13.30430000",
      "longitude": "2.33900000"
   },
   {
      "name": "Kollo Department",
      "countryCode": "NE",
      "stateCode": "6",
      "latitude": "13.57600000",
      "longitude": "2.45200000"
   },
   {
      "name": "Ouallam",
      "countryCode": "NE",
      "stateCode": "6",
      "latitude": "14.31641000",
      "longitude": "2.08597000"
   },
   {
      "name": "Say",
      "countryCode": "NE",
      "stateCode": "6",
      "latitude": "13.10070000",
      "longitude": "2.36890000"
   },
   {
      "name": "Tera Department",
      "countryCode": "NE",
      "stateCode": "6",
      "latitude": "14.18600000",
      "longitude": "0.84300000"
   },
   {
      "name": "Tillaberi Department",
      "countryCode": "NE",
      "stateCode": "6",
      "latitude": "14.51600000",
      "longitude": "1.44300000"
   },
   {
      "name": "Tillabéri",
      "countryCode": "NE",
      "stateCode": "6",
      "latitude": "14.20711000",
      "longitude": "1.45418000"
   },
   {
      "name": "Téra",
      "countryCode": "NE",
      "stateCode": "6",
      "latitude": "14.00776000",
      "longitude": "0.75306000"
   }
]