[
   {
      "name": "Bolu",
      "countryCode": "TR",
      "stateCode": "14",
      "latitude": "40.73583000",
      "longitude": "31.60611000"
   },
   {
      "name": "Dörtdivan",
      "countryCode": "TR",
      "stateCode": "14",
      "latitude": "40.72052000",
      "longitude": "32.06314000"
   },
   {
      "name": "Gerede",
      "countryCode": "TR",
      "stateCode": "14",
      "latitude": "40.71364000",
      "longitude": "32.31263000"
   },
   {
      "name": "Göynük",
      "countryCode": "TR",
      "stateCode": "14",
      "latitude": "40.40028000",
      "longitude": "30.78833000"
   },
   {
      "name": "Kıbrıscık",
      "countryCode": "TR",
      "stateCode": "14",
      "latitude": "40.40778000",
      "longitude": "31.85194000"
   },
   {
      "name": "Mengen",
      "countryCode": "TR",
      "stateCode": "14",
      "latitude": "40.93877000",
      "longitude": "32.07642000"
   },
   {
      "name": "Mudurnu",
      "countryCode": "TR",
      "stateCode": "14",
      "latitude": "40.47300000",
      "longitude": "31.20755000"
   },
   {
      "name": "Seben",
      "countryCode": "TR",
      "stateCode": "14",
      "latitude": "40.41134000",
      "longitude": "31.57359000"
   },
   {
      "name": "Yeniçağa",
      "countryCode": "TR",
      "stateCode": "14",
      "latitude": "40.77115000",
      "longitude": "32.03375000"
   }
]