[
   {
      "name": "Asentamiento Humano Nicolas de Pierola",
      "countryCode": "PE",
      "stateCode": "LIM",
      "latitude": "-11.93573000",
      "longitude": "-76.70611000"
   },
   {
      "name": "Barranca",
      "countryCode": "PE",
      "stateCode": "LIM",
      "latitude": "-10.75000000",
      "longitude": "-77.76667000"
   },
   {
      "name": "Caleta de Carquín",
      "countryCode": "PE",
      "stateCode": "LIM",
      "latitude": "-11.09250000",
      "longitude": "-77.62667000"
   },
   {
      "name": "Chancay",
      "countryCode": "PE",
      "stateCode": "LIM",
      "latitude": "-11.57139000",
      "longitude": "-77.26722000"
   },
   {
      "name": "Chilca",
      "countryCode": "PE",
      "stateCode": "LIM",
      "latitude": "-12.52111000",
      "longitude": "-76.73722000"
   },
   {
      "name": "Chosica",
      "countryCode": "PE",
      "stateCode": "LIM",
      "latitude": "-11.94306000",
      "longitude": "-76.70944000"
   },
   {
      "name": "Huacho",
      "countryCode": "PE",
      "stateCode": "LIM",
      "latitude": "-11.10667000",
      "longitude": "-77.60500000"
   },
   {
      "name": "Hualmay",
      "countryCode": "PE",
      "stateCode": "LIM",
      "latitude": "-11.09639000",
      "longitude": "-77.61389000"
   },
   {
      "name": "Huaral",
      "countryCode": "PE",
      "stateCode": "LIM",
      "latitude": "-11.49500000",
      "longitude": "-77.20778000"
   },
   {
      "name": "Huaura",
      "countryCode": "PE",
      "stateCode": "LIM",
      "latitude": "-11.07000000",
      "longitude": "-77.59944000"
   },
   {
      "name": "Imperial",
      "countryCode": "PE",
      "stateCode": "LIM",
      "latitude": "-13.05927000",
      "longitude": "-76.35269000"
   },
   {
      "name": "Independencia",
      "countryCode": "PE",
      "stateCode": "LIM",
      "latitude": "-11.99000000",
      "longitude": "-77.04583000"
   },
   {
      "name": "Lima",
      "countryCode": "PE",
      "stateCode": "LIM",
      "latitude": "-12.04318000",
      "longitude": "-77.02824000"
   },
   {
      "name": "Mala",
      "countryCode": "PE",
      "stateCode": "LIM",
      "latitude": "-12.65806000",
      "longitude": "-76.63083000"
   },
   {
      "name": "Matucana",
      "countryCode": "PE",
      "stateCode": "LIM",
      "latitude": "-11.85000000",
      "longitude": "-76.40000000"
   },
   {
      "name": "Nuevo Imperial",
      "countryCode": "PE",
      "stateCode": "LIM",
      "latitude": "-13.07541000",
      "longitude": "-76.31719000"
   },
   {
      "name": "Oyon",
      "countryCode": "PE",
      "stateCode": "LIM",
      "latitude": "-10.75869000",
      "longitude": "-76.87634000"
   },
   {
      "name": "Paramonga",
      "countryCode": "PE",
      "stateCode": "LIM",
      "latitude": "-10.66667000",
      "longitude": "-77.83333000"
   },
   {
      "name": "Pativilca",
      "countryCode": "PE",
      "stateCode": "LIM",
      "latitude": "-10.70000000",
      "longitude": "-77.78333000"
   },
   {
      "name": "Provincia de Cajatambo",
      "countryCode": "PE",
      "stateCode": "LIM",
      "latitude": "-10.66667000",
      "longitude": "-77.00000000"
   },
   {
      "name": "Provincia de Canta",
      "countryCode": "PE",
      "stateCode": "LIM",
      "latitude": "-11.46667000",
      "longitude": "-76.61667000"
   },
   {
      "name": "Provincia de Cañete",
      "countryCode": "PE",
      "stateCode": "LIM",
      "latitude": "-12.75000000",
      "longitude": "-76.33333000"
   },
   {
      "name": "Provincia de Huaral",
      "countryCode": "PE",
      "stateCode": "LIM",
      "latitude": "-11.25000000",
      "longitude": "-76.91667000"
   },
   {
      "name": "Provincia de Huarochirí",
      "countryCode": "PE",
      "stateCode": "LIM",
      "latitude": "-11.91667000",
      "longitude": "-76.41667000"
   },
   {
      "name": "Provincia de Yauyos",
      "countryCode": "PE",
      "stateCode": "LIM",
      "latitude": "-12.41667000",
      "longitude": "-76.00000000"
   },
   {
      "name": "Puerto Supe",
      "countryCode": "PE",
      "stateCode": "LIM",
      "latitude": "-10.80135000",
      "longitude": "-77.74333000"
   },
   {
      "name": "Quilmaná",
      "countryCode": "PE",
      "stateCode": "LIM",
      "latitude": "-12.94860000",
      "longitude": "-76.38112000"
   },
   {
      "name": "Ricardo Palma",
      "countryCode": "PE",
      "stateCode": "LIM",
      "latitude": "-11.91978000",
      "longitude": "-76.65610000"
   },
   {
      "name": "San Bartolo",
      "countryCode": "PE",
      "stateCode": "LIM",
      "latitude": "-12.38333000",
      "longitude": "-76.78333000"
   },
   {
      "name": "San Isidro",
      "countryCode": "PE",
      "stateCode": "LIM",
      "latitude": "-12.11667000",
      "longitude": "-77.05000000"
   },
   {
      "name": "San Luis",
      "countryCode": "PE",
      "stateCode": "LIM",
      "latitude": "-12.07674000",
      "longitude": "-76.99435000"
   },
   {
      "name": "San Vicente de Cañete",
      "countryCode": "PE",
      "stateCode": "LIM",
      "latitude": "-13.07556000",
      "longitude": "-76.38528000"
   },
   {
      "name": "Santa María",
      "countryCode": "PE",
      "stateCode": "LIM",
      "latitude": "-12.00538000",
      "longitude": "-76.89329000"
   },
   {
      "name": "Santiago de Surco",
      "countryCode": "PE",
      "stateCode": "LIM",
      "latitude": "-12.13588000",
      "longitude": "-77.00742000"
   },
   {
      "name": "Sayán",
      "countryCode": "PE",
      "stateCode": "LIM",
      "latitude": "-11.13333000",
      "longitude": "-77.19460000"
   },
   {
      "name": "Supe",
      "countryCode": "PE",
      "stateCode": "LIM",
      "latitude": "-10.79750000",
      "longitude": "-77.71306000"
   },
   {
      "name": "Urb. Santo Domingo",
      "countryCode": "PE",
      "stateCode": "LIM",
      "latitude": "-11.87655000",
      "longitude": "-77.03345000"
   },
   {
      "name": "Végueta",
      "countryCode": "PE",
      "stateCode": "LIM",
      "latitude": "-11.02253000",
      "longitude": "-77.64378000"
   }
]