[
   {
      "name": "Asen",
      "countryCode": "BG",
      "stateCode": "24",
      "latitude": "42.65000000",
      "longitude": "25.20000000"
   },
   {
      "name": "Chirpan",
      "countryCode": "BG",
      "stateCode": "24",
      "latitude": "42.20000000",
      "longitude": "25.33333000"
   },
   {
      "name": "Gurkovo",
      "countryCode": "BG",
      "stateCode": "24",
      "latitude": "42.66667000",
      "longitude": "25.80000000"
   },
   {
      "name": "Gŭlŭbovo",
      "countryCode": "BG",
      "stateCode": "24",
      "latitude": "42.13333000",
      "longitude": "25.85000000"
   },
   {
      "name": "Kazanlak",
      "countryCode": "BG",
      "stateCode": "24",
      "latitude": "42.61667000",
      "longitude": "25.40000000"
   },
   {
      "name": "Maglizh",
      "countryCode": "BG",
      "stateCode": "24",
      "latitude": "42.60000000",
      "longitude": "25.55000000"
   },
   {
      "name": "Nikolaevo",
      "countryCode": "BG",
      "stateCode": "24",
      "latitude": "42.63333000",
      "longitude": "25.80000000"
   },
   {
      "name": "Obshtina Bratya Daskalovi",
      "countryCode": "BG",
      "stateCode": "24",
      "latitude": "42.30000000",
      "longitude": "25.21667000"
   },
   {
      "name": "Obshtina Chirpan",
      "countryCode": "BG",
      "stateCode": "24",
      "latitude": "42.23333000",
      "longitude": "25.38333000"
   },
   {
      "name": "Obshtina Galabovo",
      "countryCode": "BG",
      "stateCode": "24",
      "latitude": "42.15000000",
      "longitude": "25.96667000"
   },
   {
      "name": "Obshtina Gurkovo",
      "countryCode": "BG",
      "stateCode": "24",
      "latitude": "42.71667000",
      "longitude": "25.80000000"
   },
   {
      "name": "Obshtina Kazanlŭk",
      "countryCode": "BG",
      "stateCode": "24",
      "latitude": "42.61943000",
      "longitude": "25.39885000"
   },
   {
      "name": "Obshtina Maglizh",
      "countryCode": "BG",
      "stateCode": "24",
      "latitude": "42.63333000",
      "longitude": "25.61667000"
   },
   {
      "name": "Obshtina Nikolaevo",
      "countryCode": "BG",
      "stateCode": "24",
      "latitude": "42.60000000",
      "longitude": "25.78333000"
   },
   {
      "name": "Obshtina Opan",
      "countryCode": "BG",
      "stateCode": "24",
      "latitude": "42.21667000",
      "longitude": "25.70000000"
   },
   {
      "name": "Obshtina Pavel Banya",
      "countryCode": "BG",
      "stateCode": "24",
      "latitude": "42.63333000",
      "longitude": "25.13333000"
   },
   {
      "name": "Obshtina Radnevo",
      "countryCode": "BG",
      "stateCode": "24",
      "latitude": "42.30000000",
      "longitude": "25.93333000"
   },
   {
      "name": "Obshtina Stara Zagora",
      "countryCode": "BG",
      "stateCode": "24",
      "latitude": "42.41667000",
      "longitude": "25.63333000"
   },
   {
      "name": "Pavel Banya",
      "countryCode": "BG",
      "stateCode": "24",
      "latitude": "42.60000000",
      "longitude": "25.20000000"
   },
   {
      "name": "Radnevo",
      "countryCode": "BG",
      "stateCode": "24",
      "latitude": "42.30000000",
      "longitude": "25.93333000"
   },
   {
      "name": "Shipka",
      "countryCode": "BG",
      "stateCode": "24",
      "latitude": "42.71667000",
      "longitude": "25.33333000"
   },
   {
      "name": "Stara Zagora",
      "countryCode": "BG",
      "stateCode": "24",
      "latitude": "42.43278000",
      "longitude": "25.64194000"
   }
]