[
   {
      "name": "Bulanık",
      "countryCode": "TR",
      "stateCode": "49",
      "latitude": "39.08656000",
      "longitude": "42.27158000"
   },
   {
      "name": "Hasköy",
      "countryCode": "TR",
      "stateCode": "49",
      "latitude": "38.68231000",
      "longitude": "41.67851000"
   },
   {
      "name": "Korkut",
      "countryCode": "TR",
      "stateCode": "49",
      "latitude": "38.73390000",
      "longitude": "41.78396000"
   },
   {
      "name": "Malazgirt",
      "countryCode": "TR",
      "stateCode": "49",
      "latitude": "39.14650000",
      "longitude": "42.53536000"
   },
   {
      "name": "Merkez",
      "countryCode": "TR",
      "stateCode": "49",
      "latitude": "38.83793000",
      "longitude": "41.48332000"
   },
   {
      "name": "Muş",
      "countryCode": "TR",
      "stateCode": "49",
      "latitude": "38.73163000",
      "longitude": "41.48482000"
   },
   {
      "name": "Varto",
      "countryCode": "TR",
      "stateCode": "49",
      "latitude": "39.17375000",
      "longitude": "41.45402000"
   }
]