[
   {
      "name": "Andacollo",
      "countryCode": "CL",
      "stateCode": "CO",
      "latitude": "-30.21666667",
      "longitude": "-71.08333333"
   },
   {
      "name": "Canela",
      "countryCode": "CL",
      "stateCode": "CO",
      "latitude": "-31.40000000",
      "longitude": "-71.45000000"
   },
   {
      "name": "Combarbalá",
      "countryCode": "CL",
      "stateCode": "CO",
      "latitude": "-31.16666667",
      "longitude": "-71.05000000"
   },
   {
      "name": "Coquimbo",
      "countryCode": "CL",
      "stateCode": "CO",
      "latitude": "-29.95332000",
      "longitude": "-71.33947000"
   },
   {
      "name": "Illapel",
      "countryCode": "CL",
      "stateCode": "CO",
      "latitude": "-31.63349000",
      "longitude": "-71.16967000"
   },
   {
      "name": "La Higuera",
      "countryCode": "CL",
      "stateCode": "CO",
      "latitude": "-29.50000000",
      "longitude": "-71.26666667"
   },
   {
      "name": "La Serena",
      "countryCode": "CL",
      "stateCode": "CO",
      "latitude": "-29.90453000",
      "longitude": "-71.24894000"
   },
   {
      "name": "Los Vilos",
      "countryCode": "CL",
      "stateCode": "CO",
      "latitude": "-31.90000000",
      "longitude": "-71.51666667"
   },
   {
      "name": "Monte Patria",
      "countryCode": "CL",
      "stateCode": "CO",
      "latitude": "-30.69496000",
      "longitude": "-70.95770000"
   },
   {
      "name": "Ovalle",
      "countryCode": "CL",
      "stateCode": "CO",
      "latitude": "-30.60106000",
      "longitude": "-71.19901000"
   },
   {
      "name": "Paihuano",
      "countryCode": "CL",
      "stateCode": "CO",
      "latitude": "-30.02884000",
      "longitude": "-70.51708000"
   },
   {
      "name": "Punitaqui",
      "countryCode": "CL",
      "stateCode": "CO",
      "latitude": "-30.90000000",
      "longitude": "-71.26666667"
   },
   {
      "name": "Río Hurtado",
      "countryCode": "CL",
      "stateCode": "CO",
      "latitude": "-30.26666667",
      "longitude": "-70.70000000"
   },
   {
      "name": "Salamanca",
      "countryCode": "CL",
      "stateCode": "CO",
      "latitude": "-31.77922000",
      "longitude": "-70.96389000"
   },
   {
      "name": "Vicuña",
      "countryCode": "CL",
      "stateCode": "CO",
      "latitude": "-30.03541000",
      "longitude": "-70.71274000"
   }
]