[
   {
      "name": "Bagn",
      "countryCode": "NO",
      "stateCode": "05",
      "latitude": "60.82249000",
      "longitude": "9.55207000"
   },
   {
      "name": "Dokka",
      "countryCode": "NO",
      "stateCode": "05",
      "latitude": "60.83500000",
      "longitude": "10.07362000"
   },
   {
      "name": "Dombås",
      "countryCode": "NO",
      "stateCode": "05",
      "latitude": "62.07554000",
      "longitude": "9.12785000"
   },
   {
      "name": "Dovre",
      "countryCode": "NO",
      "stateCode": "05",
      "latitude": "61.98582000",
      "longitude": "9.24947000"
   },
   {
      "name": "Etnedal",
      "countryCode": "NO",
      "stateCode": "05",
      "latitude": "60.88872000",
      "longitude": "9.64031000"
   },
   {
      "name": "Fagernes",
      "countryCode": "NO",
      "stateCode": "05",
      "latitude": "60.98584000",
      "longitude": "9.23236000"
   },
   {
      "name": "Fossbergom",
      "countryCode": "NO",
      "stateCode": "05",
      "latitude": "61.83772000",
      "longitude": "8.56842000"
   },
   {
      "name": "Gausdal",
      "countryCode": "NO",
      "stateCode": "05",
      "latitude": "61.22685000",
      "longitude": "10.22145000"
   },
   {
      "name": "Gjøvik",
      "countryCode": "NO",
      "stateCode": "05",
      "latitude": "60.79472000",
      "longitude": "10.69287000"
   },
   {
      "name": "Gran",
      "countryCode": "NO",
      "stateCode": "05",
      "latitude": "60.39293000",
      "longitude": "10.56045000"
   },
   {
      "name": "Grua",
      "countryCode": "NO",
      "stateCode": "05",
      "latitude": "60.25701000",
      "longitude": "10.66222000"
   },
   {
      "name": "Hov",
      "countryCode": "NO",
      "stateCode": "05",
      "latitude": "60.69870000",
      "longitude": "10.35193000"
   },
   {
      "name": "Hundorp",
      "countryCode": "NO",
      "stateCode": "05",
      "latitude": "61.55523000",
      "longitude": "9.94069000"
   },
   {
      "name": "Jevnaker",
      "countryCode": "NO",
      "stateCode": "05",
      "latitude": "60.24060000",
      "longitude": "10.38587000"
   },
   {
      "name": "Lena",
      "countryCode": "NO",
      "stateCode": "05",
      "latitude": "60.67391000",
      "longitude": "10.81317000"
   },
   {
      "name": "Lesja",
      "countryCode": "NO",
      "stateCode": "05",
      "latitude": "62.11785000",
      "longitude": "8.86262000"
   },
   {
      "name": "Lillehammer",
      "countryCode": "NO",
      "stateCode": "05",
      "latitude": "61.11464000",
      "longitude": "10.46743000"
   },
   {
      "name": "Lom",
      "countryCode": "NO",
      "stateCode": "05",
      "latitude": "61.83639000",
      "longitude": "8.56811000"
   },
   {
      "name": "Lunner",
      "countryCode": "NO",
      "stateCode": "05",
      "latitude": "60.29462000",
      "longitude": "10.60860000"
   },
   {
      "name": "Nord-Aurdal",
      "countryCode": "NO",
      "stateCode": "05",
      "latitude": "60.98531000",
      "longitude": "9.23661000"
   },
   {
      "name": "Nord-Fron",
      "countryCode": "NO",
      "stateCode": "05",
      "latitude": "61.59556000",
      "longitude": "9.74830000"
   },
   {
      "name": "Nordre Land",
      "countryCode": "NO",
      "stateCode": "05",
      "latitude": "60.83471000",
      "longitude": "10.07543000"
   },
   {
      "name": "Otta",
      "countryCode": "NO",
      "stateCode": "05",
      "latitude": "61.77120000",
      "longitude": "9.53529000"
   },
   {
      "name": "Raufoss",
      "countryCode": "NO",
      "stateCode": "05",
      "latitude": "60.72604000",
      "longitude": "10.61330000"
   },
   {
      "name": "Reinsvoll",
      "countryCode": "NO",
      "stateCode": "05",
      "latitude": "60.67977000",
      "longitude": "10.62175000"
   },
   {
      "name": "Ringebu",
      "countryCode": "NO",
      "stateCode": "05",
      "latitude": "61.52980000",
      "longitude": "10.14180000"
   },
   {
      "name": "Sel",
      "countryCode": "NO",
      "stateCode": "05",
      "latitude": "61.77278000",
      "longitude": "9.53415000"
   },
   {
      "name": "Skjåk",
      "countryCode": "NO",
      "stateCode": "05",
      "latitude": "61.88349000",
      "longitude": "8.26490000"
   },
   {
      "name": "Skreia",
      "countryCode": "NO",
      "stateCode": "05",
      "latitude": "60.65257000",
      "longitude": "10.93564000"
   },
   {
      "name": "Søndre Land",
      "countryCode": "NO",
      "stateCode": "05",
      "latitude": "60.69944000",
      "longitude": "10.35086000"
   },
   {
      "name": "Sør-Aurdal",
      "countryCode": "NO",
      "stateCode": "05",
      "latitude": "60.82242000",
      "longitude": "9.54836000"
   },
   {
      "name": "Sør-Fron",
      "countryCode": "NO",
      "stateCode": "05",
      "latitude": "61.55652000",
      "longitude": "9.93949000"
   },
   {
      "name": "Tretten",
      "countryCode": "NO",
      "stateCode": "05",
      "latitude": "61.31423000",
      "longitude": "10.30066000"
   },
   {
      "name": "Vang",
      "countryCode": "NO",
      "stateCode": "05",
      "latitude": "61.12564000",
      "longitude": "8.57167000"
   },
   {
      "name": "Vestre Slidre",
      "countryCode": "NO",
      "stateCode": "05",
      "latitude": "61.08842000",
      "longitude": "8.98196000"
   },
   {
      "name": "Vestre Toten",
      "countryCode": "NO",
      "stateCode": "05",
      "latitude": "60.72593000",
      "longitude": "10.60764000"
   },
   {
      "name": "Vinstra",
      "countryCode": "NO",
      "stateCode": "05",
      "latitude": "61.59496000",
      "longitude": "9.75134000"
   },
   {
      "name": "Vågå",
      "countryCode": "NO",
      "stateCode": "05",
      "latitude": "61.87565000",
      "longitude": "9.09572000"
   },
   {
      "name": "Vågåmo",
      "countryCode": "NO",
      "stateCode": "05",
      "latitude": "61.87505000",
      "longitude": "9.09671000"
   },
   {
      "name": "Østre Toten",
      "countryCode": "NO",
      "stateCode": "05",
      "latitude": "60.67659000",
      "longitude": "10.81997000"
   },
   {
      "name": "Øyer",
      "countryCode": "NO",
      "stateCode": "05",
      "latitude": "61.26495000",
      "longitude": "10.41297000"
   },
   {
      "name": "Øystre Slidre",
      "countryCode": "NO",
      "stateCode": "05",
      "latitude": "61.13377000",
      "longitude": "9.07872000"
   }
]