[
   {
      "name": "Bahía Asunción",
      "countryCode": "MX",
      "stateCode": "BCS",
      "latitude": "27.14231000",
      "longitude": "-114.29582000"
   },
   {
      "name": "Bahía Tortugas",
      "countryCode": "MX",
      "stateCode": "BCS",
      "latitude": "27.69056000",
      "longitude": "-114.89660000"
   },
   {
      "name": "Cabo San Lucas",
      "countryCode": "MX",
      "stateCode": "BCS",
      "latitude": "22.89088000",
      "longitude": "-109.91238000"
   },
   {
      "name": "Chametla",
      "countryCode": "MX",
      "stateCode": "BCS",
      "latitude": "24.09926000",
      "longitude": "-110.37395000"
   },
   {
      "name": "Ciudad Constitución",
      "countryCode": "MX",
      "stateCode": "BCS",
      "latitude": "25.03210000",
      "longitude": "-111.66256000"
   },
   {
      "name": "Ciudad Insurgentes",
      "countryCode": "MX",
      "stateCode": "BCS",
      "latitude": "25.26345000",
      "longitude": "-111.77444000"
   },
   {
      "name": "Colonia del Sol",
      "countryCode": "MX",
      "stateCode": "BCS",
      "latitude": "22.91273000",
      "longitude": "-109.92655000"
   },
   {
      "name": "Comondú",
      "countryCode": "MX",
      "stateCode": "BCS",
      "latitude": "26.06667000",
      "longitude": "-111.81666000"
   },
   {
      "name": "El Centenario",
      "countryCode": "MX",
      "stateCode": "BCS",
      "latitude": "24.10250000",
      "longitude": "-110.41444000"
   },
   {
      "name": "El Pescadero",
      "countryCode": "MX",
      "stateCode": "BCS",
      "latitude": "23.36417000",
      "longitude": "-110.16833000"
   },
   {
      "name": "El Silencio",
      "countryCode": "MX",
      "stateCode": "BCS",
      "latitude": "27.46801000",
      "longitude": "-113.29987000"
   },
   {
      "name": "La Paz",
      "countryCode": "MX",
      "stateCode": "BCS",
      "latitude": "24.14437000",
      "longitude": "-110.30050000"
   },
   {
      "name": "La Playa",
      "countryCode": "MX",
      "stateCode": "BCS",
      "latitude": "23.06417000",
      "longitude": "-109.66833000"
   },
   {
      "name": "La Rivera",
      "countryCode": "MX",
      "stateCode": "BCS",
      "latitude": "23.59458000",
      "longitude": "-109.58523000"
   },
   {
      "name": "Las Margaritas",
      "countryCode": "MX",
      "stateCode": "BCS",
      "latitude": "27.61833000",
      "longitude": "-113.45361000"
   },
   {
      "name": "Las Palmas",
      "countryCode": "MX",
      "stateCode": "BCS",
      "latitude": "22.93672000",
      "longitude": "-109.94235000"
   },
   {
      "name": "Las Veredas",
      "countryCode": "MX",
      "stateCode": "BCS",
      "latitude": "23.15028000",
      "longitude": "-109.70611000"
   },
   {
      "name": "Loreto",
      "countryCode": "MX",
      "stateCode": "BCS",
      "latitude": "26.01217000",
      "longitude": "-111.34888000"
   },
   {
      "name": "Los Barriles",
      "countryCode": "MX",
      "stateCode": "BCS",
      "latitude": "23.68273000",
      "longitude": "-109.69953000"
   },
   {
      "name": "Los Cabos",
      "countryCode": "MX",
      "stateCode": "BCS",
      "latitude": "23.27663000",
      "longitude": "-109.75322000"
   },
   {
      "name": "Melitón Albáñez Domínguez",
      "countryCode": "MX",
      "stateCode": "BCS",
      "latitude": "23.66139000",
      "longitude": "-110.42083000"
   },
   {
      "name": "Miraflores",
      "countryCode": "MX",
      "stateCode": "BCS",
      "latitude": "23.36975000",
      "longitude": "-109.77436000"
   },
   {
      "name": "Mulegé",
      "countryCode": "MX",
      "stateCode": "BCS",
      "latitude": "26.60000000",
      "longitude": "-112.33333000"
   },
   {
      "name": "Puerto Adolfo Lopez Mateos",
      "countryCode": "MX",
      "stateCode": "BCS",
      "latitude": "25.19224000",
      "longitude": "-112.11680000"
   },
   {
      "name": "Puerto San Carlos",
      "countryCode": "MX",
      "stateCode": "BCS",
      "latitude": "24.78874000",
      "longitude": "-112.10504000"
   },
   {
      "name": "San Francisco",
      "countryCode": "MX",
      "stateCode": "BCS",
      "latitude": "27.64500000",
      "longitude": "-113.41917000"
   },
   {
      "name": "San José del Cabo",
      "countryCode": "MX",
      "stateCode": "BCS",
      "latitude": "23.05888000",
      "longitude": "-109.69771000"
   },
   {
      "name": "Santa Rosalía",
      "countryCode": "MX",
      "stateCode": "BCS",
      "latitude": "27.34045000",
      "longitude": "-112.26761000"
   },
   {
      "name": "Todos Santos",
      "countryCode": "MX",
      "stateCode": "BCS",
      "latitude": "23.44688000",
      "longitude": "-110.22308000"
   },
   {
      "name": "Villa Alberto Andrés Alvarado Arámburo",
      "countryCode": "MX",
      "stateCode": "BCS",
      "latitude": "27.64444000",
      "longitude": "-113.38472000"
   },
   {
      "name": "Villa Morelos",
      "countryCode": "MX",
      "stateCode": "BCS",
      "latitude": "24.93000000",
      "longitude": "-111.62806000"
   }
]