[
   {
      "name": "Bỉm Sơn",
      "countryCode": "VN",
      "stateCode": "21",
      "latitude": "20.07806000",
      "longitude": "105.86028000"
   },
   {
      "name": "Huyện Bá Thước",
      "countryCode": "VN",
      "stateCode": "21",
      "latitude": "20.35767000",
      "longitude": "105.25301000"
   },
   {
      "name": "Huyện Cẩm Thủy",
      "countryCode": "VN",
      "stateCode": "21",
      "latitude": "20.19586000",
      "longitude": "105.46817000"
   },
   {
      "name": "Huyện Hà Trung",
      "countryCode": "VN",
      "stateCode": "21",
      "latitude": "20.02654000",
      "longitude": "105.81931000"
   },
   {
      "name": "Huyện Hậu Lộc",
      "countryCode": "VN",
      "stateCode": "21",
      "latitude": "19.93337000",
      "longitude": "105.88894000"
   },
   {
      "name": "Huyện Lang Chánh",
      "countryCode": "VN",
      "stateCode": "21",
      "latitude": "20.15926000",
      "longitude": "105.15071000"
   },
   {
      "name": "Huyện Mường Lát",
      "countryCode": "VN",
      "stateCode": "21",
      "latitude": "20.52763000",
      "longitude": "104.62941000"
   },
   {
      "name": "Huyện Nga Sơn",
      "countryCode": "VN",
      "stateCode": "21",
      "latitude": "20.01561000",
      "longitude": "105.98975000"
   },
   {
      "name": "Huyện Ngọc Lặc",
      "countryCode": "VN",
      "stateCode": "21",
      "latitude": "20.06777000",
      "longitude": "105.37386000"
   },
   {
      "name": "Huyện Như Thanh",
      "countryCode": "VN",
      "stateCode": "21",
      "latitude": "19.57798000",
      "longitude": "105.55616000"
   },
   {
      "name": "Huyện Như Xuân",
      "countryCode": "VN",
      "stateCode": "21",
      "latitude": "19.62527000",
      "longitude": "105.38856000"
   },
   {
      "name": "Huyện Nông Cống",
      "countryCode": "VN",
      "stateCode": "21",
      "latitude": "19.61376000",
      "longitude": "105.68279000"
   },
   {
      "name": "Huyện Quan Hóa",
      "countryCode": "VN",
      "stateCode": "21",
      "latitude": "20.47565000",
      "longitude": "104.95335000"
   },
   {
      "name": "Huyện Quan Sơn",
      "countryCode": "VN",
      "stateCode": "21",
      "latitude": "20.25758000",
      "longitude": "104.83416000"
   },
   {
      "name": "Huyện Quảng Xương",
      "countryCode": "VN",
      "stateCode": "21",
      "latitude": "19.70252000",
      "longitude": "105.79298000"
   },
   {
      "name": "Huyện Thiệu Hóa",
      "countryCode": "VN",
      "stateCode": "21",
      "latitude": "19.89713000",
      "longitude": "105.68144000"
   },
   {
      "name": "Huyện Thường Xuân",
      "countryCode": "VN",
      "stateCode": "21",
      "latitude": "19.93684000",
      "longitude": "105.24109000"
   },
   {
      "name": "Huyện Thọ Xuân",
      "countryCode": "VN",
      "stateCode": "21",
      "latitude": "19.93114000",
      "longitude": "105.48284000"
   },
   {
      "name": "Huyện Triệu Sơn",
      "countryCode": "VN",
      "stateCode": "21",
      "latitude": "19.82578000",
      "longitude": "105.58293000"
   },
   {
      "name": "Huyện Vĩnh Lộc",
      "countryCode": "VN",
      "stateCode": "21",
      "latitude": "20.03482000",
      "longitude": "105.65755000"
   },
   {
      "name": "Huyện Yên Định",
      "countryCode": "VN",
      "stateCode": "21",
      "latitude": "19.98666000",
      "longitude": "105.61482000"
   },
   {
      "name": "Huyện Đông Sơn",
      "countryCode": "VN",
      "stateCode": "21",
      "latitude": "19.79742000",
      "longitude": "105.72465000"
   },
   {
      "name": "Thanh Hóa",
      "countryCode": "VN",
      "stateCode": "21",
      "latitude": "19.80000000",
      "longitude": "105.76667000"
   }
]