[
   {
      "name": "Almus",
      "countryCode": "TR",
      "stateCode": "60",
      "latitude": "40.37583000",
      "longitude": "36.90444000"
   },
   {
      "name": "Artova",
      "countryCode": "TR",
      "stateCode": "60",
      "latitude": "40.11578000",
      "longitude": "36.30010000"
   },
   {
      "name": "Başçiftlik",
      "countryCode": "TR",
      "stateCode": "60",
      "latitude": "40.54694000",
      "longitude": "37.16917000"
   },
   {
      "name": "Erbaa",
      "countryCode": "TR",
      "stateCode": "60",
      "latitude": "40.71390000",
      "longitude": "36.59364000"
   },
   {
      "name": "Niksar",
      "countryCode": "TR",
      "stateCode": "60",
      "latitude": "40.60509000",
      "longitude": "36.97174000"
   },
   {
      "name": "Pazar",
      "countryCode": "TR",
      "stateCode": "60",
      "latitude": "40.27652000",
      "longitude": "36.28347000"
   },
   {
      "name": "Reşadiye",
      "countryCode": "TR",
      "stateCode": "60",
      "latitude": "40.43284000",
      "longitude": "37.37652000"
   },
   {
      "name": "Sulusaray",
      "countryCode": "TR",
      "stateCode": "60",
      "latitude": "39.99389000",
      "longitude": "36.08404000"
   },
   {
      "name": "Tokat",
      "countryCode": "TR",
      "stateCode": "60",
      "latitude": "40.31389000",
      "longitude": "36.55444000"
   },
   {
      "name": "Turhal",
      "countryCode": "TR",
      "stateCode": "60",
      "latitude": "40.38750000",
      "longitude": "36.08111000"
   },
   {
      "name": "Yeşilyurt İlçesi",
      "countryCode": "TR",
      "stateCode": "60",
      "latitude": "39.99916000",
      "longitude": "36.23479000"
   },
   {
      "name": "Zile",
      "countryCode": "TR",
      "stateCode": "60",
      "latitude": "40.30306000",
      "longitude": "35.88639000"
   }
]