[
   {
      "name": "Acton",
      "countryCode": "AU",
      "stateCode": "ACT",
      "latitude": "-35.27767000",
      "longitude": "149.11829000"
   },
   {
      "name": "Ainslie",
      "countryCode": "AU",
      "stateCode": "ACT",
      "latitude": "-35.26255000",
      "longitude": "149.14370000"
   },
   {
      "name": "Amaroo",
      "countryCode": "AU",
      "stateCode": "ACT",
      "latitude": "-35.16959000",
      "longitude": "149.12802000"
   },
   {
      "name": "Aranda",
      "countryCode": "AU",
      "stateCode": "ACT",
      "latitude": "-35.25817000",
      "longitude": "149.08040000"
   },
   {
      "name": "Banks",
      "countryCode": "AU",
      "stateCode": "ACT",
      "latitude": "-35.47194000",
      "longitude": "149.09965000"
   },
   {
      "name": "Barton",
      "countryCode": "AU",
      "stateCode": "ACT",
      "latitude": "-35.30489000",
      "longitude": "149.14121000"
   },
   {
      "name": "Belconnen",
      "countryCode": "AU",
      "stateCode": "ACT",
      "latitude": "-35.23798000",
      "longitude": "149.06627000"
   },
   {
      "name": "Bonner",
      "countryCode": "AU",
      "stateCode": "ACT",
      "latitude": "-35.16225000",
      "longitude": "149.13855000"
   },
   {
      "name": "Bonython",
      "countryCode": "AU",
      "stateCode": "ACT",
      "latitude": "-35.43326000",
      "longitude": "149.07822000"
   },
   {
      "name": "Braddon",
      "countryCode": "AU",
      "stateCode": "ACT",
      "latitude": "-35.27078000",
      "longitude": "149.13569000"
   },
   {
      "name": "Bruce",
      "countryCode": "AU",
      "stateCode": "ACT",
      "latitude": "-35.24405000",
      "longitude": "149.09083000"
   },
   {
      "name": "Calwell",
      "countryCode": "AU",
      "stateCode": "ACT",
      "latitude": "-35.44042000",
      "longitude": "149.10707000"
   },
   {
      "name": "Campbell",
      "countryCode": "AU",
      "stateCode": "ACT",
      "latitude": "-35.28907000",
      "longitude": "149.15382000"
   },
   {
      "name": "Canberra",
      "countryCode": "AU",
      "stateCode": "ACT",
      "latitude": "-35.28346000",
      "longitude": "149.12807000"
   },
   {
      "name": "Casey",
      "countryCode": "AU",
      "stateCode": "ACT",
      "latitude": "-35.16701000",
      "longitude": "149.09470000"
   },
   {
      "name": "Chapman",
      "countryCode": "AU",
      "stateCode": "ACT",
      "latitude": "-35.35621000",
      "longitude": "149.03742000"
   },
   {
      "name": "Charnwood",
      "countryCode": "AU",
      "stateCode": "ACT",
      "latitude": "-35.20019000",
      "longitude": "149.03412000"
   },
   {
      "name": "Chifley",
      "countryCode": "AU",
      "stateCode": "ACT",
      "latitude": "-35.35340000",
      "longitude": "149.07684000"
   },
   {
      "name": "Chisholm",
      "countryCode": "AU",
      "stateCode": "ACT",
      "latitude": "-35.41249000",
      "longitude": "149.12825000"
   },
   {
      "name": "City",
      "countryCode": "AU",
      "stateCode": "ACT",
      "latitude": "-35.28125000",
      "longitude": "149.12927000"
   },
   {
      "name": "Conder",
      "countryCode": "AU",
      "stateCode": "ACT",
      "latitude": "-35.45926000",
      "longitude": "149.10422000"
   },
   {
      "name": "Cook",
      "countryCode": "AU",
      "stateCode": "ACT",
      "latitude": "-35.26014000",
      "longitude": "149.06566000"
   },
   {
      "name": "Coombs",
      "countryCode": "AU",
      "stateCode": "ACT",
      "latitude": "-35.31634000",
      "longitude": "149.03941000"
   },
   {
      "name": "Crace",
      "countryCode": "AU",
      "stateCode": "ACT",
      "latitude": "-35.20282000",
      "longitude": "149.10736000"
   },
   {
      "name": "Curtin",
      "countryCode": "AU",
      "stateCode": "ACT",
      "latitude": "-35.32464000",
      "longitude": "149.07763000"
   },
   {
      "name": "Deakin",
      "countryCode": "AU",
      "stateCode": "ACT",
      "latitude": "-35.31927000",
      "longitude": "149.10308000"
   },
   {
      "name": "Dickson",
      "countryCode": "AU",
      "stateCode": "ACT",
      "latitude": "-35.25082000",
      "longitude": "149.13932000"
   },
   {
      "name": "Downer",
      "countryCode": "AU",
      "stateCode": "ACT",
      "latitude": "-35.24457000",
      "longitude": "149.14468000"
   },
   {
      "name": "Duffy",
      "countryCode": "AU",
      "stateCode": "ACT",
      "latitude": "-35.33459000",
      "longitude": "149.03188000"
   },
   {
      "name": "Dunlop",
      "countryCode": "AU",
      "stateCode": "ACT",
      "latitude": "-35.19402000",
      "longitude": "149.01984000"
   },
   {
      "name": "Evatt",
      "countryCode": "AU",
      "stateCode": "ACT",
      "latitude": "-35.21191000",
      "longitude": "149.06891000"
   },
   {
      "name": "Fadden",
      "countryCode": "AU",
      "stateCode": "ACT",
      "latitude": "-35.40500000",
      "longitude": "149.11662000"
   },
   {
      "name": "Farrer",
      "countryCode": "AU",
      "stateCode": "ACT",
      "latitude": "-35.37673000",
      "longitude": "149.10500000"
   },
   {
      "name": "Fisher",
      "countryCode": "AU",
      "stateCode": "ACT",
      "latitude": "-35.36126000",
      "longitude": "149.05704000"
   },
   {
      "name": "Florey",
      "countryCode": "AU",
      "stateCode": "ACT",
      "latitude": "-35.22588000",
      "longitude": "149.05000000"
   },
   {
      "name": "Flynn",
      "countryCode": "AU",
      "stateCode": "ACT",
      "latitude": "-35.20593000",
      "longitude": "149.04389000"
   },
   {
      "name": "Forde",
      "countryCode": "AU",
      "stateCode": "ACT",
      "latitude": "-35.16823000",
      "longitude": "149.14607000"
   },
   {
      "name": "Forrest",
      "countryCode": "AU",
      "stateCode": "ACT",
      "latitude": "-35.31499000",
      "longitude": "149.12859000"
   },
   {
      "name": "Franklin",
      "countryCode": "AU",
      "stateCode": "ACT",
      "latitude": "-35.19946000",
      "longitude": "149.14329000"
   },
   {
      "name": "Fraser",
      "countryCode": "AU",
      "stateCode": "ACT",
      "latitude": "-35.19170000",
      "longitude": "149.04534000"
   },
   {
      "name": "Garran",
      "countryCode": "AU",
      "stateCode": "ACT",
      "latitude": "-35.34206000",
      "longitude": "149.10846000"
   },
   {
      "name": "Gilmore",
      "countryCode": "AU",
      "stateCode": "ACT",
      "latitude": "-35.41994000",
      "longitude": "149.13481000"
   },
   {
      "name": "Giralang",
      "countryCode": "AU",
      "stateCode": "ACT",
      "latitude": "-35.21093000",
      "longitude": "149.09600000"
   },
   {
      "name": "Gordon",
      "countryCode": "AU",
      "stateCode": "ACT",
      "latitude": "-35.45676000",
      "longitude": "149.08498000"
   },
   {
      "name": "Gowrie",
      "countryCode": "AU",
      "stateCode": "ACT",
      "latitude": "-35.41187000",
      "longitude": "149.10903000"
   },
   {
      "name": "Greenway",
      "countryCode": "AU",
      "stateCode": "ACT",
      "latitude": "-35.41829000",
      "longitude": "149.06658000"
   },
   {
      "name": "Griffith",
      "countryCode": "AU",
      "stateCode": "ACT",
      "latitude": "-35.32533000",
      "longitude": "149.13714000"
   },
   {
      "name": "Gungahlin",
      "countryCode": "AU",
      "stateCode": "ACT",
      "latitude": "-35.18674000",
      "longitude": "149.13619000"
   },
   {
      "name": "Hackett",
      "countryCode": "AU",
      "stateCode": "ACT",
      "latitude": "-35.24948000",
      "longitude": "149.16352000"
   },
   {
      "name": "Harrison",
      "countryCode": "AU",
      "stateCode": "ACT",
      "latitude": "-35.19906000",
      "longitude": "149.15631000"
   },
   {
      "name": "Hawker",
      "countryCode": "AU",
      "stateCode": "ACT",
      "latitude": "-35.24707000",
      "longitude": "149.03666000"
   },
   {
      "name": "Higgins",
      "countryCode": "AU",
      "stateCode": "ACT",
      "latitude": "-35.23242000",
      "longitude": "149.02720000"
   },
   {
      "name": "Holder",
      "countryCode": "AU",
      "stateCode": "ACT",
      "latitude": "-35.33439000",
      "longitude": "149.04614000"
   },
   {
      "name": "Holt",
      "countryCode": "AU",
      "stateCode": "ACT",
      "latitude": "-35.22441000",
      "longitude": "149.01188000"
   },
   {
      "name": "Hughes",
      "countryCode": "AU",
      "stateCode": "ACT",
      "latitude": "-35.33269000",
      "longitude": "149.09491000"
   },
   {
      "name": "Isaacs",
      "countryCode": "AU",
      "stateCode": "ACT",
      "latitude": "-35.36862000",
      "longitude": "149.11555000"
   },
   {
      "name": "Isabella Plains",
      "countryCode": "AU",
      "stateCode": "ACT",
      "latitude": "-35.42829000",
      "longitude": "149.08795000"
   },
   {
      "name": "Kaleen",
      "countryCode": "AU",
      "stateCode": "ACT",
      "latitude": "-35.21814000",
      "longitude": "149.10516000"
   },
   {
      "name": "Kambah",
      "countryCode": "AU",
      "stateCode": "ACT",
      "latitude": "-35.38624000",
      "longitude": "149.05804000"
   },
   {
      "name": "Kingston",
      "countryCode": "AU",
      "stateCode": "ACT",
      "latitude": "-35.31525000",
      "longitude": "149.14658000"
   },
   {
      "name": "Latham",
      "countryCode": "AU",
      "stateCode": "ACT",
      "latitude": "-35.21652000",
      "longitude": "149.03144000"
   },
   {
      "name": "Lyneham",
      "countryCode": "AU",
      "stateCode": "ACT",
      "latitude": "-35.23980000",
      "longitude": "149.13074000"
   },
   {
      "name": "Lyons",
      "countryCode": "AU",
      "stateCode": "ACT",
      "latitude": "-35.34060000",
      "longitude": "149.07396000"
   },
   {
      "name": "Macarthur",
      "countryCode": "AU",
      "stateCode": "ACT",
      "latitude": "-35.40885000",
      "longitude": "149.12696000"
   },
   {
      "name": "Macgregor",
      "countryCode": "AU",
      "stateCode": "ACT",
      "latitude": "-35.20980000",
      "longitude": "149.01101000"
   },
   {
      "name": "Macquarie",
      "countryCode": "AU",
      "stateCode": "ACT",
      "latitude": "-35.25126000",
      "longitude": "149.06363000"
   },
   {
      "name": "Mawson",
      "countryCode": "AU",
      "stateCode": "ACT",
      "latitude": "-35.36340000",
      "longitude": "149.09863000"
   },
   {
      "name": "McKellar",
      "countryCode": "AU",
      "stateCode": "ACT",
      "latitude": "-35.21752000",
      "longitude": "149.07704000"
   },
   {
      "name": "Melba",
      "countryCode": "AU",
      "stateCode": "ACT",
      "latitude": "-35.21016000",
      "longitude": "149.05405000"
   },
   {
      "name": "Monash",
      "countryCode": "AU",
      "stateCode": "ACT",
      "latitude": "-35.41577000",
      "longitude": "149.09063000"
   },
   {
      "name": "Narrabundah",
      "countryCode": "AU",
      "stateCode": "ACT",
      "latitude": "-35.33570000",
      "longitude": "149.14924000"
   },
   {
      "name": "Ngunnawal",
      "countryCode": "AU",
      "stateCode": "ACT",
      "latitude": "-35.17280000",
      "longitude": "149.11147000"
   },
   {
      "name": "Nicholls",
      "countryCode": "AU",
      "stateCode": "ACT",
      "latitude": "-35.18733000",
      "longitude": "149.09648000"
   },
   {
      "name": "O'Connor",
      "countryCode": "AU",
      "stateCode": "ACT",
      "latitude": "-35.25645000",
      "longitude": "149.11248000"
   },
   {
      "name": "Oxley",
      "countryCode": "AU",
      "stateCode": "ACT",
      "latitude": "-35.40952000",
      "longitude": "149.07860000"
   },
   {
      "name": "Page",
      "countryCode": "AU",
      "stateCode": "ACT",
      "latitude": "-35.23864000",
      "longitude": "149.04988000"
   },
   {
      "name": "Palmerston",
      "countryCode": "AU",
      "stateCode": "ACT",
      "latitude": "-35.19447000",
      "longitude": "149.11940000"
   },
   {
      "name": "Pearce",
      "countryCode": "AU",
      "stateCode": "ACT",
      "latitude": "-35.36222000",
      "longitude": "149.08338000"
   },
   {
      "name": "Phillip",
      "countryCode": "AU",
      "stateCode": "ACT",
      "latitude": "-35.35035000",
      "longitude": "149.09151000"
   },
   {
      "name": "Red Hill",
      "countryCode": "AU",
      "stateCode": "ACT",
      "latitude": "-35.32624000",
      "longitude": "149.11906000"
   },
   {
      "name": "Reid",
      "countryCode": "AU",
      "stateCode": "ACT",
      "latitude": "-35.28578000",
      "longitude": "149.13905000"
   },
   {
      "name": "Richardson",
      "countryCode": "AU",
      "stateCode": "ACT",
      "latitude": "-35.42787000",
      "longitude": "149.11377000"
   },
   {
      "name": "Rivett",
      "countryCode": "AU",
      "stateCode": "ACT",
      "latitude": "-35.34709000",
      "longitude": "149.03790000"
   },
   {
      "name": "Scullin",
      "countryCode": "AU",
      "stateCode": "ACT",
      "latitude": "-35.23462000",
      "longitude": "149.03900000"
   },
   {
      "name": "Spence",
      "countryCode": "AU",
      "stateCode": "ACT",
      "latitude": "-35.19873000",
      "longitude": "149.06438000"
   },
   {
      "name": "Stirling",
      "countryCode": "AU",
      "stateCode": "ACT",
      "latitude": "-35.34969000",
      "longitude": "149.04930000"
   },
   {
      "name": "Theodore",
      "countryCode": "AU",
      "stateCode": "ACT",
      "latitude": "-35.44962000",
      "longitude": "149.11971000"
   },
   {
      "name": "Torrens",
      "countryCode": "AU",
      "stateCode": "ACT",
      "latitude": "-35.37203000",
      "longitude": "149.08773000"
   },
   {
      "name": "Turner",
      "countryCode": "AU",
      "stateCode": "ACT",
      "latitude": "-35.26881000",
      "longitude": "149.12465000"
   },
   {
      "name": "Wanniassa",
      "countryCode": "AU",
      "stateCode": "ACT",
      "latitude": "-35.39783000",
      "longitude": "149.09086000"
   },
   {
      "name": "Waramanga",
      "countryCode": "AU",
      "stateCode": "ACT",
      "latitude": "-35.35297000",
      "longitude": "149.06214000"
   },
   {
      "name": "Watson",
      "countryCode": "AU",
      "stateCode": "ACT",
      "latitude": "-35.23815000",
      "longitude": "149.15271000"
   },
   {
      "name": "Weetangera",
      "countryCode": "AU",
      "stateCode": "ACT",
      "latitude": "-35.25000000",
      "longitude": "149.05000000"
   },
   {
      "name": "Weston",
      "countryCode": "AU",
      "stateCode": "ACT",
      "latitude": "-35.33582000",
      "longitude": "149.05929000"
   },
   {
      "name": "Wright",
      "countryCode": "AU",
      "stateCode": "ACT",
      "latitude": "-35.32239000",
      "longitude": "149.03456000"
   },
   {
      "name": "Yarralumla",
      "countryCode": "AU",
      "stateCode": "ACT",
      "latitude": "-35.29980000",
      "longitude": "149.10585000"
   }
]