[
   {
      "name": "Allanridge",
      "countryCode": "ZA",
      "stateCode": "FS",
      "latitude": "-27.75431000",
      "longitude": "26.64382000"
   },
   {
      "name": "Bethlehem",
      "countryCode": "ZA",
      "stateCode": "FS",
      "latitude": "-28.23078000",
      "longitude": "28.30707000"
   },
   {
      "name": "Bloemfontein",
      "countryCode": "ZA",
      "stateCode": "FS",
      "latitude": "-29.12107000",
      "longitude": "26.21400000"
   },
   {
      "name": "Bothaville",
      "countryCode": "ZA",
      "stateCode": "FS",
      "latitude": "-27.38870000",
      "longitude": "26.61701000"
   },
   {
      "name": "Botshabelo",
      "countryCode": "ZA",
      "stateCode": "FS",
      "latitude": "-29.26737000",
      "longitude": "26.72595000"
   },
   {
      "name": "Brandfort",
      "countryCode": "ZA",
      "stateCode": "FS",
      "latitude": "-28.70008000",
      "longitude": "26.45968000"
   },
   {
      "name": "Clocolan",
      "countryCode": "ZA",
      "stateCode": "FS",
      "latitude": "-28.91367000",
      "longitude": "27.56555000"
   },
   {
      "name": "Deneysville",
      "countryCode": "ZA",
      "stateCode": "FS",
      "latitude": "-26.89080000",
      "longitude": "28.09707000"
   },
   {
      "name": "Fezile Dabi District Municipality",
      "countryCode": "ZA",
      "stateCode": "FS",
      "latitude": "-27.33918000",
      "longitude": "27.71927000"
   },
   {
      "name": "Frankfort",
      "countryCode": "ZA",
      "stateCode": "FS",
      "latitude": "-27.27888000",
      "longitude": "28.49696000"
   },
   {
      "name": "Harrismith",
      "countryCode": "ZA",
      "stateCode": "FS",
      "latitude": "-28.27276000",
      "longitude": "29.12946000"
   },
   {
      "name": "Heilbron",
      "countryCode": "ZA",
      "stateCode": "FS",
      "latitude": "-27.28115000",
      "longitude": "27.97090000"
   },
   {
      "name": "Hennenman",
      "countryCode": "ZA",
      "stateCode": "FS",
      "latitude": "-27.97654000",
      "longitude": "27.02423000"
   },
   {
      "name": "Hoopstad",
      "countryCode": "ZA",
      "stateCode": "FS",
      "latitude": "-27.83273000",
      "longitude": "25.90833000"
   },
   {
      "name": "Koppies",
      "countryCode": "ZA",
      "stateCode": "FS",
      "latitude": "-27.24179000",
      "longitude": "27.57422000"
   },
   {
      "name": "Kroonstad",
      "countryCode": "ZA",
      "stateCode": "FS",
      "latitude": "-27.65036000",
      "longitude": "27.23488000"
   },
   {
      "name": "Kutloanong",
      "countryCode": "ZA",
      "stateCode": "FS",
      "latitude": "-27.83333000",
      "longitude": "26.75000000"
   },
   {
      "name": "Ladybrand",
      "countryCode": "ZA",
      "stateCode": "FS",
      "latitude": "-29.19448000",
      "longitude": "27.45739000"
   },
   {
      "name": "Lejweleputswa District Municipality",
      "countryCode": "ZA",
      "stateCode": "FS",
      "latitude": "-28.23982000",
      "longitude": "26.12649000"
   },
   {
      "name": "Lindley",
      "countryCode": "ZA",
      "stateCode": "FS",
      "latitude": "-27.87910000",
      "longitude": "27.91348000"
   },
   {
      "name": "Mangaung Metropolitan Municipality",
      "countryCode": "ZA",
      "stateCode": "FS",
      "latitude": "-29.15627000",
      "longitude": "26.35116000"
   },
   {
      "name": "Marquard",
      "countryCode": "ZA",
      "stateCode": "FS",
      "latitude": "-28.66449000",
      "longitude": "27.43048000"
   },
   {
      "name": "Parys",
      "countryCode": "ZA",
      "stateCode": "FS",
      "latitude": "-26.90330000",
      "longitude": "27.45727000"
   },
   {
      "name": "Phuthaditjhaba",
      "countryCode": "ZA",
      "stateCode": "FS",
      "latitude": "-28.52423000",
      "longitude": "28.81582000"
   },
   {
      "name": "Reitz",
      "countryCode": "ZA",
      "stateCode": "FS",
      "latitude": "-27.80138000",
      "longitude": "28.42726000"
   },
   {
      "name": "Sasolburg",
      "countryCode": "ZA",
      "stateCode": "FS",
      "latitude": "-26.81358000",
      "longitude": "27.81695000"
   },
   {
      "name": "Senekal",
      "countryCode": "ZA",
      "stateCode": "FS",
      "latitude": "-28.31971000",
      "longitude": "27.62082000"
   },
   {
      "name": "Thaba Nchu",
      "countryCode": "ZA",
      "stateCode": "FS",
      "latitude": "-29.20932000",
      "longitude": "26.83898000"
   },
   {
      "name": "Thabo Mofutsanyana District Municipality",
      "countryCode": "ZA",
      "stateCode": "FS",
      "latitude": "-28.24378000",
      "longitude": "28.34077000"
   },
   {
      "name": "Theunissen",
      "countryCode": "ZA",
      "stateCode": "FS",
      "latitude": "-28.41098000",
      "longitude": "26.70107000"
   },
   {
      "name": "Ventersburg",
      "countryCode": "ZA",
      "stateCode": "FS",
      "latitude": "-28.08561000",
      "longitude": "27.13814000"
   },
   {
      "name": "Viljoenskroon",
      "countryCode": "ZA",
      "stateCode": "FS",
      "latitude": "-27.20841000",
      "longitude": "26.94855000"
   },
   {
      "name": "Villiers",
      "countryCode": "ZA",
      "stateCode": "FS",
      "latitude": "-27.03026000",
      "longitude": "28.60061000"
   },
   {
      "name": "Virginia",
      "countryCode": "ZA",
      "stateCode": "FS",
      "latitude": "-28.10391000",
      "longitude": "26.86593000"
   },
   {
      "name": "Vrede",
      "countryCode": "ZA",
      "stateCode": "FS",
      "latitude": "-27.42573000",
      "longitude": "29.16585000"
   },
   {
      "name": "Vredefort",
      "countryCode": "ZA",
      "stateCode": "FS",
      "latitude": "-27.00805000",
      "longitude": "27.36460000"
   },
   {
      "name": "Welkom",
      "countryCode": "ZA",
      "stateCode": "FS",
      "latitude": "-27.97742000",
      "longitude": "26.73506000"
   },
   {
      "name": "Wesselsbron",
      "countryCode": "ZA",
      "stateCode": "FS",
      "latitude": "-27.85490000",
      "longitude": "26.36583000"
   },
   {
      "name": "Winburg",
      "countryCode": "ZA",
      "stateCode": "FS",
      "latitude": "-28.51805000",
      "longitude": "27.00933000"
   },
   {
      "name": "Xhariep District Municipality",
      "countryCode": "ZA",
      "stateCode": "FS",
      "latitude": "-29.84311000",
      "longitude": "25.83286000"
   },
   {
      "name": "Zastron",
      "countryCode": "ZA",
      "stateCode": "FS",
      "latitude": "-30.30225000",
      "longitude": "27.08395000"
   }
]