[
   {
      "name": "Aleksandro-Nevskiy",
      "countryCode": "RU",
      "stateCode": "RYA",
      "latitude": "53.47510000",
      "longitude": "40.20950000"
   },
   {
      "name": "Bagramovo",
      "countryCode": "RU",
      "stateCode": "RYA",
      "latitude": "54.72337000",
      "longitude": "39.45186000"
   },
   {
      "name": "Chuchkovo",
      "countryCode": "RU",
      "stateCode": "RYA",
      "latitude": "54.26931000",
      "longitude": "41.44648000"
   },
   {
      "name": "Gus’-Zheleznyy",
      "countryCode": "RU",
      "stateCode": "RYA",
      "latitude": "55.05811000",
      "longitude": "41.16556000"
   },
   {
      "name": "Izhevskoye",
      "countryCode": "RU",
      "stateCode": "RYA",
      "latitude": "54.55700000",
      "longitude": "40.87530000"
   },
   {
      "name": "Kadom",
      "countryCode": "RU",
      "stateCode": "RYA",
      "latitude": "54.55917000",
      "longitude": "42.46750000"
   },
   {
      "name": "Kasimov",
      "countryCode": "RU",
      "stateCode": "RYA",
      "latitude": "54.94111000",
      "longitude": "41.39528000"
   },
   {
      "name": "Kasimovskiy Rayon",
      "countryCode": "RU",
      "stateCode": "RYA",
      "latitude": "54.91667000",
      "longitude": "41.41667000"
   },
   {
      "name": "Kiritsy",
      "countryCode": "RU",
      "stateCode": "RYA",
      "latitude": "54.28620000",
      "longitude": "40.35720000"
   },
   {
      "name": "Klepikovskiy Rayon",
      "countryCode": "RU",
      "stateCode": "RYA",
      "latitude": "55.08333000",
      "longitude": "40.08333000"
   },
   {
      "name": "Korablino",
      "countryCode": "RU",
      "stateCode": "RYA",
      "latitude": "53.91639000",
      "longitude": "40.01333000"
   },
   {
      "name": "Lashma",
      "countryCode": "RU",
      "stateCode": "RYA",
      "latitude": "54.93210000",
      "longitude": "41.14379000"
   },
   {
      "name": "Lesnoy",
      "countryCode": "RU",
      "stateCode": "RYA",
      "latitude": "54.21250000",
      "longitude": "40.47130000"
   },
   {
      "name": "Mikhaylov",
      "countryCode": "RU",
      "stateCode": "RYA",
      "latitude": "54.22980000",
      "longitude": "39.02690000"
   },
   {
      "name": "Miloslavskoye",
      "countryCode": "RU",
      "stateCode": "RYA",
      "latitude": "53.58152000",
      "longitude": "39.43992000"
   },
   {
      "name": "Murmino",
      "countryCode": "RU",
      "stateCode": "RYA",
      "latitude": "54.60430000",
      "longitude": "40.05490000"
   },
   {
      "name": "Novomichurinsk",
      "countryCode": "RU",
      "stateCode": "RYA",
      "latitude": "54.03840000",
      "longitude": "39.74790000"
   },
   {
      "name": "Oktyabr’skiy",
      "countryCode": "RU",
      "stateCode": "RYA",
      "latitude": "54.22675000",
      "longitude": "38.89402000"
   },
   {
      "name": "Pavelets",
      "countryCode": "RU",
      "stateCode": "RYA",
      "latitude": "53.78833000",
      "longitude": "39.24601000"
   },
   {
      "name": "Pitelino",
      "countryCode": "RU",
      "stateCode": "RYA",
      "latitude": "54.57768000",
      "longitude": "41.81448000"
   },
   {
      "name": "Polyany",
      "countryCode": "RU",
      "stateCode": "RYA",
      "latitude": "54.71801000",
      "longitude": "39.82932000"
   },
   {
      "name": "Pronsk",
      "countryCode": "RU",
      "stateCode": "RYA",
      "latitude": "54.10480000",
      "longitude": "39.60920000"
   },
   {
      "name": "Putyatino",
      "countryCode": "RU",
      "stateCode": "RYA",
      "latitude": "54.15998000",
      "longitude": "41.11690000"
   },
   {
      "name": "Ryazanskiy Rayon",
      "countryCode": "RU",
      "stateCode": "RYA",
      "latitude": "54.58333000",
      "longitude": "39.75000000"
   },
   {
      "name": "Ryazan’",
      "countryCode": "RU",
      "stateCode": "RYA",
      "latitude": "54.62690000",
      "longitude": "39.69160000"
   },
   {
      "name": "Ryazhsk",
      "countryCode": "RU",
      "stateCode": "RYA",
      "latitude": "53.70380000",
      "longitude": "40.11090000"
   },
   {
      "name": "Rybnovskiy Rayon",
      "countryCode": "RU",
      "stateCode": "RYA",
      "latitude": "54.75000000",
      "longitude": "39.50000000"
   },
   {
      "name": "Rybnoye",
      "countryCode": "RU",
      "stateCode": "RYA",
      "latitude": "54.72774000",
      "longitude": "39.51731000"
   },
   {
      "name": "Sapozhok",
      "countryCode": "RU",
      "stateCode": "RYA",
      "latitude": "53.94194000",
      "longitude": "40.68056000"
   },
   {
      "name": "Sarai",
      "countryCode": "RU",
      "stateCode": "RYA",
      "latitude": "53.74577000",
      "longitude": "41.02126000"
   },
   {
      "name": "Sasovo",
      "countryCode": "RU",
      "stateCode": "RYA",
      "latitude": "54.35369000",
      "longitude": "41.91986000"
   },
   {
      "name": "Shatsk",
      "countryCode": "RU",
      "stateCode": "RYA",
      "latitude": "54.02576000",
      "longitude": "41.71191000"
   },
   {
      "name": "Shilovo",
      "countryCode": "RU",
      "stateCode": "RYA",
      "latitude": "54.32040000",
      "longitude": "40.87400000"
   },
   {
      "name": "Skopin",
      "countryCode": "RU",
      "stateCode": "RYA",
      "latitude": "53.82486000",
      "longitude": "39.55053000"
   },
   {
      "name": "Solotcha",
      "countryCode": "RU",
      "stateCode": "RYA",
      "latitude": "54.78970000",
      "longitude": "39.83336000"
   },
   {
      "name": "Spas-Klepiki",
      "countryCode": "RU",
      "stateCode": "RYA",
      "latitude": "55.13472000",
      "longitude": "40.17673000"
   },
   {
      "name": "Spassk-Ryazanskiy",
      "countryCode": "RU",
      "stateCode": "RYA",
      "latitude": "54.40400000",
      "longitude": "40.37620000"
   },
   {
      "name": "Starozhilovo",
      "countryCode": "RU",
      "stateCode": "RYA",
      "latitude": "54.22540000",
      "longitude": "39.91600000"
   },
   {
      "name": "Syntul",
      "countryCode": "RU",
      "stateCode": "RYA",
      "latitude": "55.00327000",
      "longitude": "41.29711000"
   },
   {
      "name": "Tuma",
      "countryCode": "RU",
      "stateCode": "RYA",
      "latitude": "55.14798000",
      "longitude": "40.55374000"
   },
   {
      "name": "Ukholovo",
      "countryCode": "RU",
      "stateCode": "RYA",
      "latitude": "53.79290000",
      "longitude": "40.48920000"
   },
   {
      "name": "Vilenka",
      "countryCode": "RU",
      "stateCode": "RYA",
      "latitude": "54.26930000",
      "longitude": "38.91663000"
   },
   {
      "name": "Yambirno",
      "countryCode": "RU",
      "stateCode": "RYA",
      "latitude": "54.12310000",
      "longitude": "42.09110000"
   },
   {
      "name": "Yelat’ma",
      "countryCode": "RU",
      "stateCode": "RYA",
      "latitude": "54.96750000",
      "longitude": "41.75083000"
   },
   {
      "name": "Yermish’",
      "countryCode": "RU",
      "stateCode": "RYA",
      "latitude": "54.76778000",
      "longitude": "42.27111000"
   },
   {
      "name": "Zakharovo",
      "countryCode": "RU",
      "stateCode": "RYA",
      "latitude": "54.36600000",
      "longitude": "39.27920000"
   },
   {
      "name": "Zakharovskiy Rayon",
      "countryCode": "RU",
      "stateCode": "RYA",
      "latitude": "54.41667000",
      "longitude": "39.25000000"
   },
   {
      "name": "Zarechnyy",
      "countryCode": "RU",
      "stateCode": "RYA",
      "latitude": "53.73060000",
      "longitude": "39.59437000"
   }
]