[
   {
      "name": "Bole",
      "countryCode": "GH",
      "stateCode": "SV",
      "latitude": "9.02996640",
      "longitude": "-2.50694300"
   },
   {
      "name": "Central Gonja",
      "countryCode": "GH",
      "stateCode": "SV",
      "latitude": "8.92784320",
      "longitude": "-1.95369720"
   },
   {
      "name": "East Gonja",
      "countryCode": "GH",
      "stateCode": "SV",
      "latitude": "8.72568400",
      "longitude": "-1.07135790"
   },
   {
      "name": "North East Gonja",
      "countryCode": "GH",
      "stateCode": "SV",
      "latitude": "9.11746690",
      "longitude": "-0.55579360"
   },
   {
      "name": "North Gonja",
      "countryCode": "GH",
      "stateCode": "SV",
      "latitude": "9.54130850",
      "longitude": "-1.39766920"
   },
   {
      "name": "Sawla-Tuna-Kalba",
      "countryCode": "GH",
      "stateCode": "SV",
      "latitude": "9.39114570",
      "longitude": "-2.70611660"
   },
   {
      "name": "West Gonja",
      "countryCode": "GH",
      "stateCode": "SV",
      "latitude": "9.57513170",
      "longitude": "-2.26440410"
   }
]