[
   {
      "name": "Beolgyo",
      "countryCode": "KR",
      "stateCode": "46",
      "latitude": "34.84897000",
      "longitude": "127.34052000"
   },
   {
      "name": "Boseong-gun",
      "countryCode": "KR",
      "stateCode": "46",
      "latitude": "34.84622000",
      "longitude": "127.22189000"
   },
   {
      "name": "Damyang-gun",
      "countryCode": "KR",
      "stateCode": "46",
      "latitude": "35.33976000",
      "longitude": "126.99125000"
   },
   {
      "name": "Gangjin-gun",
      "countryCode": "KR",
      "stateCode": "46",
      "latitude": "34.61787000",
      "longitude": "126.76758000"
   },
   {
      "name": "Goheung-gun",
      "countryCode": "KR",
      "stateCode": "46",
      "latitude": "34.58333000",
      "longitude": "127.33333000"
   },
   {
      "name": "Gokseong-gun",
      "countryCode": "KR",
      "stateCode": "46",
      "latitude": "35.21449000",
      "longitude": "127.26280000"
   },
   {
      "name": "Gurye-gun",
      "countryCode": "KR",
      "stateCode": "46",
      "latitude": "35.23616000",
      "longitude": "127.50129000"
   },
   {
      "name": "Gwangyang",
      "countryCode": "KR",
      "stateCode": "46",
      "latitude": "34.94140000",
      "longitude": "127.69569000"
   },
   {
      "name": "Gwangyang-si",
      "countryCode": "KR",
      "stateCode": "46",
      "latitude": "35.04007000",
      "longitude": "127.60949000"
   },
   {
      "name": "Haenam",
      "countryCode": "KR",
      "stateCode": "46",
      "latitude": "34.57111000",
      "longitude": "126.59889000"
   },
   {
      "name": "Haenam-gun",
      "countryCode": "KR",
      "stateCode": "46",
      "latitude": "34.54047000",
      "longitude": "126.51870000"
   },
   {
      "name": "Hampyeong-gun",
      "countryCode": "KR",
      "stateCode": "46",
      "latitude": "35.14988000",
      "longitude": "126.53337000"
   },
   {
      "name": "Hwasun",
      "countryCode": "KR",
      "stateCode": "46",
      "latitude": "35.06125000",
      "longitude": "126.98746000"
   },
   {
      "name": "Hwasun-gun",
      "countryCode": "KR",
      "stateCode": "46",
      "latitude": "35.00468000",
      "longitude": "127.02648000"
   },
   {
      "name": "Jangheung-gun",
      "countryCode": "KR",
      "stateCode": "46",
      "latitude": "34.70555000",
      "longitude": "126.94905000"
   },
   {
      "name": "Jangseong-gun",
      "countryCode": "KR",
      "stateCode": "46",
      "latitude": "35.32734000",
      "longitude": "126.76817000"
   },
   {
      "name": "Jindo-gun",
      "countryCode": "KR",
      "stateCode": "46",
      "latitude": "34.41958000",
      "longitude": "126.22599000"
   },
   {
      "name": "Kurye",
      "countryCode": "KR",
      "stateCode": "46",
      "latitude": "35.20944000",
      "longitude": "127.46444000"
   },
   {
      "name": "Kwangyang",
      "countryCode": "KR",
      "stateCode": "46",
      "latitude": "34.97528000",
      "longitude": "127.58917000"
   },
   {
      "name": "Mokpo",
      "countryCode": "KR",
      "stateCode": "46",
      "latitude": "34.81282000",
      "longitude": "126.39181000"
   },
   {
      "name": "Mokpo-si",
      "countryCode": "KR",
      "stateCode": "46",
      "latitude": "34.81226000",
      "longitude": "126.39179000"
   },
   {
      "name": "Muan",
      "countryCode": "KR",
      "stateCode": "46",
      "latitude": "34.99014000",
      "longitude": "126.47899000"
   },
   {
      "name": "Muan-gun",
      "countryCode": "KR",
      "stateCode": "46",
      "latitude": "34.95642000",
      "longitude": "126.44041000"
   },
   {
      "name": "Naju",
      "countryCode": "KR",
      "stateCode": "46",
      "latitude": "35.02920000",
      "longitude": "126.71750000"
   },
   {
      "name": "Naju-si",
      "countryCode": "KR",
      "stateCode": "46",
      "latitude": "35.05683000",
      "longitude": "126.67362000"
   },
   {
      "name": "Sinan",
      "countryCode": "KR",
      "stateCode": "46",
      "latitude": "34.82620000",
      "longitude": "126.10863000"
   },
   {
      "name": "Sinan-gun",
      "countryCode": "KR",
      "stateCode": "46",
      "latitude": "34.83107000",
      "longitude": "126.09872000"
   },
   {
      "name": "Suncheon",
      "countryCode": "KR",
      "stateCode": "46",
      "latitude": "34.95050000",
      "longitude": "127.48784000"
   },
   {
      "name": "Suncheon-si",
      "countryCode": "KR",
      "stateCode": "46",
      "latitude": "34.97162000",
      "longitude": "127.46096000"
   },
   {
      "name": "Wando-gun",
      "countryCode": "KR",
      "stateCode": "46",
      "latitude": "34.31182000",
      "longitude": "126.73845000"
   },
   {
      "name": "Yeongam",
      "countryCode": "KR",
      "stateCode": "46",
      "latitude": "34.80059000",
      "longitude": "126.69669000"
   },
   {
      "name": "Yeongam-gun",
      "countryCode": "KR",
      "stateCode": "46",
      "latitude": "34.79790000",
      "longitude": "126.62651000"
   },
   {
      "name": "Yeonggwang",
      "countryCode": "KR",
      "stateCode": "46",
      "latitude": "35.27814000",
      "longitude": "126.51181000"
   },
   {
      "name": "Yeonggwang-gun",
      "countryCode": "KR",
      "stateCode": "46",
      "latitude": "35.28711000",
      "longitude": "126.43616000"
   },
   {
      "name": "Yeosu",
      "countryCode": "KR",
      "stateCode": "46",
      "latitude": "34.76062000",
      "longitude": "127.66215000"
   }
]