[
   {
      "name": "Afşin",
      "countryCode": "TR",
      "stateCode": "46",
      "latitude": "38.24769000",
      "longitude": "36.91399000"
   },
   {
      "name": "Andırın",
      "countryCode": "TR",
      "stateCode": "46",
      "latitude": "37.57757000",
      "longitude": "36.35492000"
   },
   {
      "name": "Celeyke",
      "countryCode": "TR",
      "stateCode": "46",
      "latitude": "38.05974000",
      "longitude": "37.18786000"
   },
   {
      "name": "Dulkadiroğlu",
      "countryCode": "TR",
      "stateCode": "46",
      "latitude": "37.58254000",
      "longitude": "36.91973000"
   },
   {
      "name": "Ekinözü İlçesi",
      "countryCode": "TR",
      "stateCode": "46",
      "latitude": "38.07007000",
      "longitude": "37.19414000"
   },
   {
      "name": "Elbistan",
      "countryCode": "TR",
      "stateCode": "46",
      "latitude": "38.20591000",
      "longitude": "37.19830000"
   },
   {
      "name": "Göksun",
      "countryCode": "TR",
      "stateCode": "46",
      "latitude": "38.02096000",
      "longitude": "36.49730000"
   },
   {
      "name": "Kahramanmaraş",
      "countryCode": "TR",
      "stateCode": "46",
      "latitude": "37.58470000",
      "longitude": "36.92641000"
   },
   {
      "name": "Nurhak",
      "countryCode": "TR",
      "stateCode": "46",
      "latitude": "37.96366000",
      "longitude": "37.44047000"
   },
   {
      "name": "Onikişubat",
      "countryCode": "TR",
      "stateCode": "46",
      "latitude": "37.59002000",
      "longitude": "36.90548000"
   },
   {
      "name": "Pazarcık",
      "countryCode": "TR",
      "stateCode": "46",
      "latitude": "37.48685000",
      "longitude": "37.29961000"
   },
   {
      "name": "Süleymanlı",
      "countryCode": "TR",
      "stateCode": "46",
      "latitude": "37.87264000",
      "longitude": "36.81714000"
   },
   {
      "name": "Türkoğlu İlçesi",
      "countryCode": "TR",
      "stateCode": "46",
      "latitude": "37.38417000",
      "longitude": "36.84626000"
   },
   {
      "name": "Çağlayancerit",
      "countryCode": "TR",
      "stateCode": "46",
      "latitude": "37.74523000",
      "longitude": "37.28618000"
   }
]