[
   {
      "name": "Asahi",
      "countryCode": "JP",
      "stateCode": "18",
      "latitude": "35.97259000",
      "longitude": "136.12455000"
   },
   {
      "name": "Awara-shi",
      "countryCode": "JP",
      "stateCode": "18",
      "latitude": "36.22777000",
      "longitude": "136.25154000"
   },
   {
      "name": "Echizen-shi",
      "countryCode": "JP",
      "stateCode": "18",
      "latitude": "35.88946000",
      "longitude": "136.17723000"
   },
   {
      "name": "Fukui-shi",
      "countryCode": "JP",
      "stateCode": "18",
      "latitude": "36.06667000",
      "longitude": "136.21667000"
   },
   {
      "name": "Katsuyama",
      "countryCode": "JP",
      "stateCode": "18",
      "latitude": "36.06173000",
      "longitude": "136.50101000"
   },
   {
      "name": "Katsuyama Shi",
      "countryCode": "JP",
      "stateCode": "18",
      "latitude": "36.08440000",
      "longitude": "136.52178000"
   },
   {
      "name": "Maruoka",
      "countryCode": "JP",
      "stateCode": "18",
      "latitude": "36.15340000",
      "longitude": "136.27029000"
   },
   {
      "name": "Mikuni",
      "countryCode": "JP",
      "stateCode": "18",
      "latitude": "36.21706000",
      "longitude": "136.15185000"
   },
   {
      "name": "Obama",
      "countryCode": "JP",
      "stateCode": "18",
      "latitude": "35.49576000",
      "longitude": "135.74604000"
   },
   {
      "name": "Obama-shi",
      "countryCode": "JP",
      "stateCode": "18",
      "latitude": "35.45000000",
      "longitude": "135.70000000"
   },
   {
      "name": "Ono",
      "countryCode": "JP",
      "stateCode": "18",
      "latitude": "35.98106000",
      "longitude": "136.48727000"
   },
   {
      "name": "Sabae",
      "countryCode": "JP",
      "stateCode": "18",
      "latitude": "35.94647000",
      "longitude": "136.18498000"
   },
   {
      "name": "Sabae-shi",
      "countryCode": "JP",
      "stateCode": "18",
      "latitude": "35.95932000",
      "longitude": "136.21835000"
   },
   {
      "name": "Sakai-shi",
      "countryCode": "JP",
      "stateCode": "18",
      "latitude": "36.16406000",
      "longitude": "136.25544000"
   },
   {
      "name": "Takefu",
      "countryCode": "JP",
      "stateCode": "18",
      "latitude": "35.90393000",
      "longitude": "136.16687000"
   },
   {
      "name": "Tsuruga",
      "countryCode": "JP",
      "stateCode": "18",
      "latitude": "35.64547000",
      "longitude": "136.05580000"
   },
   {
      "name": "Tsuruga-shi",
      "countryCode": "JP",
      "stateCode": "18",
      "latitude": "35.63730000",
      "longitude": "136.08068000"
   },
   {
      "name": "Ōi-gun",
      "countryCode": "JP",
      "stateCode": "18",
      "latitude": "35.49238000",
      "longitude": "135.49311000"
   },
   {
      "name": "Ōno-shi",
      "countryCode": "JP",
      "stateCode": "18",
      "latitude": "35.90837000",
      "longitude": "136.61696000"
   }
]