[
   {
      "name": "Huaquillas",
      "countryCode": "EC",
      "stateCode": "O",
      "latitude": "-3.47523000",
      "longitude": "-80.23084000"
   },
   {
      "name": "Machala",
      "countryCode": "EC",
      "stateCode": "O",
      "latitude": "-3.25861000",
      "longitude": "-79.96053000"
   },
   {
      "name": "Pasaje",
      "countryCode": "EC",
      "stateCode": "O",
      "latitude": "-3.32561000",
      "longitude": "-79.80697000"
   },
   {
      "name": "Piñas",
      "countryCode": "EC",
      "stateCode": "O",
      "latitude": "-3.68107000",
      "longitude": "-79.68083000"
   },
   {
      "name": "Portovelo",
      "countryCode": "EC",
      "stateCode": "O",
      "latitude": "-3.72145000",
      "longitude": "-79.62187000"
   },
   {
      "name": "Puerto Bolívar",
      "countryCode": "EC",
      "stateCode": "O",
      "latitude": "-3.26649000",
      "longitude": "-79.99749000"
   },
   {
      "name": "Santa Rosa",
      "countryCode": "EC",
      "stateCode": "O",
      "latitude": "-3.44882000",
      "longitude": "-79.95952000"
   },
   {
      "name": "Zaruma",
      "countryCode": "EC",
      "stateCode": "O",
      "latitude": "-3.69132000",
      "longitude": "-79.61174000"
   }
]