[
   {
      "name": "Ahwar",
      "countryCode": "YE",
      "stateCode": "AB",
      "latitude": "13.68530000",
      "longitude": "46.75560000"
   },
   {
      "name": "Al Mahfad",
      "countryCode": "YE",
      "stateCode": "AB",
      "latitude": "13.97050000",
      "longitude": "46.75600000"
   },
   {
      "name": "Al Wade'a",
      "countryCode": "YE",
      "stateCode": "AB",
      "latitude": "13.71360000",
      "longitude": "46.01220000"
   },
   {
      "name": "Jawf al Maqbābah",
      "countryCode": "YE",
      "stateCode": "AB",
      "latitude": "13.83783000",
      "longitude": "45.83488000"
   },
   {
      "name": "Jayshan",
      "countryCode": "YE",
      "stateCode": "AB",
      "latitude": "14.16620000",
      "longitude": "46.17230000"
   },
   {
      "name": "Khanfir",
      "countryCode": "YE",
      "stateCode": "AB",
      "latitude": "13.42049000",
      "longitude": "45.68707000"
   },
   {
      "name": "Lawdar",
      "countryCode": "YE",
      "stateCode": "AB",
      "latitude": "13.80590000",
      "longitude": "45.80080000"
   },
   {
      "name": "Mudiyah",
      "countryCode": "YE",
      "stateCode": "AB",
      "latitude": "13.90960000",
      "longitude": "46.21960000"
   },
   {
      "name": "Rasad",
      "countryCode": "YE",
      "stateCode": "AB",
      "latitude": "13.72310000",
      "longitude": "45.28140000"
   },
   {
      "name": "Sarar",
      "countryCode": "YE",
      "stateCode": "AB",
      "latitude": "13.58300000",
      "longitude": "45.35080000"
   },
   {
      "name": "Sibah",
      "countryCode": "YE",
      "stateCode": "AB",
      "latitude": "13.80910000",
      "longitude": "45.40230000"
   },
   {
      "name": "Zingibar",
      "countryCode": "YE",
      "stateCode": "AB",
      "latitude": "13.13420000",
      "longitude": "45.43040000"
   },
   {
      "name": "Zinjibār",
      "countryCode": "YE",
      "stateCode": "AB",
      "latitude": "13.12871000",
      "longitude": "45.38073000"
   }
]