[
   {
      "name": "Bohechío",
      "countryCode": "DO",
      "stateCode": "22",
      "latitude": "18.77515000",
      "longitude": "-70.98889000"
   },
   {
      "name": "Cercado Abajo",
      "countryCode": "DO",
      "stateCode": "22",
      "latitude": "18.72681000",
      "longitude": "-71.51742000"
   },
   {
      "name": "El Cercado",
      "countryCode": "DO",
      "stateCode": "22",
      "latitude": "18.70000000",
      "longitude": "-71.46667000"
   },
   {
      "name": "Juan de Herrera",
      "countryCode": "DO",
      "stateCode": "22",
      "latitude": "18.87402000",
      "longitude": "-71.23830000"
   },
   {
      "name": "Las Matas de Farfán",
      "countryCode": "DO",
      "stateCode": "22",
      "latitude": "18.91667000",
      "longitude": "-71.50000000"
   },
   {
      "name": "Matayaya",
      "countryCode": "DO",
      "stateCode": "22",
      "latitude": "18.89036000",
      "longitude": "-71.59459000"
   },
   {
      "name": "Pedro Corto",
      "countryCode": "DO",
      "stateCode": "22",
      "latitude": "18.84856000",
      "longitude": "-71.41041000"
   },
   {
      "name": "San Juan de la Maguana",
      "countryCode": "DO",
      "stateCode": "22",
      "latitude": "18.80588000",
      "longitude": "-71.22991000"
   },
   {
      "name": "Vallejuelo",
      "countryCode": "DO",
      "stateCode": "22",
      "latitude": "18.65354000",
      "longitude": "-71.33431000"
   }
]