[
   {
      "name": "Ardahan",
      "countryCode": "TR",
      "stateCode": "75",
      "latitude": "41.10871000",
      "longitude": "42.70222000"
   },
   {
      "name": "Damal",
      "countryCode": "TR",
      "stateCode": "75",
      "latitude": "41.34145000",
      "longitude": "42.83680000"
   },
   {
      "name": "Göle",
      "countryCode": "TR",
      "stateCode": "75",
      "latitude": "40.78746000",
      "longitude": "42.60603000"
   },
   {
      "name": "Hanak",
      "countryCode": "TR",
      "stateCode": "75",
      "latitude": "41.23344000",
      "longitude": "42.84037000"
   },
   {
      "name": "Posof",
      "countryCode": "TR",
      "stateCode": "75",
      "latitude": "41.51111000",
      "longitude": "42.72917000"
   },
   {
      "name": "Çıldır İlçesi",
      "countryCode": "TR",
      "stateCode": "75",
      "latitude": "41.13783000",
      "longitude": "43.14169000"
   }
]