[
   {
      "name": "Atalaya",
      "countryCode": "PE",
      "stateCode": "UCA",
      "latitude": "-10.38980000",
      "longitude": "-73.21977000"
   },
   {
      "name": "Campoverde",
      "countryCode": "PE",
      "stateCode": "UCA",
      "latitude": "-8.47533000",
      "longitude": "-74.80709000"
   },
   {
      "name": "Padre Abad",
      "countryCode": "PE",
      "stateCode": "UCA",
      "latitude": "-8.79680000",
      "longitude": "-75.42850000"
   },
   {
      "name": "Provincia de Coronel Portillo",
      "countryCode": "PE",
      "stateCode": "UCA",
      "latitude": "-9.50000000",
      "longitude": "-73.33333000"
   },
   {
      "name": "Pucallpa",
      "countryCode": "PE",
      "stateCode": "UCA",
      "latitude": "-8.37915000",
      "longitude": "-74.55387000"
   },
   {
      "name": "Purus",
      "countryCode": "PE",
      "stateCode": "UCA",
      "latitude": "-10.37331000",
      "longitude": "-71.58231000"
   }
]