[
   {
      "name": "Amphoe Kapho",
      "countryCode": "TH",
      "stateCode": "94",
      "latitude": "6.60264000",
      "longitude": "101.54327000"
   },
   {
      "name": "Amphoe Khok Pho",
      "countryCode": "TH",
      "stateCode": "94",
      "latitude": "6.70858000",
      "longitude": "101.11693000"
   },
   {
      "name": "Amphoe Mae Lan",
      "countryCode": "TH",
      "stateCode": "94",
      "latitude": "6.66833000",
      "longitude": "101.23149000"
   },
   {
      "name": "Amphoe Mai Kaen",
      "countryCode": "TH",
      "stateCode": "94",
      "latitude": "6.61603000",
      "longitude": "101.67864000"
   },
   {
      "name": "Amphoe Mayo",
      "countryCode": "TH",
      "stateCode": "94",
      "latitude": "6.70764000",
      "longitude": "101.40359000"
   },
   {
      "name": "Amphoe Mueang Pattani",
      "countryCode": "TH",
      "stateCode": "94",
      "latitude": "6.85581000",
      "longitude": "101.26761000"
   },
   {
      "name": "Amphoe Nong Chik",
      "countryCode": "TH",
      "stateCode": "94",
      "latitude": "6.80011000",
      "longitude": "101.17057000"
   },
   {
      "name": "Amphoe Panare",
      "countryCode": "TH",
      "stateCode": "94",
      "latitude": "6.81211000",
      "longitude": "101.51247000"
   },
   {
      "name": "Amphoe Sai Buri",
      "countryCode": "TH",
      "stateCode": "94",
      "latitude": "6.70000000",
      "longitude": "101.58333000"
   },
   {
      "name": "Amphoe Thung Yang Daeng",
      "countryCode": "TH",
      "stateCode": "94",
      "latitude": "6.64160000",
      "longitude": "101.44652000"
   },
   {
      "name": "Amphoe Yarang",
      "countryCode": "TH",
      "stateCode": "94",
      "latitude": "6.69240000",
      "longitude": "101.31408000"
   },
   {
      "name": "Amphoe Yaring",
      "countryCode": "TH",
      "stateCode": "94",
      "latitude": "6.83507000",
      "longitude": "101.39073000"
   },
   {
      "name": "Nong Chik",
      "countryCode": "TH",
      "stateCode": "94",
      "latitude": "6.84356000",
      "longitude": "101.17803000"
   },
   {
      "name": "Pattani",
      "countryCode": "TH",
      "stateCode": "94",
      "latitude": "6.86814000",
      "longitude": "101.25009000"
   },
   {
      "name": "Sai Buri",
      "countryCode": "TH",
      "stateCode": "94",
      "latitude": "6.70131000",
      "longitude": "101.61675000"
   },
   {
      "name": "Yaring",
      "countryCode": "TH",
      "stateCode": "94",
      "latitude": "6.86617000",
      "longitude": "101.36894000"
   }
]