[
    {
      "name": "Badakhshan",
      "countryCode": "AF",
      "isoCode": "BDS",
      "latitude": 36.7347725,
      "longitude": 70.8119953
    },
    {
      "name": "Badghis",
      "countryCode": "AF",
      "isoCode": "BDG",
      "latitude": 35.1671339,
      "longitude": 63.7695384
    },
    {
      "name": "Baghlan",
      "countryCode": "AF",
      "isoCode": "BGL",
      "latitude": 36.1789026,
      "longitude": 68.7453064
    },
    {
      "name": "Balkh",
      "countryCode": "AF",
      "isoCode": "BAL",
      "latitude": 36.7550603,
      "longitude": 66.8975372
    },
    {
      "name": "Bamyan",
      "countryCode": "AF",
      "isoCode": "BAM",
      "latitude": 34.8100067,
      "longitude": 67.8212104
    },
    {
      "name": "Daykundi",
      "countryCode": "AF",
      "isoCode": "DAY",
      "latitude": 33.669495,
      "longitude": 66.0463534
    },
    {
      "name": "Farah",
      "countryCode": "AF",
      "isoCode": "FRA",
      "latitude": 32.495328,
      "longitude": 62.2626627
    },
    {
      "name": "Faryab",
      "countryCode": "AF",
      "isoCode": "FYB",
      "latitude": 36.0795613,
      "longitude": 64.905955
    },
    {
      "name": "Ghazni",
      "countryCode": "AF",
      "isoCode": "GHA",
      "latitude": 33.5450587,
      "longitude": 68.4173972
    },
    {
      "name": "Ghōr",
      "countryCode": "AF",
      "isoCode": "GHO",
      "latitude": 34.0995776,
      "longitude": 64.905955
    },
    {
      "name": "Helmand",
      "countryCode": "AF",
      "isoCode": "HEL",
      "latitude": 39.2989361,
      "longitude": -76.6160472
    },
    {
      "name": "Herat",
      "countryCode": "AF",
      "isoCode": "HER",
      "latitude": 34.352865,
      "longitude": 62.2040287
    },
    {
      "name": "Jowzjan",
      "countryCode": "AF",
      "isoCode": "JOW",
      "latitude": 36.8969692,
      "longitude": 65.6658568
    },
    {
      "name": "Kabul",
      "countryCode": "AF",
      "isoCode": "KAB",
      "latitude": 34.5553494,
      "longitude": 69.207486
    },
    {
      "name": "Kandahar",
      "countryCode": "AF",
      "isoCode": "KAN",
      "latitude": 31.628871,
      "longitude": 65.7371749
    },
    {
      "name": "Kapisa",
      "countryCode": "AF",
      "isoCode": "KAP",
      "latitude": 34.9810572,
      "longitude": 69.6214562
    },
    {
      "name": "Khost",
      "countryCode": "AF",
      "isoCode": "KHO",
      "latitude": 33.3338472,
      "longitude": 69.9371673
    },
    {
      "name": "Kunar",
      "countryCode": "AF",
      "isoCode": "KNR",
      "latitude": 34.8465893,
      "longitude": 71.097317
    },
    {
      "name": "Kunduz Province",
      "countryCode": "AF",
      "isoCode": "KDZ",
      "latitude": 36.7285511,
      "longitude": 68.8678982
    },
    {
      "name": "Laghman",
      "countryCode": "AF",
      "isoCode": "LAG",
      "latitude": 34.6897687,
      "longitude": 70.1455805
    },
    {
      "name": "Logar",
      "countryCode": "AF",
      "isoCode": "LOG",
      "latitude": 34.0145518,
      "longitude": 69.1923916
    },
    {
      "name": "Nangarhar",
      "countryCode": "AF",
      "isoCode": "NAN",
      "latitude": 34.1718313,
      "longitude": 70.6216794
    },
    {
      "name": "Nimruz",
      "countryCode": "AF",
      "isoCode": "NIM",
      "latitude": 31.0261488,
      "longitude": 62.4504154
    },
    {
      "name": "Nuristan",
      "countryCode": "AF",
      "isoCode": "NUR",
      "latitude": 35.3250223,
      "longitude": 70.9071236
    },
    {
      "name": "Paktia",
      "countryCode": "AF",
      "isoCode": "PIA",
      "latitude": 33.706199,
      "longitude": 69.3831079
    },
    {
      "name": "Paktika",
      "countryCode": "AF",
      "isoCode": "PKA",
      "latitude": 32.2645386,
      "longitude": 68.5247149
    },
    {
      "name": "Panjshir",
      "countryCode": "AF",
      "isoCode": "PAN",
      "latitude": 38.8802391,
      "longitude": -77.1717238
    },
    {
      "name": "Parwan",
      "countryCode": "AF",
      "isoCode": "PAR",
      "latitude": 34.9630977,
      "longitude": 68.8108849
    },
    {
      "name": "Samangan",
      "countryCode": "AF",
      "isoCode": "SAM",
      "latitude": 36.3155506,
      "longitude": 67.9642863
    },
    {
      "name": "Sar-e Pol",
      "countryCode": "AF",
      "isoCode": "SAR",
      "latitude": 36.216628,
      "longitude": 65.93336
    },
    {
      "name": "Takhar",
      "countryCode": "AF",
      "isoCode": "TAK",
      "latitude": 36.6698013,
      "longitude": 69.4784541
    },
    {
      "name": "Urozgan",
      "countryCode": "AF",
      "isoCode": "URU",
      "latitude": 32.9271287,
      "longitude": 66.1415263
    },
    {
      "name": "Zabul",
      "countryCode": "AF",
      "isoCode": "ZAB",
      "latitude": 32.1918782,
      "longitude": 67.1894488
    },
    {
      "name": "Berat County",
      "countryCode": "AL",
      "isoCode": 1,
      "latitude": 40.6953012,
      "longitude": 20.0449662
    },
    {
      "name": "Berat District",
      "countryCode": "AL",
      "isoCode": "BR",
      "latitude": 40.7086377,
      "longitude": 19.9437314
    },
    {
      "name": "Bulqizë District",
      "countryCode": "AL",
      "isoCode": "BU",
      "latitude": 41.4942587,
      "longitude": 20.2147157
    },
    {
      "name": "Delvinë District",
      "countryCode": "AL",
      "isoCode": "DL",
      "latitude": 39.9481364,
      "longitude": 20.0955891
    },
    {
      "name": "Devoll District",
      "countryCode": "AL",
      "isoCode": "DV",
      "latitude": 40.6447347,
      "longitude": 20.9506636
    },
    {
      "name": "Dibër County",
      "countryCode": "AL",
      "isoCode": 9,
      "latitude": 41.5888163,
      "longitude": 20.2355647
    },
    {
      "name": "Dibër District",
      "countryCode": "AL",
      "isoCode": "DI",
      "latitude": 41.5888163,
      "longitude": 20.2355647
    },
    {
      "name": "Durrës County",
      "countryCode": "AL",
      "isoCode": 2,
      "latitude": 41.5080972,
      "longitude": 19.6163185
    },
    {
      "name": "Durrës District",
      "countryCode": "AL",
      "isoCode": "DR",
      "latitude": 41.3706517,
      "longitude": 19.5211063
    },
    {
      "name": "Elbasan County",
      "countryCode": "AL",
      "isoCode": 3,
      "latitude": 41.1266672,
      "longitude": 20.2355647
    },
    {
      "name": "Fier County",
      "countryCode": "AL",
      "isoCode": 4,
      "latitude": 40.9191392,
      "longitude": 19.6639309
    },
    {
      "name": "Fier District",
      "countryCode": "AL",
      "isoCode": "FR",
      "latitude": 40.727504,
      "longitude": 19.5627596
    },
    {
      "name": "Gjirokastër County",
      "countryCode": "AL",
      "isoCode": 5,
      "latitude": 40.0672874,
      "longitude": 20.1045229
    },
    {
      "name": "Gjirokastër District",
      "countryCode": "AL",
      "isoCode": "GJ",
      "latitude": 40.0672874,
      "longitude": 20.1045229
    },
    {
      "name": "Gramsh District",
      "countryCode": "AL",
      "isoCode": "GR",
      "latitude": 40.8669873,
      "longitude": 20.1849323
    },
    {
      "name": "Has District",
      "countryCode": "AL",
      "isoCode": "HA",
      "latitude": 42.7901336,
      "longitude": -83.6122012
    },
    {
      "name": "Kavajë District",
      "countryCode": "AL",
      "isoCode": "KA",
      "latitude": 41.1844529,
      "longitude": 19.5627596
    },
    {
      "name": "Kolonjë District",
      "countryCode": "AL",
      "isoCode": "ER",
      "latitude": 40.3373262,
      "longitude": 20.6794676
    },
    {
      "name": "Korçë County",
      "countryCode": "AL",
      "isoCode": 6,
      "latitude": 40.590567,
      "longitude": 20.6168921
    },
    {
      "name": "Korçë District",
      "countryCode": "AL",
      "isoCode": "KO",
      "latitude": 40.590567,
      "longitude": 20.6168921
    },
    {
      "name": "Krujë District",
      "countryCode": "AL",
      "isoCode": "KR",
      "latitude": 41.5094765,
      "longitude": 19.7710732
    },
    {
      "name": "Kuçovë District",
      "countryCode": "AL",
      "isoCode": "KC",
      "latitude": 40.7837063,
      "longitude": 19.8782348
    },
    {
      "name": "Kukës County",
      "countryCode": "AL",
      "isoCode": 7,
      "latitude": 42.0807464,
      "longitude": 20.4142923
    },
    {
      "name": "Kukës District",
      "countryCode": "AL",
      "isoCode": "KU",
      "latitude": 42.0807464,
      "longitude": 20.4142923
    },
    {
      "name": "Kurbin District",
      "countryCode": "AL",
      "isoCode": "KB",
      "latitude": 41.6412644,
      "longitude": 19.705595
    },
    {
      "name": "Lezhë County",
      "countryCode": "AL",
      "isoCode": 8,
      "latitude": 41.7813759,
      "longitude": 19.8067916
    },
    {
      "name": "Lezhë District",
      "countryCode": "AL",
      "isoCode": "LE",
      "latitude": 41.786073,
      "longitude": 19.6460758
    },
    {
      "name": "Librazhd District",
      "countryCode": "AL",
      "isoCode": "LB",
      "latitude": 41.1829232,
      "longitude": 20.3174769
    },
    {
      "name": "Lushnjë District",
      "countryCode": "AL",
      "isoCode": "LU",
      "latitude": 40.941983,
      "longitude": 19.6996428
    },
    {
      "name": "Malësi e Madhe District",
      "countryCode": "AL",
      "isoCode": "MM",
      "latitude": 42.4245173,
      "longitude": 19.6163185
    },
    {
      "name": "Mallakastër District",
      "countryCode": "AL",
      "isoCode": "MK",
      "latitude": 40.5273376,
      "longitude": 19.7829791
    },
    {
      "name": "Mat District",
      "countryCode": "AL",
      "isoCode": "MT",
      "latitude": 41.5937675,
      "longitude": 19.9973244
    },
    {
      "name": "Mirditë District",
      "countryCode": "AL",
      "isoCode": "MR",
      "latitude": 41.764286,
      "longitude": 19.9020509
    },
    {
      "name": "Peqin District",
      "countryCode": "AL",
      "isoCode": "PQ",
      "latitude": 41.0470902,
      "longitude": 19.7502384
    },
    {
      "name": "Përmet District",
      "countryCode": "AL",
      "isoCode": "PR",
      "latitude": 40.2361837,
      "longitude": 20.3517334
    },
    {
      "name": "Pogradec District",
      "countryCode": "AL",
      "isoCode": "PG",
      "latitude": 40.9015314,
      "longitude": 20.6556289
    },
    {
      "name": "Pukë District",
      "countryCode": "AL",
      "isoCode": "PU",
      "latitude": 42.0469772,
      "longitude": 19.8960968
    },
    {
      "name": "Sarandë District",
      "countryCode": "AL",
      "isoCode": "SR",
      "latitude": 39.8592119,
      "longitude": 20.0271001
    },
    {
      "name": "Shkodër County",
      "countryCode": "AL",
      "isoCode": 10,
      "latitude": 42.150371,
      "longitude": 19.6639309
    },
    {
      "name": "Shkodër District",
      "countryCode": "AL",
      "isoCode": "SH",
      "latitude": 42.0692985,
      "longitude": 19.5032559
    },
    {
      "name": "Skrapar District",
      "countryCode": "AL",
      "isoCode": "SK",
      "latitude": 40.5349946,
      "longitude": 20.2832217
    },
    {
      "name": "Tepelenë District",
      "countryCode": "AL",
      "isoCode": "TE",
      "latitude": 40.2966632,
      "longitude": 20.0181673
    },
    {
      "name": "Tirana County",
      "countryCode": "AL",
      "isoCode": 11,
      "latitude": 41.2427598,
      "longitude": 19.8067916
    },
    {
      "name": "Tirana District",
      "countryCode": "AL",
      "isoCode": "TR",
      "latitude": 41.3275459,
      "longitude": 19.8186982
    },
    {
      "name": "Tropojë District",
      "countryCode": "AL",
      "isoCode": "TP",
      "latitude": 42.3982151,
      "longitude": 20.1625955
    },
    {
      "name": "Vlorë County",
      "countryCode": "AL",
      "isoCode": 12,
      "latitude": 40.150096,
      "longitude": 19.8067916
    },
    {
      "name": "Vlorë District",
      "countryCode": "AL",
      "isoCode": "VL",
      "latitude": 40.4660668,
      "longitude": 19.491356
    },
    {
      "name": "Adrar",
      "countryCode": "DZ",
      "isoCode": 1,
      "latitude": 26.418131,
      "longitude": -0.6014717
    },
    {
      "name": "Aïn Defla",
      "countryCode": "DZ",
      "isoCode": 44,
      "latitude": 36.2509429,
      "longitude": 1.9393815
    },
    {
      "name": "Aïn Témouchent",
      "countryCode": "DZ",
      "isoCode": 46,
      "latitude": 35.2992698,
      "longitude": -1.1392792
    },
    {
      "name": "Algiers",
      "countryCode": "DZ",
      "isoCode": 16,
      "latitude": 36.6997294,
      "longitude": 3.0576199
    },
    {
      "name": "Annaba",
      "countryCode": "DZ",
      "isoCode": 23,
      "latitude": 36.8020508,
      "longitude": 7.5247243
    },
    {
      "name": "Batna",
      "countryCode": "DZ",
      "isoCode": 5,
      "latitude": 35.5965954,
      "longitude": 5.8987139
    },
    {
      "name": "Béchar",
      "countryCode": "DZ",
      "isoCode": 8,
      "latitude": 31.6238098,
      "longitude": -2.2162443
    },
    {
      "name": "Béjaïa",
      "countryCode": "DZ",
      "isoCode": 6,
      "latitude": 36.7515258,
      "longitude": 5.0556837
    },
    {
      "name": "Béni Abbès",
      "countryCode": "DZ",
      "isoCode": 53,
      "latitude": 30.0831042,
      "longitude": -2.8345052
    },
    {
      "name": "Biskra",
      "countryCode": "DZ",
      "isoCode": 7,
      "latitude": 34.8449437,
      "longitude": 5.7248567
    },
    {
      "name": "Blida",
      "countryCode": "DZ",
      "isoCode": 9,
      "latitude": 36.531123,
      "longitude": 2.8976254
    },
    {
      "name": "Bordj Baji Mokhtar",
      "countryCode": "DZ",
      "isoCode": 52,
      "latitude": 22.966335,
      "longitude": -3.9472732
    },
    {
      "name": "Bordj Bou Arréridj",
      "countryCode": "DZ",
      "isoCode": 34,
      "latitude": 36.0739925,
      "longitude": 4.7630271
    },
    {
      "name": "Bouïra",
      "countryCode": "DZ",
      "isoCode": 10,
      "latitude": 36.3691846,
      "longitude": 3.9006194
    },
    {
      "name": "Boumerdès",
      "countryCode": "DZ",
      "isoCode": 35,
      "latitude": 36.6839559,
      "longitude": 3.6217802
    },
    {
      "name": "Chlef",
      "countryCode": "DZ",
      "isoCode": 2,
      "latitude": 36.1693515,
      "longitude": 1.2891036
    },
    {
      "name": "Constantine",
      "countryCode": "DZ",
      "isoCode": 25,
      "latitude": 36.3373911,
      "longitude": 6.663812
    },
    {
      "name": "Djanet",
      "countryCode": "DZ",
      "isoCode": 56,
      "latitude": 23.8310872,
      "longitude": 8.7004672
    },
    {
      "name": "Djelfa",
      "countryCode": "DZ",
      "isoCode": 17,
      "latitude": 34.6703956,
      "longitude": 3.2503761
    },
    {
      "name": "El Bayadh",
      "countryCode": "DZ",
      "isoCode": 32,
      "latitude": 32.7148824,
      "longitude": 0.9056623
    },
    {
      "name": "El M'ghair",
      "countryCode": "DZ",
      "isoCode": 49,
      "latitude": 33.9540561,
      "longitude": 5.1346418
    },
    {
      "name": "El Menia",
      "countryCode": "DZ",
      "isoCode": 50,
      "latitude": 31.364225,
      "longitude": 2.5784495
    },
    {
      "name": "El Oued",
      "countryCode": "DZ",
      "isoCode": 39,
      "latitude": 33.367811,
      "longitude": 6.8516511
    },
    {
      "name": "El Tarf",
      "countryCode": "DZ",
      "isoCode": 36,
      "latitude": 36.7576678,
      "longitude": 8.3076343
    },
    {
      "name": "Ghardaïa",
      "countryCode": "DZ",
      "isoCode": 47,
      "latitude": 32.4943741,
      "longitude": 3.64446
    },
    {
      "name": "Guelma",
      "countryCode": "DZ",
      "isoCode": 24,
      "latitude": 36.4627444,
      "longitude": 7.4330833
    },
    {
      "name": "Illizi",
      "countryCode": "DZ",
      "isoCode": 33,
      "latitude": 26.1690005,
      "longitude": 8.4842465
    },
    {
      "name": "In Guezzam",
      "countryCode": "DZ",
      "isoCode": 58,
      "latitude": 20.3864323,
      "longitude": 4.7789394
    },
    {
      "name": "In Salah",
      "countryCode": "DZ",
      "isoCode": 57,
      "latitude": 27.2149229,
      "longitude": 1.8484396
    },
    {
      "name": "Jijel",
      "countryCode": "DZ",
      "isoCode": 18,
      "latitude": 36.7179681,
      "longitude": 5.9832577
    },
    {
      "name": "Khenchela",
      "countryCode": "DZ",
      "isoCode": 40,
      "latitude": 35.4269404,
      "longitude": 7.1460155
    },
    {
      "name": "Laghouat",
      "countryCode": "DZ",
      "isoCode": 3,
      "latitude": 33.8078341,
      "longitude": 2.8628294
    },
    {
      "name": "M'Sila",
      "countryCode": "DZ",
      "isoCode": 28,
      "latitude": 35.7186646,
      "longitude": 4.5233423
    },
    {
      "name": "Mascara",
      "countryCode": "DZ",
      "isoCode": 29,
      "latitude": 35.3904125,
      "longitude": 0.1494988
    },
    {
      "name": "Médéa",
      "countryCode": "DZ",
      "isoCode": 26,
      "latitude": 36.2637078,
      "longitude": 2.7587857
    },
    {
      "name": "Mila",
      "countryCode": "DZ",
      "isoCode": 43,
      "latitude": 36.3647957,
      "longitude": 6.1526985
    },
    {
      "name": "Mostaganem",
      "countryCode": "DZ",
      "isoCode": 27,
      "latitude": 35.9583054,
      "longitude": 0.3371889
    },
    {
      "name": "Naama",
      "countryCode": "DZ",
      "isoCode": 45,
      "latitude": 33.2667317,
      "longitude": -0.3128659
    },
    {
      "name": "Oran",
      "countryCode": "DZ",
      "isoCode": 31,
      "latitude": 35.6082351,
      "longitude": -0.563609
    },
    {
      "name": "Ouargla",
      "countryCode": "DZ",
      "isoCode": 30,
      "latitude": 32.2264863,
      "longitude": 5.7299821
    },
    {
      "name": "Ouled Djellal",
      "countryCode": "DZ",
      "isoCode": 51,
      "latitude": 34.4178221,
      "longitude": 4.9685843
    },
    {
      "name": "Oum El Bouaghi",
      "countryCode": "DZ",
      "isoCode": 4,
      "latitude": 35.8688789,
      "longitude": 7.1108266
    },
    {
      "name": "Relizane",
      "countryCode": "DZ",
      "isoCode": 48,
      "latitude": 35.7383405,
      "longitude": 0.7532809
    },
    {
      "name": "Saïda",
      "countryCode": "DZ",
      "isoCode": 20,
      "latitude": 34.8415207,
      "longitude": 0.1456055
    },
    {
      "name": "Sétif",
      "countryCode": "DZ",
      "isoCode": 19,
      "latitude": 36.3073389,
      "longitude": 5.5617279
    },
    {
      "name": "Sidi Bel Abbès",
      "countryCode": "DZ",
      "isoCode": 22,
      "latitude": 34.6806024,
      "longitude": -1.0999495
    },
    {
      "name": "Skikda",
      "countryCode": "DZ",
      "isoCode": 21,
      "latitude": 36.6721198,
      "longitude": 6.8350999
    },
    {
      "name": "Souk Ahras",
      "countryCode": "DZ",
      "isoCode": 41,
      "latitude": 36.2801062,
      "longitude": 7.9384033
    },
    {
      "name": "Tamanghasset",
      "countryCode": "DZ",
      "isoCode": 11,
      "latitude": 22.7902972,
      "longitude": 5.5193268
    },
    {
      "name": "Tébessa",
      "countryCode": "DZ",
      "isoCode": 12,
      "latitude": 35.1290691,
      "longitude": 7.9592863
    },
    {
      "name": "Tiaret",
      "countryCode": "DZ",
      "isoCode": 14,
      "latitude": 35.3708689,
      "longitude": 1.3217852
    },
    {
      "name": "Timimoun",
      "countryCode": "DZ",
      "isoCode": 54,
      "latitude": 29.678906,
      "longitude": 0.5004608
    },
    {
      "name": "Tindouf",
      "countryCode": "DZ",
      "isoCode": 37,
      "latitude": 27.8063119,
      "longitude": -5.7299821
    },
    {
      "name": "Tipasa",
      "countryCode": "DZ",
      "isoCode": 42,
      "latitude": 36.546265,
      "longitude": 2.1843285
    },
    {
      "name": "Tissemsilt",
      "countryCode": "DZ",
      "isoCode": 38,
      "latitude": 35.6053781,
      "longitude": 1.813098
    },
    {
      "name": "Tizi Ouzou",
      "countryCode": "DZ",
      "isoCode": 15,
      "latitude": 36.706911,
      "longitude": 4.2333355
    },
    {
      "name": "Tlemcen",
      "countryCode": "DZ",
      "isoCode": 13,
      "latitude": 34.6780284,
      "longitude": -1.366216
    },
    {
      "name": "Touggourt",
      "countryCode": "DZ",
      "isoCode": 55,
      "latitude": 33.1248476,
      "longitude": 5.7832715
    },
    {
      "name": "Andorra la Vella",
      "countryCode": "AD",
      "isoCode": 7,
      "latitude": 42.5063174,
      "longitude": 1.5218355
    },
    {
      "name": "Canillo",
      "countryCode": "AD",
      "isoCode": 2,
      "latitude": 42.5978249,
      "longitude": 1.6566377
    },
    {
      "name": "Encamp",
      "countryCode": "AD",
      "isoCode": 3,
      "latitude": 42.5359764,
      "longitude": 1.5836773
    },
    {
      "name": "Escaldes-Engordany",
      "countryCode": "AD",
      "isoCode": 8,
      "latitude": 42.4909379,
      "longitude": 1.5886966
    },
    {
      "name": "La Massana",
      "countryCode": "AD",
      "isoCode": 4,
      "latitude": 42.545625,
      "longitude": 1.5147392
    },
    {
      "name": "Ordino",
      "countryCode": "AD",
      "isoCode": 5,
      "latitude": 42.5994433,
      "longitude": 1.5402327
    },
    {
      "name": "Sant Julià de Lòria",
      "countryCode": "AD",
      "isoCode": 6,
      "latitude": 42.4529631,
      "longitude": 1.4918235
    },
    {
      "name": "Bengo Province",
      "countryCode": "AO",
      "isoCode": "BGO",
      "latitude": -9.1042257,
      "longitude": 13.7289167
    },
    {
      "name": "Benguela Province",
      "countryCode": "AO",
      "isoCode": "BGU",
      "latitude": -12.8003744,
      "longitude": 13.914399
    },
    {
      "name": "Bié Province",
      "countryCode": "AO",
      "isoCode": "BIE",
      "latitude": -12.5727907,
      "longitude": 17.668887
    },
    {
      "name": "Cabinda Province",
      "countryCode": "AO",
      "isoCode": "CAB",
      "latitude": -5.0248749,
      "longitude": 12.3463875
    },
    {
      "name": "Cuando Cubango Province",
      "countryCode": "AO",
      "isoCode": "CCU",
      "latitude": -16.4180824,
      "longitude": 18.8076195
    },
    {
      "name": "Cuanza Norte Province",
      "countryCode": "AO",
      "isoCode": "CNO",
      "latitude": -9.2398513,
      "longitude": 14.6587821
    },
    {
      "name": "Cuanza Sul",
      "countryCode": "AO",
      "isoCode": "CUS",
      "latitude": -10.595191,
      "longitude": 15.4068079
    },
    {
      "name": "Cunene Province",
      "countryCode": "AO",
      "isoCode": "CNN",
      "latitude": -16.2802221,
      "longitude": 16.1580937
    },
    {
      "name": "Huambo Province",
      "countryCode": "AO",
      "isoCode": "HUA",
      "latitude": -12.5268221,
      "longitude": 15.5943388
    },
    {
      "name": "Huíla Province",
      "countryCode": "AO",
      "isoCode": "HUI",
      "latitude": -14.9280553,
      "longitude": 14.6587821
    },
    {
      "name": "Luanda Province",
      "countryCode": "AO",
      "isoCode": "LUA",
      "latitude": -9.035088,
      "longitude": 13.2663479
    },
    {
      "name": "Lunda Norte Province",
      "countryCode": "AO",
      "isoCode": "LNO",
      "latitude": -8.3525022,
      "longitude": 19.1880047
    },
    {
      "name": "Lunda Sul Province",
      "countryCode": "AO",
      "isoCode": "LSU",
      "latitude": -10.2866578,
      "longitude": 20.7122465
    },
    {
      "name": "Malanje Province",
      "countryCode": "AO",
      "isoCode": "MAL",
      "latitude": -9.8251183,
      "longitude": 16.912251
    },
    {
      "name": "Moxico Province",
      "countryCode": "AO",
      "isoCode": "MOX",
      "latitude": -13.4293579,
      "longitude": 20.3308814
    },
    {
      "name": "Uíge Province",
      "countryCode": "AO",
      "isoCode": "UIG",
      "latitude": -7.1736732,
      "longitude": 15.4068079
    },
    {
      "name": "Zaire Province",
      "countryCode": "AO",
      "isoCode": "ZAI",
      "latitude": -6.5733458,
      "longitude": 13.1740348
    },
    {
      "name": "Barbuda",
      "countryCode": "AG",
      "isoCode": 10,
      "latitude": 17.6266242,
      "longitude": -61.7713028
    },
    {
      "name": "Redonda",
      "countryCode": "AG",
      "isoCode": 11,
      "latitude": 16.938416,
      "longitude": -62.3455148
    },
    {
      "name": "Saint George Parish",
      "countryCode": "AG",
      "isoCode": 3,
      "latitude": "",
      "longitude": ""
    },
    {
      "name": "Saint John Parish",
      "countryCode": "AG",
      "isoCode": 4,
      "latitude": "",
      "longitude": ""
    },
    {
      "name": "Saint Mary Parish",
      "countryCode": "AG",
      "isoCode": 5,
      "latitude": "",
      "longitude": ""
    },
    {
      "name": "Saint Paul Parish",
      "countryCode": "AG",
      "isoCode": 6,
      "latitude": "",
      "longitude": ""
    },
    {
      "name": "Saint Peter Parish",
      "countryCode": "AG",
      "isoCode": 7,
      "latitude": "",
      "longitude": ""
    },
    {
      "name": "Saint Philip Parish",
      "countryCode": "AG",
      "isoCode": 8,
      "latitude": 40.4368258,
      "longitude": -80.0685532
    },
    {
      "name": "Buenos Aires",
      "countryCode": "AR",
      "isoCode": "B",
      "latitude": -37.2017285,
      "longitude": -59.8410697
    },
    {
      "name": "Catamarca",
      "countryCode": "AR",
      "isoCode": "K",
      "latitude": -28.4715877,
      "longitude": -65.7877209
    },
    {
      "name": "Chaco",
      "countryCode": "AR",
      "isoCode": "H",
      "latitude": -27.4257175,
      "longitude": -59.0243784
    },
    {
      "name": "Chubut",
      "countryCode": "AR",
      "isoCode": "U",
      "latitude": -43.2934246,
      "longitude": -65.1114818
    },
    {
      "name": "Ciudad Autónoma de Buenos Aires",
      "countryCode": "AR",
      "isoCode": "C",
      "latitude": -34.6036844,
      "longitude": -58.3815591
    },
    {
      "name": "Córdoba",
      "countryCode": "AR",
      "isoCode": "X",
      "latitude": -31.3992876,
      "longitude": -64.2643842
    },
    {
      "name": "Corrientes",
      "countryCode": "AR",
      "isoCode": "W",
      "latitude": -27.4692131,
      "longitude": -58.8306349
    },
    {
      "name": "Entre Ríos",
      "countryCode": "AR",
      "isoCode": "E",
      "latitude": -31.7746654,
      "longitude": -60.4956461
    },
    {
      "name": "Formosa",
      "countryCode": "AR",
      "isoCode": "P",
      "latitude": -26.1894804,
      "longitude": -58.2242806
    },
    {
      "name": "Jujuy",
      "countryCode": "AR",
      "isoCode": "Y",
      "latitude": -24.1843397,
      "longitude": -65.302177
    },
    {
      "name": "La Pampa",
      "countryCode": "AR",
      "isoCode": "L",
      "latitude": -36.6147573,
      "longitude": -64.2839209
    },
    {
      "name": "La Rioja",
      "countryCode": "AR",
      "isoCode": "F",
      "latitude": -29.4193793,
      "longitude": -66.8559932
    },
    {
      "name": "Mendoza",
      "countryCode": "AR",
      "isoCode": "M",
      "latitude": -32.8894587,
      "longitude": -68.8458386
    },
    {
      "name": "Misiones",
      "countryCode": "AR",
      "isoCode": "N",
      "latitude": -27.4269255,
      "longitude": -55.9467076
    },
    {
      "name": "Neuquén",
      "countryCode": "AR",
      "isoCode": "Q",
      "latitude": -38.94587,
      "longitude": -68.0730925
    },
    {
      "name": "Río Negro",
      "countryCode": "AR",
      "isoCode": "R",
      "latitude": -40.8261434,
      "longitude": -63.0266339
    },
    {
      "name": "Salta",
      "countryCode": "AR",
      "isoCode": "A",
      "latitude": -24.7997688,
      "longitude": -65.4150367
    },
    {
      "name": "San Juan",
      "countryCode": "AR",
      "isoCode": "J",
      "latitude": -31.5316976,
      "longitude": -68.5676962
    },
    {
      "name": "San Luis",
      "countryCode": "AR",
      "isoCode": "D",
      "latitude": -33.2962042,
      "longitude": -66.3294948
    },
    {
      "name": "Santa Cruz",
      "countryCode": "AR",
      "isoCode": "Z",
      "latitude": -51.6352821,
      "longitude": -69.2474353
    },
    {
      "name": "Santa Fe",
      "countryCode": "AR",
      "isoCode": "S",
      "latitude": -31.5855109,
      "longitude": -60.7238016
    },
    {
      "name": "Santiago del Estero",
      "countryCode": "AR",
      "isoCode": "G",
      "latitude": -27.7833574,
      "longitude": -64.264167
    },
    {
      "name": "Tierra del Fuego",
      "countryCode": "AR",
      "isoCode": "V",
      "latitude": -54.8053998,
      "longitude": -68.3242061
    },
    {
      "name": "Tucumán",
      "countryCode": "AR",
      "isoCode": "T",
      "latitude": -26.8221127,
      "longitude": -65.2192903
    },
    {
      "name": "Aragatsotn Region",
      "countryCode": "AM",
      "isoCode": "AG",
      "latitude": 40.3347301,
      "longitude": 44.3748296
    },
    {
      "name": "Ararat Province",
      "countryCode": "AM",
      "isoCode": "AR",
      "latitude": 39.9139415,
      "longitude": 44.7200004
    },
    {
      "name": "Armavir Region",
      "countryCode": "AM",
      "isoCode": "AV",
      "latitude": 40.1554631,
      "longitude": 44.0372446
    },
    {
      "name": "Gegharkunik Province",
      "countryCode": "AM",
      "isoCode": "GR",
      "latitude": 40.3526426,
      "longitude": 45.1260414
    },
    {
      "name": "Kotayk Region",
      "countryCode": "AM",
      "isoCode": "KT",
      "latitude": 40.5410214,
      "longitude": 44.7690148
    },
    {
      "name": "Lori Region",
      "countryCode": "AM",
      "isoCode": "LO",
      "latitude": 40.9698452,
      "longitude": 44.4900138
    },
    {
      "name": "Shirak Region",
      "countryCode": "AM",
      "isoCode": "SH",
      "latitude": 40.9630814,
      "longitude": 43.8102461
    },
    {
      "name": "Syunik Province",
      "countryCode": "AM",
      "isoCode": "SU",
      "latitude": 39.5133112,
      "longitude": 46.3393234
    },
    {
      "name": "Tavush Region",
      "countryCode": "AM",
      "isoCode": "TV",
      "latitude": 40.8866296,
      "longitude": 45.339349
    },
    {
      "name": "Vayots Dzor Region",
      "countryCode": "AM",
      "isoCode": "VD",
      "latitude": 39.7641996,
      "longitude": 45.3337528
    },
    {
      "name": "Yerevan",
      "countryCode": "AM",
      "isoCode": "ER",
      "latitude": 40.1872023,
      "longitude": 44.515209
    },
    {
      "name": "Australian Capital Territory",
      "countryCode": "AU",
      "isoCode": "ACT",
      "latitude": -35.4734679,
      "longitude": 149.0123679
    },
    {
      "name": "New South Wales",
      "countryCode": "AU",
      "isoCode": "NSW",
      "latitude": -31.2532183,
      "longitude": 146.921099
    },
    {
      "name": "Northern Territory",
      "countryCode": "AU",
      "isoCode": "NT",
      "latitude": -19.4914108,
      "longitude": 132.5509603
    },
    {
      "name": "Queensland",
      "countryCode": "AU",
      "isoCode": "QLD",
      "latitude": -20.9175738,
      "longitude": 142.7027956
    },
    {
      "name": "South Australia",
      "countryCode": "AU",
      "isoCode": "SA",
      "latitude": -30.0002315,
      "longitude": 136.2091547
    },
    {
      "name": "Tasmania",
      "countryCode": "AU",
      "isoCode": "TAS",
      "latitude": -41.4545196,
      "longitude": 145.9706647
    },
    {
      "name": "Victoria",
      "countryCode": "AU",
      "isoCode": "VIC",
      "latitude": -36.4856423,
      "longitude": 140.9779425
    },
    {
      "name": "Western Australia",
      "countryCode": "AU",
      "isoCode": "WA",
      "latitude": -27.6728168,
      "longitude": 121.6283098
    },
    {
      "name": "Burgenland",
      "countryCode": "AT",
      "isoCode": 1,
      "latitude": 47.1537165,
      "longitude": 16.2688797
    },
    {
      "name": "Carinthia",
      "countryCode": "AT",
      "isoCode": 2,
      "latitude": 46.722203,
      "longitude": 14.1805882
    },
    {
      "name": "Lower Austria",
      "countryCode": "AT",
      "isoCode": 3,
      "latitude": 48.108077,
      "longitude": 15.8049558
    },
    {
      "name": "Salzburg",
      "countryCode": "AT",
      "isoCode": 5,
      "latitude": 47.80949,
      "longitude": 13.05501
    },
    {
      "name": "Styria",
      "countryCode": "AT",
      "isoCode": 6,
      "latitude": 47.3593442,
      "longitude": 14.4699827
    },
    {
      "name": "Tyrol",
      "countryCode": "AT",
      "isoCode": 7,
      "latitude": 47.2537414,
      "longitude": 11.601487
    },
    {
      "name": "Upper Austria",
      "countryCode": "AT",
      "isoCode": 4,
      "latitude": 48.025854,
      "longitude": 13.9723665
    },
    {
      "name": "Vienna",
      "countryCode": "AT",
      "isoCode": 9,
      "latitude": 48.2081743,
      "longitude": 16.3738189
    },
    {
      "name": "Vorarlberg",
      "countryCode": "AT",
      "isoCode": 8,
      "latitude": 47.2497427,
      "longitude": 9.9797373
    },
    {
      "name": "Absheron District",
      "countryCode": "AZ",
      "isoCode": "ABS",
      "latitude": 40.3629693,
      "longitude": 49.2736815
    },
    {
      "name": "Agdam District",
      "countryCode": "AZ",
      "isoCode": "AGM",
      "latitude": 39.9931853,
      "longitude": 46.9949562
    },
    {
      "name": "Agdash District",
      "countryCode": "AZ",
      "isoCode": "AGS",
      "latitude": 40.6335427,
      "longitude": 47.467431
    },
    {
      "name": "Aghjabadi District",
      "countryCode": "AZ",
      "isoCode": "AGC",
      "latitude": 28.7891841,
      "longitude": 77.5160788
    },
    {
      "name": "Agstafa District",
      "countryCode": "AZ",
      "isoCode": "AGA",
      "latitude": 41.2655933,
      "longitude": 45.5134291
    },
    {
      "name": "Agsu District",
      "countryCode": "AZ",
      "isoCode": "AGU",
      "latitude": 40.5283339,
      "longitude": 48.3650835
    },
    {
      "name": "Astara District",
      "countryCode": "AZ",
      "isoCode": "AST",
      "latitude": 38.4937845,
      "longitude": 48.6944365
    },
    {
      "name": "Babek District",
      "countryCode": "AZ",
      "isoCode": "BAB",
      "latitude": 39.1507613,
      "longitude": 45.4485368
    },
    {
      "name": "Baku",
      "countryCode": "AZ",
      "isoCode": "BA",
      "latitude": 40.4092617,
      "longitude": 49.8670924
    },
    {
      "name": "Balakan District",
      "countryCode": "AZ",
      "isoCode": "BAL",
      "latitude": 41.7037509,
      "longitude": 46.4044213
    },
    {
      "name": "Barda District",
      "countryCode": "AZ",
      "isoCode": "BAR",
      "latitude": 40.3706555,
      "longitude": 47.1378909
    },
    {
      "name": "Beylagan District",
      "countryCode": "AZ",
      "isoCode": "BEY",
      "latitude": 39.7723073,
      "longitude": 47.6154166
    },
    {
      "name": "Bilasuvar District",
      "countryCode": "AZ",
      "isoCode": "BIL",
      "latitude": 39.4598833,
      "longitude": 48.5509813
    },
    {
      "name": "Dashkasan District",
      "countryCode": "AZ",
      "isoCode": "DAS",
      "latitude": 40.5202257,
      "longitude": 46.0779304
    },
    {
      "name": "Fizuli District",
      "countryCode": "AZ",
      "isoCode": "FUZ",
      "latitude": 39.5378605,
      "longitude": 47.3033877
    },
    {
      "name": "Ganja",
      "countryCode": "AZ",
      "isoCode": "GA",
      "latitude": 36.3687338,
      "longitude": -95.9985767
    },
    {
      "name": "Gədəbəy",
      "countryCode": "AZ",
      "isoCode": "GAD",
      "latitude": 40.5699639,
      "longitude": 45.8106883
    },
    {
      "name": "Gobustan District",
      "countryCode": "AZ",
      "isoCode": "QOB",
      "latitude": 40.5326104,
      "longitude": 48.927375
    },
    {
      "name": "Goranboy District",
      "countryCode": "AZ",
      "isoCode": "GOR",
      "latitude": 40.5380506,
      "longitude": 46.5990891
    },
    {
      "name": "Goychay",
      "countryCode": "AZ",
      "isoCode": "GOY",
      "latitude": 40.6236168,
      "longitude": 47.7403034
    },
    {
      "name": "Goygol District",
      "countryCode": "AZ",
      "isoCode": "GYG",
      "latitude": 40.5595378,
      "longitude": 46.3314953
    },
    {
      "name": "Hajigabul District",
      "countryCode": "AZ",
      "isoCode": "HAC",
      "latitude": 40.039377,
      "longitude": 48.9202533
    },
    {
      "name": "Imishli District",
      "countryCode": "AZ",
      "isoCode": "IMI",
      "latitude": 39.8694686,
      "longitude": 48.0665218
    },
    {
      "name": "Ismailli District",
      "countryCode": "AZ",
      "isoCode": "ISM",
      "latitude": 40.7429936,
      "longitude": 48.2125556
    },
    {
      "name": "Jabrayil District",
      "countryCode": "AZ",
      "isoCode": "CAB",
      "latitude": 39.2645544,
      "longitude": 46.9621562
    },
    {
      "name": "Jalilabad District",
      "countryCode": "AZ",
      "isoCode": "CAL",
      "latitude": 39.2051632,
      "longitude": 48.5100604
    },
    {
      "name": "Julfa District",
      "countryCode": "AZ",
      "isoCode": "CUL",
      "latitude": 38.9604983,
      "longitude": 45.6292939
    },
    {
      "name": "Kalbajar District",
      "countryCode": "AZ",
      "isoCode": "KAL",
      "latitude": 40.1024329,
      "longitude": 46.0364872
    },
    {
      "name": "Kangarli District",
      "countryCode": "AZ",
      "isoCode": "KAN",
      "latitude": 39.387194,
      "longitude": 45.1639852
    },
    {
      "name": "Khachmaz District",
      "countryCode": "AZ",
      "isoCode": "XAC",
      "latitude": 41.4591168,
      "longitude": 48.8020626
    },
    {
      "name": "Khizi District",
      "countryCode": "AZ",
      "isoCode": "XIZ",
      "latitude": 40.9109489,
      "longitude": 49.0729264
    },
    {
      "name": "Khojali District",
      "countryCode": "AZ",
      "isoCode": "XCI",
      "latitude": 39.9132553,
      "longitude": 46.794305
    },
    {
      "name": "Kurdamir District",
      "countryCode": "AZ",
      "isoCode": "KUR",
      "latitude": 40.3698651,
      "longitude": 48.1644626
    },
    {
      "name": "Lachin District",
      "countryCode": "AZ",
      "isoCode": "LAC",
      "latitude": 39.6383414,
      "longitude": 46.5460853
    },
    {
      "name": "Lankaran",
      "countryCode": "AZ",
      "isoCode": "LAN",
      "latitude": 38.7528669,
      "longitude": 48.8475015
    },
    {
      "name": "Lankaran District",
      "countryCode": "AZ",
      "isoCode": "LA",
      "latitude": 38.7528669,
      "longitude": 48.8475015
    },
    {
      "name": "Lerik District",
      "countryCode": "AZ",
      "isoCode": "LER",
      "latitude": 38.7736192,
      "longitude": 48.4151483
    },
    {
      "name": "Martuni",
      "countryCode": "AZ",
      "isoCode": "XVD",
      "latitude": 39.7914693,
      "longitude": 47.1100814
    },
    {
      "name": "Masally District",
      "countryCode": "AZ",
      "isoCode": "MAS",
      "latitude": 39.0340722,
      "longitude": 48.6589354
    },
    {
      "name": "Mingachevir",
      "countryCode": "AZ",
      "isoCode": "MI",
      "latitude": 40.7702563,
      "longitude": 47.0496015
    },
    {
      "name": "Nakhchivan Autonomous Republic",
      "countryCode": "AZ",
      "isoCode": "NX",
      "latitude": 39.3256814,
      "longitude": 45.4912648
    },
    {
      "name": "Neftchala District",
      "countryCode": "AZ",
      "isoCode": "NEF",
      "latitude": 39.3881052,
      "longitude": 49.2413743
    },
    {
      "name": "Oghuz District",
      "countryCode": "AZ",
      "isoCode": "OGU",
      "latitude": 41.0727924,
      "longitude": 47.4650672
    },
    {
      "name": "Ordubad District",
      "countryCode": "AZ",
      "isoCode": "ORD",
      "latitude": 38.9021622,
      "longitude": 46.0237625
    },
    {
      "name": "Qabala District",
      "countryCode": "AZ",
      "isoCode": "QAB",
      "latitude": 40.9253925,
      "longitude": 47.8016106
    },
    {
      "name": "Qakh District",
      "countryCode": "AZ",
      "isoCode": "QAX",
      "latitude": 41.4206827,
      "longitude": 46.9320184
    },
    {
      "name": "Qazakh District",
      "countryCode": "AZ",
      "isoCode": "QAZ",
      "latitude": 41.0971074,
      "longitude": 45.3516331
    },
    {
      "name": "Quba District",
      "countryCode": "AZ",
      "isoCode": "QBA",
      "latitude": 41.1564242,
      "longitude": 48.4135021
    },
    {
      "name": "Qubadli District",
      "countryCode": "AZ",
      "isoCode": "QBI",
      "latitude": 39.2713996,
      "longitude": 46.6354312
    },
    {
      "name": "Qusar District",
      "countryCode": "AZ",
      "isoCode": "QUS",
      "latitude": 41.4266886,
      "longitude": 48.4345577
    },
    {
      "name": "Saatly District",
      "countryCode": "AZ",
      "isoCode": "SAT",
      "latitude": 39.9095503,
      "longitude": 48.3595122
    },
    {
      "name": "Sabirabad District",
      "countryCode": "AZ",
      "isoCode": "SAB",
      "latitude": 39.9870663,
      "longitude": 48.4692545
    },
    {
      "name": "Sadarak District",
      "countryCode": "AZ",
      "isoCode": "SAD",
      "latitude": 39.7105114,
      "longitude": 44.8864277
    },
    {
      "name": "Salyan District",
      "countryCode": "AZ",
      "isoCode": "SAL",
      "latitude": 28.3524811,
      "longitude": 82.12784
    },
    {
      "name": "Samukh District",
      "countryCode": "AZ",
      "isoCode": "SMX",
      "latitude": 40.7604631,
      "longitude": 46.4063181
    },
    {
      "name": "Shabran District",
      "countryCode": "AZ",
      "isoCode": "SBN",
      "latitude": 41.2228376,
      "longitude": 48.8457304
    },
    {
      "name": "Shahbuz District",
      "countryCode": "AZ",
      "isoCode": "SAH",
      "latitude": 39.4452103,
      "longitude": 45.6568009
    },
    {
      "name": "Shaki",
      "countryCode": "AZ",
      "isoCode": "SA",
      "latitude": 41.1974753,
      "longitude": 47.1571241
    },
    {
      "name": "Shaki District",
      "countryCode": "AZ",
      "isoCode": "SAK",
      "latitude": 41.1134662,
      "longitude": 47.1316927
    },
    {
      "name": "Shamakhi District",
      "countryCode": "AZ",
      "isoCode": "SMI",
      "latitude": 40.6318731,
      "longitude": 48.6363801
    },
    {
      "name": "Shamkir District",
      "countryCode": "AZ",
      "isoCode": "SKR",
      "latitude": 40.8288144,
      "longitude": 46.0166879
    },
    {
      "name": "Sharur District",
      "countryCode": "AZ",
      "isoCode": "SAR",
      "latitude": 39.5536332,
      "longitude": 44.984568
    },
    {
      "name": "Shirvan",
      "countryCode": "AZ",
      "isoCode": "SR",
      "latitude": 39.9469707,
      "longitude": 48.9223919
    },
    {
      "name": "Shusha District",
      "countryCode": "AZ",
      "isoCode": "SUS",
      "latitude": 39.7537438,
      "longitude": 46.7464755
    },
    {
      "name": "Siazan District",
      "countryCode": "AZ",
      "isoCode": "SIY",
      "latitude": 41.0783833,
      "longitude": 49.1118477
    },
    {
      "name": "Sumqayit",
      "countryCode": "AZ",
      "isoCode": "SM",
      "latitude": 40.5854765,
      "longitude": 49.6317411
    },
    {
      "name": "Tartar District",
      "countryCode": "AZ",
      "isoCode": "TAR",
      "latitude": 40.3443875,
      "longitude": 46.9376519
    },
    {
      "name": "Tovuz District",
      "countryCode": "AZ",
      "isoCode": "TOV",
      "latitude": 40.9954523,
      "longitude": 45.6165907
    },
    {
      "name": "Ujar District",
      "countryCode": "AZ",
      "isoCode": "UCA",
      "latitude": 40.5067525,
      "longitude": 47.6489641
    },
    {
      "name": "Yardymli District",
      "countryCode": "AZ",
      "isoCode": "YAR",
      "latitude": 38.9058917,
      "longitude": 48.2496127
    },
    {
      "name": "Yevlakh",
      "countryCode": "AZ",
      "isoCode": "YE",
      "latitude": 40.6196638,
      "longitude": 47.1500324
    },
    {
      "name": "Yevlakh District",
      "countryCode": "AZ",
      "isoCode": "YEV",
      "latitude": 40.6196638,
      "longitude": 47.1500324
    },
    {
      "name": "Zangilan District",
      "countryCode": "AZ",
      "isoCode": "ZAN",
      "latitude": 39.0856899,
      "longitude": 46.6524728
    },
    {
      "name": "Zaqatala District",
      "countryCode": "AZ",
      "isoCode": "ZAQ",
      "latitude": 41.5906889,
      "longitude": 46.7240373
    },
    {
      "name": "Zardab District",
      "countryCode": "AZ",
      "isoCode": "ZAR",
      "latitude": 40.2148114,
      "longitude": 47.714944
    },
    {
      "name": "Capital Governorate",
      "countryCode": "BH",
      "isoCode": 13,
      "latitude": "",
      "longitude": ""
    },
    {
      "name": "Central Governorate",
      "countryCode": "BH",
      "isoCode": 16,
      "latitude": 26.1426093,
      "longitude": 50.5653294
    },
    {
      "name": "Muharraq Governorate",
      "countryCode": "BH",
      "isoCode": 15,
      "latitude": 26.2685653,
      "longitude": 50.6482517
    },
    {
      "name": "Northern Governorate",
      "countryCode": "BH",
      "isoCode": 17,
      "latitude": 26.1551914,
      "longitude": 50.4825173
    },
    {
      "name": "Southern Governorate",
      "countryCode": "BH",
      "isoCode": 14,
      "latitude": 25.9381018,
      "longitude": 50.5756887
    },
    {
      "name": "Bagerhat District",
      "countryCode": "BD",
      "isoCode": 5,
      "latitude": 22.6602436,
      "longitude": 89.7895478
    },
    {
      "name": "Bahadia",
      "countryCode": "BD",
      "isoCode": 33,
      "latitude": 23.7898712,
      "longitude": 90.1671483
    },
    {
      "name": "Bandarban District",
      "countryCode": "BD",
      "isoCode": 1,
      "latitude": 21.8311002,
      "longitude": 92.3686321
    },
    {
      "name": "Barguna District",
      "countryCode": "BD",
      "isoCode": 2,
      "latitude": 22.0952915,
      "longitude": 90.1120696
    },
    {
      "name": "Barisal District",
      "countryCode": "BD",
      "isoCode": 6,
      "latitude": 22.7022098,
      "longitude": 90.3696316
    },
    {
      "name": "Barisal Division",
      "countryCode": "BD",
      "isoCode": "A",
      "latitude": 22.3811131,
      "longitude": 90.3371889
    },
    {
      "name": "Bhola District",
      "countryCode": "BD",
      "isoCode": 7,
      "latitude": 22.1785315,
      "longitude": 90.7101023
    },
    {
      "name": "Bogra District",
      "countryCode": "BD",
      "isoCode": 3,
      "latitude": 24.8510402,
      "longitude": 89.3697225
    },
    {
      "name": "Brahmanbaria District",
      "countryCode": "BD",
      "isoCode": 4,
      "latitude": 23.9608181,
      "longitude": 91.1115014
    },
    {
      "name": "Chandpur District",
      "countryCode": "BD",
      "isoCode": 9,
      "latitude": 23.2513148,
      "longitude": 90.8517846
    },
    {
      "name": "Chapai Nawabganj District",
      "countryCode": "BD",
      "isoCode": 45,
      "latitude": 24.7413111,
      "longitude": 88.2912069
    },
    {
      "name": "Chittagong District",
      "countryCode": "BD",
      "isoCode": 10,
      "latitude": 22.5150105,
      "longitude": 91.7538817
    },
    {
      "name": "Chittagong Division",
      "countryCode": "BD",
      "isoCode": "B",
      "latitude": 23.1793157,
      "longitude": 91.9881527
    },
    {
      "name": "Chuadanga District",
      "countryCode": "BD",
      "isoCode": 12,
      "latitude": 23.6160512,
      "longitude": 88.8263006
    },
    {
      "name": "Comilla District",
      "countryCode": "BD",
      "isoCode": 8,
      "latitude": 23.4575667,
      "longitude": 91.1808996
    },
    {
      "name": "Cox's Bazar District",
      "countryCode": "BD",
      "isoCode": 11,
      "latitude": 21.5640626,
      "longitude": 92.0282129
    },
    {
      "name": "Dhaka District",
      "countryCode": "BD",
      "isoCode": 13,
      "latitude": 23.810514,
      "longitude": 90.3371889
    },
    {
      "name": "Dhaka Division",
      "countryCode": "BD",
      "isoCode": "C",
      "latitude": 23.9535742,
      "longitude": 90.1494988
    },
    {
      "name": "Dinajpur District",
      "countryCode": "BD",
      "isoCode": 14,
      "latitude": 25.6279123,
      "longitude": 88.6331758
    },
    {
      "name": "Faridpur District",
      "countryCode": "BD",
      "isoCode": 15,
      "latitude": 23.5423919,
      "longitude": 89.6308921
    },
    {
      "name": "Feni District",
      "countryCode": "BD",
      "isoCode": 16,
      "latitude": 22.9408784,
      "longitude": 91.4066646
    },
    {
      "name": "Gaibandha District",
      "countryCode": "BD",
      "isoCode": 19,
      "latitude": 25.3296928,
      "longitude": 89.5429652
    },
    {
      "name": "Gazipur District",
      "countryCode": "BD",
      "isoCode": 18,
      "latitude": 24.0958171,
      "longitude": 90.4125181
    },
    {
      "name": "Gopalganj District",
      "countryCode": "BD",
      "isoCode": 17,
      "latitude": 26.4831584,
      "longitude": 84.43655
    },
    {
      "name": "Habiganj District",
      "countryCode": "BD",
      "isoCode": 20,
      "latitude": 24.4771236,
      "longitude": 91.4506565
    },
    {
      "name": "Jamalpur District",
      "countryCode": "BD",
      "isoCode": 21,
      "latitude": 25.0830926,
      "longitude": 89.7853218
    },
    {
      "name": "Jessore District",
      "countryCode": "BD",
      "isoCode": 22,
      "latitude": 23.1634014,
      "longitude": 89.2181664
    },
    {
      "name": "Jhalokati District",
      "countryCode": "BD",
      "isoCode": 25,
      "latitude": 22.57208,
      "longitude": 90.1869644
    },
    {
      "name": "Jhenaidah District",
      "countryCode": "BD",
      "isoCode": 23,
      "latitude": 23.5449873,
      "longitude": 89.1726031
    },
    {
      "name": "Joypurhat District",
      "countryCode": "BD",
      "isoCode": 24,
      "latitude": 25.0947349,
      "longitude": 89.0944937
    },
    {
      "name": "Khagrachari District",
      "countryCode": "BD",
      "isoCode": 29,
      "latitude": 23.1321751,
      "longitude": 91.949021
    },
    {
      "name": "Khulna District",
      "countryCode": "BD",
      "isoCode": 27,
      "latitude": 22.6737735,
      "longitude": 89.3966581
    },
    {
      "name": "Khulna Division",
      "countryCode": "BD",
      "isoCode": "D",
      "latitude": 22.8087816,
      "longitude": 89.2467191
    },
    {
      "name": "Kishoreganj District",
      "countryCode": "BD",
      "isoCode": 26,
      "latitude": 24.4260457,
      "longitude": 90.9820668
    },
    {
      "name": "Kurigram District",
      "countryCode": "BD",
      "isoCode": 28,
      "latitude": 25.8072414,
      "longitude": 89.6294746
    },
    {
      "name": "Kushtia District",
      "countryCode": "BD",
      "isoCode": 30,
      "latitude": 23.8906995,
      "longitude": 89.1099368
    },
    {
      "name": "Lakshmipur District",
      "countryCode": "BD",
      "isoCode": 31,
      "latitude": 22.9446744,
      "longitude": 90.8281907
    },
    {
      "name": "Lalmonirhat District",
      "countryCode": "BD",
      "isoCode": 32,
      "latitude": 25.9923398,
      "longitude": 89.2847251
    },
    {
      "name": "Madaripur District",
      "countryCode": "BD",
      "isoCode": 36,
      "latitude": 23.2393346,
      "longitude": 90.1869644
    },
    {
      "name": "Meherpur District",
      "countryCode": "BD",
      "isoCode": 39,
      "latitude": 23.8051991,
      "longitude": 88.6723578
    },
    {
      "name": "Moulvibazar District",
      "countryCode": "BD",
      "isoCode": 38,
      "latitude": 24.3095344,
      "longitude": 91.7314903
    },
    {
      "name": "Munshiganj District",
      "countryCode": "BD",
      "isoCode": 35,
      "latitude": 23.4980931,
      "longitude": 90.4126621
    },
    {
      "name": "Mymensingh District",
      "countryCode": "BD",
      "isoCode": 34,
      "latitude": 24.7538575,
      "longitude": 90.4072919
    },
    {
      "name": "Mymensingh Division",
      "countryCode": "BD",
      "isoCode": "H",
      "latitude": 24.71362,
      "longitude": 90.4502368
    },
    {
      "name": "Naogaon District",
      "countryCode": "BD",
      "isoCode": 48,
      "latitude": 24.9131597,
      "longitude": 88.7530952
    },
    {
      "name": "Narail District",
      "countryCode": "BD",
      "isoCode": 43,
      "latitude": 23.1162929,
      "longitude": 89.5840404
    },
    {
      "name": "Narayanganj District",
      "countryCode": "BD",
      "isoCode": 40,
      "latitude": 23.7146601,
      "longitude": 90.563609
    },
    {
      "name": "Natore District",
      "countryCode": "BD",
      "isoCode": 44,
      "latitude": 24.410243,
      "longitude": 89.0076177
    },
    {
      "name": "Netrokona District",
      "countryCode": "BD",
      "isoCode": 41,
      "latitude": 24.8103284,
      "longitude": 90.8656415
    },
    {
      "name": "Nilphamari District",
      "countryCode": "BD",
      "isoCode": 46,
      "latitude": 25.8482798,
      "longitude": 88.9414134
    },
    {
      "name": "Noakhali District",
      "countryCode": "BD",
      "isoCode": 47,
      "latitude": 22.8723789,
      "longitude": 91.0973184
    },
    {
      "name": "Pabna District",
      "countryCode": "BD",
      "isoCode": 49,
      "latitude": 24.158505,
      "longitude": 89.4480718
    },
    {
      "name": "Panchagarh District",
      "countryCode": "BD",
      "isoCode": 52,
      "latitude": 26.2708705,
      "longitude": 88.5951751
    },
    {
      "name": "Patuakhali District",
      "countryCode": "BD",
      "isoCode": 51,
      "latitude": 22.2248632,
      "longitude": 90.4547503
    },
    {
      "name": "Pirojpur District",
      "countryCode": "BD",
      "isoCode": 50,
      "latitude": 22.5790744,
      "longitude": 89.9759264
    },
    {
      "name": "Rajbari District",
      "countryCode": "BD",
      "isoCode": 53,
      "latitude": 23.715134,
      "longitude": 89.5874819
    },
    {
      "name": "Rajshahi District",
      "countryCode": "BD",
      "isoCode": 54,
      "latitude": 24.3733087,
      "longitude": 88.6048716
    },
    {
      "name": "Rajshahi Division",
      "countryCode": "BD",
      "isoCode": "E",
      "latitude": 24.7105776,
      "longitude": 88.9413865
    },
    {
      "name": "Rangamati Hill District",
      "countryCode": "BD",
      "isoCode": 56,
      "latitude": 22.7324173,
      "longitude": 92.2985134
    },
    {
      "name": "Rangpur District",
      "countryCode": "BD",
      "isoCode": 55,
      "latitude": 25.7467925,
      "longitude": 89.2508335
    },
    {
      "name": "Rangpur Division",
      "countryCode": "BD",
      "isoCode": "F",
      "latitude": 25.8483388,
      "longitude": 88.9413865
    },
    {
      "name": "Satkhira District",
      "countryCode": "BD",
      "isoCode": 58,
      "latitude": 22.3154812,
      "longitude": 89.1114525
    },
    {
      "name": "Shariatpur District",
      "countryCode": "BD",
      "isoCode": 62,
      "latitude": 23.2423214,
      "longitude": 90.4347711
    },
    {
      "name": "Sherpur District",
      "countryCode": "BD",
      "isoCode": 57,
      "latitude": 25.0746235,
      "longitude": 90.1494904
    },
    {
      "name": "Sirajganj District",
      "countryCode": "BD",
      "isoCode": 59,
      "latitude": 24.3141115,
      "longitude": 89.5699615
    },
    {
      "name": "Sunamganj District",
      "countryCode": "BD",
      "isoCode": 61,
      "latitude": 25.0714535,
      "longitude": 91.3991627
    },
    {
      "name": "Sylhet District",
      "countryCode": "BD",
      "isoCode": 60,
      "latitude": 24.8993357,
      "longitude": 91.8700473
    },
    {
      "name": "Sylhet Division",
      "countryCode": "BD",
      "isoCode": "G",
      "latitude": 24.7049811,
      "longitude": 91.6760691
    },
    {
      "name": "Tangail District",
      "countryCode": "BD",
      "isoCode": 63,
      "latitude": 24.3917427,
      "longitude": 89.9948257
    },
    {
      "name": "Thakurgaon District",
      "countryCode": "BD",
      "isoCode": 64,
      "latitude": 26.0418392,
      "longitude": 88.4282616
    },
    {
      "name": "Christ Church",
      "countryCode": "BB",
      "isoCode": 1,
      "latitude": 36.0060407,
      "longitude": -95.921121
    },
    {
      "name": "Saint Andrew",
      "countryCode": "BB",
      "isoCode": 2,
      "latitude": "",
      "longitude": ""
    },
    {
      "name": "Saint George",
      "countryCode": "BB",
      "isoCode": 3,
      "latitude": 37.0965278,
      "longitude": -113.5684164
    },
    {
      "name": "Saint James",
      "countryCode": "BB",
      "isoCode": 4,
      "latitude": 48.523566,
      "longitude": -1.3237885
    },
    {
      "name": "Saint John",
      "countryCode": "BB",
      "isoCode": 5,
      "latitude": 45.2733153,
      "longitude": -66.063308
    },
    {
      "name": "Saint Joseph",
      "countryCode": "BB",
      "isoCode": 6,
      "latitude": 39.7674578,
      "longitude": -94.846681
    },
    {
      "name": "Saint Lucy",
      "countryCode": "BB",
      "isoCode": 7,
      "latitude": 38.7614625,
      "longitude": -77.4491439
    },
    {
      "name": "Saint Michael",
      "countryCode": "BB",
      "isoCode": 8,
      "latitude": 36.035977,
      "longitude": -95.849052
    },
    {
      "name": "Saint Peter",
      "countryCode": "BB",
      "isoCode": 9,
      "latitude": 37.0827119,
      "longitude": -94.517125
    },
    {
      "name": "Saint Philip",
      "countryCode": "BB",
      "isoCode": 10,
      "latitude": 35.233114,
      "longitude": -89.4364042
    },
    {
      "name": "Saint Thomas",
      "countryCode": "BB",
      "isoCode": 11,
      "latitude": 18.3380965,
      "longitude": -64.8940946
    },
    {
      "name": "Brest Region",
      "countryCode": "BY",
      "isoCode": "BR",
      "latitude": 52.5296641,
      "longitude": 25.460648
    },
    {
      "name": "Gomel Region",
      "countryCode": "BY",
      "isoCode": "HO",
      "latitude": 52.1648754,
      "longitude": 29.1333251
    },
    {
      "name": "Grodno Region",
      "countryCode": "BY",
      "isoCode": "HR",
      "latitude": 53.6599945,
      "longitude": 25.3448571
    },
    {
      "name": "Minsk",
      "countryCode": "BY",
      "isoCode": "HM",
      "latitude": 53.9006011,
      "longitude": 27.558972
    },
    {
      "name": "Minsk Region",
      "countryCode": "BY",
      "isoCode": "MI",
      "latitude": 54.1067889,
      "longitude": 27.4129245
    },
    {
      "name": "Mogilev Region",
      "countryCode": "BY",
      "isoCode": "MA",
      "latitude": 53.5101791,
      "longitude": 30.4006444
    },
    {
      "name": "Vitebsk Region",
      "countryCode": "BY",
      "isoCode": "VI",
      "latitude": 55.2959833,
      "longitude": 28.7583627
    },
    {
      "name": "Antwerp",
      "countryCode": "BE",
      "isoCode": "VAN",
      "latitude": 51.2194475,
      "longitude": 4.4024643
    },
    {
      "name": "Brussels-Capital Region",
      "countryCode": "BE",
      "isoCode": "BRU",
      "latitude": 50.8503463,
      "longitude": 4.3517211
    },
    {
      "name": "East Flanders",
      "countryCode": "BE",
      "isoCode": "VOV",
      "latitude": 51.0362101,
      "longitude": 3.7373124
    },
    {
      "name": "Flanders",
      "countryCode": "BE",
      "isoCode": "VLG",
      "latitude": 51.0108706,
      "longitude": 3.7264613
    },
    {
      "name": "Flemish Brabant",
      "countryCode": "BE",
      "isoCode": "VBR",
      "latitude": 50.8815434,
      "longitude": 4.564597
    },
    {
      "name": "Hainaut",
      "countryCode": "BE",
      "isoCode": "WHT",
      "latitude": 50.5257076,
      "longitude": 4.0621017
    },
    {
      "name": "Liège",
      "countryCode": "BE",
      "isoCode": "WLG",
      "latitude": 50.6325574,
      "longitude": 5.5796662
    },
    {
      "name": "Limburg",
      "countryCode": "BE",
      "isoCode": "VLI",
      "latitude": "",
      "longitude": ""
    },
    {
      "name": "Luxembourg",
      "countryCode": "BE",
      "isoCode": "WLX",
      "latitude": 49.815273,
      "longitude": 6.129583
    },
    {
      "name": "Namur",
      "countryCode": "BE",
      "isoCode": "WNA",
      "latitude": 50.4673883,
      "longitude": 4.8719854
    },
    {
      "name": "Wallonia",
      "countryCode": "BE",
      "isoCode": "WAL",
      "latitude": 50.4175637,
      "longitude": 4.4510066
    },
    {
      "name": "Walloon Brabant",
      "countryCode": "BE",
      "isoCode": "WBR",
      "latitude": 50.633241,
      "longitude": 4.524315
    },
    {
      "name": "West Flanders",
      "countryCode": "BE",
      "isoCode": "VWV",
      "latitude": 40.0179334,
      "longitude": -105.2806733
    },
    {
      "name": "Belize District",
      "countryCode": "BZ",
      "isoCode": "BZ",
      "latitude": 17.5677679,
      "longitude": -88.4016041
    },
    {
      "name": "Cayo District",
      "countryCode": "BZ",
      "isoCode": "CY",
      "latitude": 17.0984445,
      "longitude": -88.9413865
    },
    {
      "name": "Corozal District",
      "countryCode": "BZ",
      "isoCode": "CZL",
      "latitude": 18.1349238,
      "longitude": -88.2461183
    },
    {
      "name": "Orange Walk District",
      "countryCode": "BZ",
      "isoCode": "OW",
      "latitude": 17.760353,
      "longitude": -88.864698
    },
    {
      "name": "Stann Creek District",
      "countryCode": "BZ",
      "isoCode": "SC",
      "latitude": 16.8116631,
      "longitude": -88.4016041
    },
    {
      "name": "Toledo District",
      "countryCode": "BZ",
      "isoCode": "TOL",
      "latitude": 16.2491923,
      "longitude": -88.864698
    },
    {
      "name": "Alibori Department",
      "countryCode": "BJ",
      "isoCode": "AL",
      "latitude": 10.9681093,
      "longitude": 2.7779813
    },
    {
      "name": "Atakora Department",
      "countryCode": "BJ",
      "isoCode": "AK",
      "latitude": 10.7954931,
      "longitude": 1.6760691
    },
    {
      "name": "Atlantique Department",
      "countryCode": "BJ",
      "isoCode": "AQ",
      "latitude": 6.6588391,
      "longitude": 2.2236667
    },
    {
      "name": "Borgou Department",
      "countryCode": "BJ",
      "isoCode": "BO",
      "latitude": 9.5340864,
      "longitude": 2.7779813
    },
    {
      "name": "Collines Department",
      "countryCode": "BJ",
      "isoCode": "CO",
      "latitude": 8.3022297,
      "longitude": 2.302446
    },
    {
      "name": "Donga Department",
      "countryCode": "BJ",
      "isoCode": "DO",
      "latitude": 9.7191867,
      "longitude": 1.6760691
    },
    {
      "name": "Kouffo Department",
      "countryCode": "BJ",
      "isoCode": "KO",
      "latitude": 7.0035894,
      "longitude": 1.7538817
    },
    {
      "name": "Littoral Department",
      "countryCode": "BJ",
      "isoCode": "LI",
      "latitude": 6.3806973,
      "longitude": 2.4406387
    },
    {
      "name": "Mono Department",
      "countryCode": "BJ",
      "isoCode": "MO",
      "latitude": 37.9218608,
      "longitude": -118.9528645
    },
    {
      "name": "Ouémé Department",
      "countryCode": "BJ",
      "isoCode": "OU",
      "latitude": 6.6148152,
      "longitude": 2.4999918
    },
    {
      "name": "Plateau Department",
      "countryCode": "BJ",
      "isoCode": "PL",
      "latitude": 7.3445141,
      "longitude": 2.539603
    },
    {
      "name": "Zou Department",
      "countryCode": "BJ",
      "isoCode": "ZO",
      "latitude": 7.3469268,
      "longitude": 2.0665197
    },
    {
      "name": "Devonshire Parish",
      "countryCode": "BM",
      "isoCode": "DEV",
      "latitude": 32.3038062,
      "longitude": -64.7606954
    },
    {
      "name": "Hamilton Parish",
      "countryCode": "BM",
      "isoCode": "HA",
      "latitude": 32.3449432,
      "longitude": -64.72365
    },
    {
      "name": "Paget Parish",
      "countryCode": "BM",
      "isoCode": "PAG",
      "latitude": 32.281074,
      "longitude": -64.7784787
    },
    {
      "name": "Pembroke Parish",
      "countryCode": "BM",
      "isoCode": "PEM",
      "latitude": 32.3007672,
      "longitude": -64.796263
    },
    {
      "name": "Saint George's Parish",
      "countryCode": "BM",
      "isoCode": "SGE",
      "latitude": 17.1257759,
      "longitude": -62.5619811
    },
    {
      "name": "Sandys Parish",
      "countryCode": "BM",
      "isoCode": "SAN",
      "latitude": 32.2999528,
      "longitude": -64.8674103
    },
    {
      "name": "Smith's Parish,",
      "countryCode": "BM",
      "isoCode": "SMI",
      "latitude": 32.3133966,
      "longitude": -64.7310588
    },
    {
      "name": "Southampton Parish",
      "countryCode": "BM",
      "isoCode": "SOU",
      "latitude": 32.2540095,
      "longitude": -64.8259058
    },
    {
      "name": "Warwick Parish",
      "countryCode": "BM",
      "isoCode": "WAR",
      "latitude": 32.2661534,
      "longitude": -64.8081198
    },
    {
      "name": "Bumthang District",
      "countryCode": "BT",
      "isoCode": 33,
      "latitude": 27.641839,
      "longitude": 90.6773046
    },
    {
      "name": "Chukha District",
      "countryCode": "BT",
      "isoCode": 12,
      "latitude": 27.0784304,
      "longitude": 89.4742177
    },
    {
      "name": "Dagana District",
      "countryCode": "BT",
      "isoCode": 22,
      "latitude": 27.0322861,
      "longitude": 89.8879304
    },
    {
      "name": "Gasa District",
      "countryCode": "BT",
      "isoCode": "GA",
      "latitude": 28.0185886,
      "longitude": 89.9253233
    },
    {
      "name": "Haa District",
      "countryCode": "BT",
      "isoCode": 13,
      "latitude": 27.2651669,
      "longitude": 89.1705998
    },
    {
      "name": "Lhuntse District",
      "countryCode": "BT",
      "isoCode": 44,
      "latitude": 27.8264989,
      "longitude": 91.135302
    },
    {
      "name": "Mongar District",
      "countryCode": "BT",
      "isoCode": 42,
      "latitude": 27.2617059,
      "longitude": 91.2891036
    },
    {
      "name": "Paro District",
      "countryCode": "BT",
      "isoCode": 11,
      "latitude": 27.4285949,
      "longitude": 89.4166516
    },
    {
      "name": "Pemagatshel District",
      "countryCode": "BT",
      "isoCode": 43,
      "latitude": 27.002382,
      "longitude": 91.3469247
    },
    {
      "name": "Punakha District",
      "countryCode": "BT",
      "isoCode": 23,
      "latitude": 27.6903716,
      "longitude": 89.8879304
    },
    {
      "name": "Samdrup Jongkhar District",
      "countryCode": "BT",
      "isoCode": 45,
      "latitude": 26.8035682,
      "longitude": 91.5039207
    },
    {
      "name": "Samtse District",
      "countryCode": "BT",
      "isoCode": 14,
      "latitude": 27.0291832,
      "longitude": 89.0561532
    },
    {
      "name": "Sarpang District",
      "countryCode": "BT",
      "isoCode": 31,
      "latitude": 26.9373041,
      "longitude": 90.4879916
    },
    {
      "name": "Thimphu District",
      "countryCode": "BT",
      "isoCode": 15,
      "latitude": 27.4712216,
      "longitude": 89.6339041
    },
    {
      "name": "Trashigang District",
      "countryCode": "BT",
      "isoCode": 41,
      "latitude": 27.2566795,
      "longitude": 91.7538817
    },
    {
      "name": "Trongsa District",
      "countryCode": "BT",
      "isoCode": 32,
      "latitude": 27.5002269,
      "longitude": 90.5080634
    },
    {
      "name": "Tsirang District",
      "countryCode": "BT",
      "isoCode": 21,
      "latitude": 27.032207,
      "longitude": 90.1869644
    },
    {
      "name": "Wangdue Phodrang District",
      "countryCode": "BT",
      "isoCode": 24,
      "latitude": 27.4526046,
      "longitude": 90.0674928
    },
    {
      "name": "Zhemgang District",
      "countryCode": "BT",
      "isoCode": 34,
      "latitude": 27.076975,
      "longitude": 90.8294002
    },
    {
      "name": "Beni Department",
      "countryCode": "BO",
      "isoCode": "B",
      "latitude": -14.3782747,
      "longitude": -65.0957792
    },
    {
      "name": "Chuquisaca Department",
      "countryCode": "BO",
      "isoCode": "H",
      "latitude": -20.0249144,
      "longitude": -64.1478236
    },
    {
      "name": "Cochabamba Department",
      "countryCode": "BO",
      "isoCode": "C",
      "latitude": -17.5681675,
      "longitude": -65.475736
    },
    {
      "name": "La Paz Department",
      "countryCode": "BO",
      "isoCode": "L",
      "latitude": "",
      "longitude": ""
    },
    {
      "name": "Oruro Department",
      "countryCode": "BO",
      "isoCode": "O",
      "latitude": -18.5711579,
      "longitude": -67.7615983
    },
    {
      "name": "Pando Department",
      "countryCode": "BO",
      "isoCode": "N",
      "latitude": -10.7988901,
      "longitude": -66.9988011
    },
    {
      "name": "Potosí Department",
      "countryCode": "BO",
      "isoCode": "P",
      "latitude": -20.624713,
      "longitude": -66.9988011
    },
    {
      "name": "Santa Cruz Department",
      "countryCode": "BO",
      "isoCode": "S",
      "latitude": -16.7476037,
      "longitude": -62.0750998
    },
    {
      "name": "Tarija Department",
      "countryCode": "BO",
      "isoCode": "T",
      "latitude": -21.5831595,
      "longitude": -63.9586111
    },
    {
      "name": "Bonaire",
      "countryCode": "BQ",
      "isoCode": "BQ1",
      "latitude": 12.2018902,
      "longitude": -68.2623822
    },
    {
      "name": "Saba",
      "countryCode": "BQ",
      "isoCode": "BQ2",
      "latitude": 17.6354642,
      "longitude": -63.2326763
    },
    {
      "name": "Sint Eustatius",
      "countryCode": "BQ",
      "isoCode": "BQ3",
      "latitude": 17.4890306,
      "longitude": -62.973555
    },
    {
      "name": "Bosnian Podrinje Canton",
      "countryCode": "BA",
      "isoCode": 5,
      "latitude": 43.68749,
      "longitude": 18.8244394
    },
    {
      "name": "Brčko District",
      "countryCode": "BA",
      "isoCode": "BRC",
      "latitude": 44.8405944,
      "longitude": 18.742153
    },
    {
      "name": "Canton 10",
      "countryCode": "BA",
      "isoCode": 10,
      "latitude": 43.9534155,
      "longitude": 16.9425187
    },
    {
      "name": "Central Bosnia Canton",
      "countryCode": "BA",
      "isoCode": 6,
      "latitude": 44.1381856,
      "longitude": 17.6866714
    },
    {
      "name": "Federation of Bosnia and Herzegovina",
      "countryCode": "BA",
      "isoCode": "BIH",
      "latitude": 43.8874897,
      "longitude": 17.842793
    },
    {
      "name": "Herzegovina-Neretva Canton",
      "countryCode": "BA",
      "isoCode": 7,
      "latitude": 43.5265159,
      "longitude": 17.763621
    },
    {
      "name": "Posavina Canton",
      "countryCode": "BA",
      "isoCode": 2,
      "latitude": 45.0752094,
      "longitude": 18.3776304
    },
    {
      "name": "Republika Srpska",
      "countryCode": "BA",
      "isoCode": "SRP",
      "latitude": 44.7280186,
      "longitude": 17.3148136
    },
    {
      "name": "Sarajevo Canton",
      "countryCode": "BA",
      "isoCode": 9,
      "latitude": 43.8512564,
      "longitude": 18.2953442
    },
    {
      "name": "Tuzla Canton",
      "countryCode": "BA",
      "isoCode": 3,
      "latitude": 44.5343463,
      "longitude": 18.6972797
    },
    {
      "name": "Una-Sana Canton",
      "countryCode": "BA",
      "isoCode": 1,
      "latitude": 44.6503116,
      "longitude": 16.3171629
    },
    {
      "name": "West Herzegovina Canton",
      "countryCode": "BA",
      "isoCode": 8,
      "latitude": 43.4369244,
      "longitude": 17.3848831
    },
    {
      "name": "Zenica-Doboj Canton",
      "countryCode": "BA",
      "isoCode": 4,
      "latitude": 44.2127109,
      "longitude": 18.1604625
    },
    {
      "name": "Central District",
      "countryCode": "BW",
      "isoCode": "CE",
      "latitude": "",
      "longitude": ""
    },
    {
      "name": "Ghanzi District",
      "countryCode": "BW",
      "isoCode": "GH",
      "latitude": -21.8652314,
      "longitude": 21.8568586
    },
    {
      "name": "Kgalagadi District",
      "countryCode": "BW",
      "isoCode": "KG",
      "latitude": -24.7550285,
      "longitude": 21.8568586
    },
    {
      "name": "Kgatleng District",
      "countryCode": "BW",
      "isoCode": "KL",
      "latitude": -24.1970445,
      "longitude": 26.2304616
    },
    {
      "name": "Kweneng District",
      "countryCode": "BW",
      "isoCode": "KW",
      "latitude": -23.8367249,
      "longitude": 25.2837585
    },
    {
      "name": "Ngamiland",
      "countryCode": "BW",
      "isoCode": "NG",
      "latitude": -19.1905321,
      "longitude": 23.0011989
    },
    {
      "name": "North-East District",
      "countryCode": "BW",
      "isoCode": "NE",
      "latitude": 37.5884461,
      "longitude": -94.6863782
    },
    {
      "name": "North-West District",
      "countryCode": "BW",
      "isoCode": "NW",
      "latitude": 39.3446307,
      "longitude": -76.6854283
    },
    {
      "name": "South-East District",
      "countryCode": "BW",
      "isoCode": "SE",
      "latitude": 31.2163798,
      "longitude": -82.3527044
    },
    {
      "name": "Southern District",
      "countryCode": "BW",
      "isoCode": "SO",
      "latitude": "",
      "longitude": ""
    },
    {
      "name": "Acre",
      "countryCode": "BR",
      "isoCode": "AC",
      "latitude": -9.023796,
      "longitude": -70.811995
    },
    {
      "name": "Alagoas",
      "countryCode": "BR",
      "isoCode": "AL",
      "latitude": -9.5713058,
      "longitude": -36.7819505
    },
    {
      "name": "Amapá",
      "countryCode": "BR",
      "isoCode": "AP",
      "latitude": 0.9019925,
      "longitude": -52.0029565
    },
    {
      "name": "Amazonas",
      "countryCode": "BR",
      "isoCode": "AM",
      "latitude": -3.07,
      "longitude": -61.66
    },
    {
      "name": "Bahia",
      "countryCode": "BR",
      "isoCode": "BA",
      "latitude": -11.409874,
      "longitude": -41.280857
    },
    {
      "name": "Ceará",
      "countryCode": "BR",
      "isoCode": "CE",
      "latitude": -5.4983977,
      "longitude": -39.3206241
    },
    {
      "name": "Distrito Federal",
      "countryCode": "BR",
      "isoCode": "DF",
      "latitude": -15.7997654,
      "longitude": -47.8644715
    },
    {
      "name": "Espírito Santo",
      "countryCode": "BR",
      "isoCode": "ES",
      "latitude": -19.1834229,
      "longitude": -40.3088626
    },
    {
      "name": "Goiás",
      "countryCode": "BR",
      "isoCode": "GO",
      "latitude": -15.8270369,
      "longitude": -49.8362237
    },
    {
      "name": "Maranhão",
      "countryCode": "BR",
      "isoCode": "MA",
      "latitude": -4.9609498,
      "longitude": -45.2744159
    },
    {
      "name": "Mato Grosso",
      "countryCode": "BR",
      "isoCode": "MT",
      "latitude": -12.6818712,
      "longitude": -56.921099
    },
    {
      "name": "Mato Grosso do Sul",
      "countryCode": "BR",
      "isoCode": "MS",
      "latitude": -20.7722295,
      "longitude": -54.7851531
    },
    {
      "name": "Minas Gerais",
      "countryCode": "BR",
      "isoCode": "MG",
      "latitude": -18.512178,
      "longitude": -44.5550308
    },
    {
      "name": "Pará",
      "countryCode": "BR",
      "isoCode": "PA",
      "latitude": -1.9981271,
      "longitude": -54.9306152
    },
    {
      "name": "Paraíba",
      "countryCode": "BR",
      "isoCode": "PB",
      "latitude": -7.2399609,
      "longitude": -36.7819505
    },
    {
      "name": "Paraná",
      "countryCode": "BR",
      "isoCode": "PR",
      "latitude": -25.2520888,
      "longitude": -52.0215415
    },
    {
      "name": "Pernambuco",
      "countryCode": "BR",
      "isoCode": "PE",
      "latitude": -8.8137173,
      "longitude": -36.954107
    },
    {
      "name": "Piauí",
      "countryCode": "BR",
      "isoCode": "PI",
      "latitude": -7.7183401,
      "longitude": -42.7289236
    },
    {
      "name": "Rio de Janeiro",
      "countryCode": "BR",
      "isoCode": "RJ",
      "latitude": -22.9068467,
      "longitude": -43.1728965
    },
    {
      "name": "Rio Grande do Norte",
      "countryCode": "BR",
      "isoCode": "RN",
      "latitude": -5.4025803,
      "longitude": -36.954107
    },
    {
      "name": "Rio Grande do Sul",
      "countryCode": "BR",
      "isoCode": "RS",
      "latitude": -30.0346316,
      "longitude": -51.2176986
    },
    {
      "name": "Rondônia",
      "countryCode": "BR",
      "isoCode": "RO",
      "latitude": -11.5057341,
      "longitude": -63.580611
    },
    {
      "name": "Roraima",
      "countryCode": "BR",
      "isoCode": "RR",
      "latitude": 2.7375971,
      "longitude": -62.0750998
    },
    {
      "name": "Santa Catarina",
      "countryCode": "BR",
      "isoCode": "SC",
      "latitude": -27.33,
      "longitude": -49.44
    },
    {
      "name": "São Paulo",
      "countryCode": "BR",
      "isoCode": "SP",
      "latitude": -23.5505199,
      "longitude": -46.6333094
    },
    {
      "name": "Sergipe",
      "countryCode": "BR",
      "isoCode": "SE",
      "latitude": -10.5740934,
      "longitude": -37.3856581
    },
    {
      "name": "Tocantins",
      "countryCode": "BR",
      "isoCode": "TO",
      "latitude": -10.17528,
      "longitude": -48.2982474
    },
    {
      "name": "Belait District",
      "countryCode": "BN",
      "isoCode": "BE",
      "latitude": 4.3750749,
      "longitude": 114.6192899
    },
    {
      "name": "Brunei-Muara District",
      "countryCode": "BN",
      "isoCode": "BM",
      "latitude": 4.9311206,
      "longitude": 114.9516869
    },
    {
      "name": "Temburong District",
      "countryCode": "BN",
      "isoCode": "TE",
      "latitude": 4.6204128,
      "longitude": 115.141484
    },
    {
      "name": "Tutong District",
      "countryCode": "BN",
      "isoCode": "TU",
      "latitude": 4.7140373,
      "longitude": 114.6667939
    },
    {
      "name": "Blagoevgrad Province",
      "countryCode": "BG",
      "isoCode": 1,
      "latitude": 42.0208614,
      "longitude": 23.0943356
    },
    {
      "name": "Burgas Province",
      "countryCode": "BG",
      "isoCode": 2,
      "latitude": 42.5048,
      "longitude": 27.4626079
    },
    {
      "name": "Dobrich Province",
      "countryCode": "BG",
      "isoCode": 8,
      "latitude": 43.572786,
      "longitude": 27.8272802
    },
    {
      "name": "Gabrovo Province",
      "countryCode": "BG",
      "isoCode": 7,
      "latitude": 42.86847,
      "longitude": 25.316889
    },
    {
      "name": "Haskovo Province",
      "countryCode": "BG",
      "isoCode": 26,
      "latitude": 41.9344178,
      "longitude": 25.5554672
    },
    {
      "name": "Kardzhali Province",
      "countryCode": "BG",
      "isoCode": 9,
      "latitude": 41.6338416,
      "longitude": 25.3776687
    },
    {
      "name": "Kyustendil Province",
      "countryCode": "BG",
      "isoCode": 10,
      "latitude": 42.2868799,
      "longitude": 22.6939635
    },
    {
      "name": "Lovech Province",
      "countryCode": "BG",
      "isoCode": 11,
      "latitude": 43.1367798,
      "longitude": 24.7139335
    },
    {
      "name": "Montana Province",
      "countryCode": "BG",
      "isoCode": 12,
      "latitude": 43.4085148,
      "longitude": 23.2257589
    },
    {
      "name": "Pazardzhik Province",
      "countryCode": "BG",
      "isoCode": 13,
      "latitude": 42.1927567,
      "longitude": 24.3336226
    },
    {
      "name": "Pernik Province",
      "countryCode": "BG",
      "isoCode": 14,
      "latitude": 42.605199,
      "longitude": 23.0377916
    },
    {
      "name": "Pleven Province",
      "countryCode": "BG",
      "isoCode": 15,
      "latitude": 43.4170169,
      "longitude": 24.6066708
    },
    {
      "name": "Plovdiv Province",
      "countryCode": "BG",
      "isoCode": 16,
      "latitude": 42.1354079,
      "longitude": 24.7452904
    },
    {
      "name": "Razgrad Province",
      "countryCode": "BG",
      "isoCode": 17,
      "latitude": 43.5271705,
      "longitude": 26.5241228
    },
    {
      "name": "Ruse Province",
      "countryCode": "BG",
      "isoCode": 18,
      "latitude": 43.8355964,
      "longitude": 25.9656144
    },
    {
      "name": "Shumen",
      "countryCode": "BG",
      "isoCode": 27,
      "latitude": 43.2712398,
      "longitude": 26.9361286
    },
    {
      "name": "Silistra Province",
      "countryCode": "BG",
      "isoCode": 19,
      "latitude": 44.1147101,
      "longitude": 27.2671454
    },
    {
      "name": "Sliven Province",
      "countryCode": "BG",
      "isoCode": 20,
      "latitude": 42.6816702,
      "longitude": 26.3228569
    },
    {
      "name": "Smolyan Province",
      "countryCode": "BG",
      "isoCode": 21,
      "latitude": 41.5774148,
      "longitude": 24.7010871
    },
    {
      "name": "Sofia City Province",
      "countryCode": "BG",
      "isoCode": 22,
      "latitude": 42.7570109,
      "longitude": 23.4504683
    },
    {
      "name": "Sofia Province",
      "countryCode": "BG",
      "isoCode": 23,
      "latitude": 42.67344,
      "longitude": 23.8334937
    },
    {
      "name": "Stara Zagora Province",
      "countryCode": "BG",
      "isoCode": 24,
      "latitude": 42.4257709,
      "longitude": 25.6344855
    },
    {
      "name": "Targovishte Province",
      "countryCode": "BG",
      "isoCode": 25,
      "latitude": 43.2462349,
      "longitude": 26.5691251
    },
    {
      "name": "Varna Province",
      "countryCode": "BG",
      "isoCode": 3,
      "latitude": 43.2046477,
      "longitude": 27.9105488
    },
    {
      "name": "Veliko Tarnovo Province",
      "countryCode": "BG",
      "isoCode": 4,
      "latitude": 43.0756539,
      "longitude": 25.61715
    },
    {
      "name": "Vidin Province",
      "countryCode": "BG",
      "isoCode": 5,
      "latitude": 43.9961739,
      "longitude": 22.8679515
    },
    {
      "name": "Vratsa Province",
      "countryCode": "BG",
      "isoCode": 6,
      "latitude": 43.2101806,
      "longitude": 23.552921
    },
    {
      "name": "Yambol Province",
      "countryCode": "BG",
      "isoCode": 28,
      "latitude": 42.4841494,
      "longitude": 26.5035296
    },
    {
      "name": "Balé Province",
      "countryCode": "BF",
      "isoCode": "BAL",
      "latitude": 11.7820602,
      "longitude": -3.0175712
    },
    {
      "name": "Bam Province",
      "countryCode": "BF",
      "isoCode": "BAM",
      "latitude": 13.446133,
      "longitude": -1.5983959
    },
    {
      "name": "Banwa Province",
      "countryCode": "BF",
      "isoCode": "BAN",
      "latitude": 12.1323053,
      "longitude": -4.1513764
    },
    {
      "name": "Bazèga Province",
      "countryCode": "BF",
      "isoCode": "BAZ",
      "latitude": 11.9767692,
      "longitude": -1.443469
    },
    {
      "name": "Boucle du Mouhoun Region",
      "countryCode": "BF",
      "isoCode": 1,
      "latitude": 12.4166,
      "longitude": -3.4195527
    },
    {
      "name": "Bougouriba Province",
      "countryCode": "BF",
      "isoCode": "BGR",
      "latitude": 10.8722646,
      "longitude": -3.3388917
    },
    {
      "name": "Boulgou",
      "countryCode": "BF",
      "isoCode": "BLG",
      "latitude": 11.4336766,
      "longitude": -0.3748354
    },
    {
      "name": "Cascades Region",
      "countryCode": "BF",
      "isoCode": 2,
      "latitude": 10.4072992,
      "longitude": -4.5624426
    },
    {
      "name": "Centre",
      "countryCode": "BF",
      "isoCode": 3,
      "latitude": "",
      "longitude": ""
    },
    {
      "name": "Centre-Est Region",
      "countryCode": "BF",
      "isoCode": 4,
      "latitude": 11.5247674,
      "longitude": -0.1494988
    },
    {
      "name": "Centre-Nord Region",
      "countryCode": "BF",
      "isoCode": 5,
      "latitude": 13.1724464,
      "longitude": -0.9056623
    },
    {
      "name": "Centre-Ouest Region",
      "countryCode": "BF",
      "isoCode": 6,
      "latitude": 11.8798466,
      "longitude": -2.302446
    },
    {
      "name": "Centre-Sud Region",
      "countryCode": "BF",
      "isoCode": 7,
      "latitude": 11.5228911,
      "longitude": -1.0586135
    },
    {
      "name": "Comoé Province",
      "countryCode": "BF",
      "isoCode": "COM",
      "latitude": 10.4072992,
      "longitude": -4.5624426
    },
    {
      "name": "Est Region",
      "countryCode": "BF",
      "isoCode": 8,
      "latitude": 12.4365526,
      "longitude": 0.9056623
    },
    {
      "name": "Ganzourgou Province",
      "countryCode": "BF",
      "isoCode": "GAN",
      "latitude": 12.2537648,
      "longitude": -0.7532809
    },
    {
      "name": "Gnagna Province",
      "countryCode": "BF",
      "isoCode": "GNA",
      "latitude": 12.8974992,
      "longitude": 0.0746767
    },
    {
      "name": "Gourma Province",
      "countryCode": "BF",
      "isoCode": "GOU",
      "latitude": 12.1624473,
      "longitude": 0.6773046
    },
    {
      "name": "Hauts-Bassins Region",
      "countryCode": "BF",
      "isoCode": 9,
      "latitude": 11.4942003,
      "longitude": -4.2333355
    },
    {
      "name": "Houet Province",
      "countryCode": "BF",
      "isoCode": "HOU",
      "latitude": 11.1320447,
      "longitude": -4.2333355
    },
    {
      "name": "Ioba Province",
      "countryCode": "BF",
      "isoCode": "IOB",
      "latitude": 11.0562034,
      "longitude": -3.0175712
    },
    {
      "name": "Kadiogo Province",
      "countryCode": "BF",
      "isoCode": "KAD",
      "latitude": 12.3425897,
      "longitude": -1.443469
    },
    {
      "name": "Kénédougou Province",
      "countryCode": "BF",
      "isoCode": "KEN",
      "latitude": 11.3919395,
      "longitude": -4.976654
    },
    {
      "name": "Komondjari Province",
      "countryCode": "BF",
      "isoCode": "KMD",
      "latitude": 12.7126527,
      "longitude": 0.6773046
    },
    {
      "name": "Kompienga Province",
      "countryCode": "BF",
      "isoCode": "KMP",
      "latitude": 11.5238362,
      "longitude": 0.7532809
    },
    {
      "name": "Kossi Province",
      "countryCode": "BF",
      "isoCode": "KOS",
      "latitude": 12.960458,
      "longitude": -3.9062688
    },
    {
      "name": "Koulpélogo Province",
      "countryCode": "BF",
      "isoCode": "KOP",
      "latitude": 11.5247674,
      "longitude": 0.1494988
    },
    {
      "name": "Kouritenga Province",
      "countryCode": "BF",
      "isoCode": "KOT",
      "latitude": 12.1631813,
      "longitude": -0.2244662
    },
    {
      "name": "Kourwéogo Province",
      "countryCode": "BF",
      "isoCode": "KOW",
      "latitude": 12.7077495,
      "longitude": -1.7538817
    },
    {
      "name": "Léraba Province",
      "countryCode": "BF",
      "isoCode": "LER",
      "latitude": 10.6648785,
      "longitude": -5.3102505
    },
    {
      "name": "Loroum Province",
      "countryCode": "BF",
      "isoCode": "LOR",
      "latitude": 13.8129814,
      "longitude": -2.0665197
    },
    {
      "name": "Mouhoun",
      "countryCode": "BF",
      "isoCode": "MOU",
      "latitude": 12.1432381,
      "longitude": -3.3388917
    },
    {
      "name": "Nahouri Province",
      "countryCode": "BF",
      "isoCode": "NAO",
      "latitude": 11.2502267,
      "longitude": -1.135302
    },
    {
      "name": "Namentenga Province",
      "countryCode": "BF",
      "isoCode": "NAM",
      "latitude": 13.0812584,
      "longitude": -0.5257823
    },
    {
      "name": "Nayala Province",
      "countryCode": "BF",
      "isoCode": "NAY",
      "latitude": 12.6964558,
      "longitude": -3.0175712
    },
    {
      "name": "Nord Region, Burkina Faso",
      "countryCode": "BF",
      "isoCode": 10,
      "latitude": 13.718252,
      "longitude": -2.302446
    },
    {
      "name": "Noumbiel Province",
      "countryCode": "BF",
      "isoCode": "NOU",
      "latitude": 9.8440946,
      "longitude": -2.9775558
    },
    {
      "name": "Oubritenga Province",
      "countryCode": "BF",
      "isoCode": "OUB",
      "latitude": 12.7096087,
      "longitude": -1.443469
    },
    {
      "name": "Oudalan Province",
      "countryCode": "BF",
      "isoCode": "OUD",
      "latitude": 14.471902,
      "longitude": -0.4502368
    },
    {
      "name": "Passoré Province",
      "countryCode": "BF",
      "isoCode": "PAS",
      "latitude": 12.8881221,
      "longitude": -2.2236667
    },
    {
      "name": "Plateau-Central Region",
      "countryCode": "BF",
      "isoCode": 11,
      "latitude": 12.2537648,
      "longitude": -0.7532809
    },
    {
      "name": "Poni Province",
      "countryCode": "BF",
      "isoCode": "PON",
      "latitude": 10.3325996,
      "longitude": -3.3388917
    },
    {
      "name": "Sahel Region",
      "countryCode": "BF",
      "isoCode": 12,
      "latitude": 14.1000865,
      "longitude": -0.1494988
    },
    {
      "name": "Sanguié Province",
      "countryCode": "BF",
      "isoCode": "SNG",
      "latitude": 12.1501861,
      "longitude": -2.6983868
    },
    {
      "name": "Sanmatenga Province",
      "countryCode": "BF",
      "isoCode": "SMT",
      "latitude": 13.3565304,
      "longitude": -1.0586135
    },
    {
      "name": "Séno Province",
      "countryCode": "BF",
      "isoCode": "SEN",
      "latitude": 14.0072234,
      "longitude": -0.0746767
    },
    {
      "name": "Sissili Province",
      "countryCode": "BF",
      "isoCode": "SIS",
      "latitude": 11.2441219,
      "longitude": -2.2236667
    },
    {
      "name": "Soum Province",
      "countryCode": "BF",
      "isoCode": "SOM",
      "latitude": 14.0962841,
      "longitude": -1.366216
    },
    {
      "name": "Sourou Province",
      "countryCode": "BF",
      "isoCode": "SOR",
      "latitude": 13.341803,
      "longitude": -2.9375739
    },
    {
      "name": "Sud-Ouest Region",
      "countryCode": "BF",
      "isoCode": 13,
      "latitude": 10.4231493,
      "longitude": -3.2583626
    },
    {
      "name": "Tapoa Province",
      "countryCode": "BF",
      "isoCode": "TAP",
      "latitude": 12.2497072,
      "longitude": 1.6760691
    },
    {
      "name": "Tuy Province",
      "countryCode": "BF",
      "isoCode": "TUI",
      "latitude": 38.888684,
      "longitude": -77.004719
    },
    {
      "name": "Yagha Province",
      "countryCode": "BF",
      "isoCode": "YAG",
      "latitude": 13.3576157,
      "longitude": 0.7532809
    },
    {
      "name": "Yatenga Province",
      "countryCode": "BF",
      "isoCode": "YAT",
      "latitude": 13.6249344,
      "longitude": -2.3813621
    },
    {
      "name": "Ziro Province",
      "countryCode": "BF",
      "isoCode": "ZIR",
      "latitude": 11.6094995,
      "longitude": -1.9099238
    },
    {
      "name": "Zondoma Province",
      "countryCode": "BF",
      "isoCode": "ZON",
      "latitude": 13.1165926,
      "longitude": -2.4208713
    },
    {
      "name": "Zoundwéogo Province",
      "countryCode": "BF",
      "isoCode": "ZOU",
      "latitude": 11.6141174,
      "longitude": -0.9820668
    },
    {
      "name": "Bubanza Province",
      "countryCode": "BI",
      "isoCode": "BB",
      "latitude": -3.1572403,
      "longitude": 29.3714909
    },
    {
      "name": "Bujumbura Mairie Province",
      "countryCode": "BI",
      "isoCode": "BM",
      "latitude": -3.3884141,
      "longitude": 29.3482646
    },
    {
      "name": "Bujumbura Rural Province",
      "countryCode": "BI",
      "isoCode": "BL",
      "latitude": -3.5090144,
      "longitude": 29.464359
    },
    {
      "name": "Bururi Province",
      "countryCode": "BI",
      "isoCode": "BR",
      "latitude": -3.9006851,
      "longitude": 29.5107708
    },
    {
      "name": "Cankuzo Province",
      "countryCode": "BI",
      "isoCode": "CA",
      "latitude": -3.1527788,
      "longitude": 30.6199895
    },
    {
      "name": "Cibitoke Province",
      "countryCode": "BI",
      "isoCode": "CI",
      "latitude": -2.8102897,
      "longitude": 29.1855785
    },
    {
      "name": "Gitega Province",
      "countryCode": "BI",
      "isoCode": "GI",
      "latitude": -3.4929051,
      "longitude": 29.9277947
    },
    {
      "name": "Karuzi Province",
      "countryCode": "BI",
      "isoCode": "KR",
      "latitude": -3.1340347,
      "longitude": 30.112735
    },
    {
      "name": "Kayanza Province",
      "countryCode": "BI",
      "isoCode": "KY",
      "latitude": -3.0077981,
      "longitude": 29.6499162
    },
    {
      "name": "Kirundo Province",
      "countryCode": "BI",
      "isoCode": "KI",
      "latitude": -2.5762882,
      "longitude": 30.112735
    },
    {
      "name": "Makamba Province",
      "countryCode": "BI",
      "isoCode": "MA",
      "latitude": -4.3257062,
      "longitude": 29.6962677
    },
    {
      "name": "Muramvya Province",
      "countryCode": "BI",
      "isoCode": "MU",
      "latitude": -3.2898398,
      "longitude": 29.6499162
    },
    {
      "name": "Muyinga Province",
      "countryCode": "BI",
      "isoCode": "MY",
      "latitude": -2.7793511,
      "longitude": 30.2974199
    },
    {
      "name": "Mwaro Province",
      "countryCode": "BI",
      "isoCode": "MW",
      "latitude": -3.5025918,
      "longitude": 29.6499162
    },
    {
      "name": "Ngozi Province",
      "countryCode": "BI",
      "isoCode": "NG",
      "latitude": -2.8958243,
      "longitude": 29.8815203
    },
    {
      "name": "Rumonge Province",
      "countryCode": "BI",
      "isoCode": "RM",
      "latitude": -3.9754049,
      "longitude": 29.4388014
    },
    {
      "name": "Rutana Province",
      "countryCode": "BI",
      "isoCode": "RT",
      "latitude": -3.8791523,
      "longitude": 30.0665236
    },
    {
      "name": "Ruyigi Province",
      "countryCode": "BI",
      "isoCode": "RY",
      "latitude": -3.446207,
      "longitude": 30.2512728
    },
    {
      "name": "Banteay Meanchey",
      "countryCode": "KH",
      "isoCode": 1,
      "latitude": 13.7531914,
      "longitude": 102.989615
    },
    {
      "name": "Battambang",
      "countryCode": "KH",
      "isoCode": 2,
      "latitude": 13.0286971,
      "longitude": 102.989615
    },
    {
      "name": "Kampong Cham",
      "countryCode": "KH",
      "isoCode": 3,
      "latitude": 12.0982918,
      "longitude": 105.3131185
    },
    {
      "name": "Kampong Chhnang",
      "countryCode": "KH",
      "isoCode": 4,
      "latitude": 12.1392352,
      "longitude": 104.5655273
    },
    {
      "name": "Kampong Speu",
      "countryCode": "KH",
      "isoCode": 5,
      "latitude": 11.6155109,
      "longitude": 104.3791912
    },
    {
      "name": "Kampong Thom",
      "countryCode": "KH",
      "isoCode": 6,
      "latitude": 12.8167485,
      "longitude": 103.8413104
    },
    {
      "name": "Kampot",
      "countryCode": "KH",
      "isoCode": 7,
      "latitude": 10.7325351,
      "longitude": 104.3791912
    },
    {
      "name": "Kandal",
      "countryCode": "KH",
      "isoCode": 8,
      "latitude": 11.2237383,
      "longitude": 105.1258955
    },
    {
      "name": "Kep",
      "countryCode": "KH",
      "isoCode": 23,
      "latitude": 10.536089,
      "longitude": 104.3559158
    },
    {
      "name": "Koh Kong",
      "countryCode": "KH",
      "isoCode": 9,
      "latitude": 11.5762804,
      "longitude": 103.3587288
    },
    {
      "name": "Kratie",
      "countryCode": "KH",
      "isoCode": 10,
      "latitude": 12.5043608,
      "longitude": 105.9699878
    },
    {
      "name": "Mondulkiri",
      "countryCode": "KH",
      "isoCode": 11,
      "latitude": 12.7879427,
      "longitude": 107.1011931
    },
    {
      "name": "Oddar Meanchey",
      "countryCode": "KH",
      "isoCode": 22,
      "latitude": 14.1609738,
      "longitude": 103.8216261
    },
    {
      "name": "Pailin",
      "countryCode": "KH",
      "isoCode": 24,
      "latitude": 12.9092962,
      "longitude": 102.6675575
    },
    {
      "name": "Phnom Penh",
      "countryCode": "KH",
      "isoCode": 12,
      "latitude": 11.5563738,
      "longitude": 104.9282099
    },
    {
      "name": "Preah Vihear",
      "countryCode": "KH",
      "isoCode": 13,
      "latitude": 14.0085797,
      "longitude": 104.8454619
    },
    {
      "name": "Prey Veng",
      "countryCode": "KH",
      "isoCode": 14,
      "latitude": 11.3802442,
      "longitude": 105.5005483
    },
    {
      "name": "Pursat",
      "countryCode": "KH",
      "isoCode": 15,
      "latitude": 12.2720956,
      "longitude": 103.7289167
    },
    {
      "name": "Ratanakiri",
      "countryCode": "KH",
      "isoCode": 16,
      "latitude": 13.8576607,
      "longitude": 107.1011931
    },
    {
      "name": "Siem Reap",
      "countryCode": "KH",
      "isoCode": 17,
      "latitude": 13.330266,
      "longitude": 104.1001326
    },
    {
      "name": "Sihanoukville",
      "countryCode": "KH",
      "isoCode": 18,
      "latitude": 10.7581899,
      "longitude": 103.8216261
    },
    {
      "name": "Stung Treng",
      "countryCode": "KH",
      "isoCode": 19,
      "latitude": 13.576473,
      "longitude": 105.9699878
    },
    {
      "name": "Svay Rieng",
      "countryCode": "KH",
      "isoCode": 20,
      "latitude": 11.142722,
      "longitude": 105.8290298
    },
    {
      "name": "Takeo",
      "countryCode": "KH",
      "isoCode": 21,
      "latitude": 10.9321519,
      "longitude": 104.798771
    },
    {
      "name": "Adamawa",
      "countryCode": "CM",
      "isoCode": "AD",
      "latitude": 9.3264751,
      "longitude": 12.3983853
    },
    {
      "name": "Centre",
      "countryCode": "CM",
      "isoCode": "CE",
      "latitude": "",
      "longitude": ""
    },
    {
      "name": "East",
      "countryCode": "CM",
      "isoCode": "ES",
      "latitude": 39.0185336,
      "longitude": -94.2792411
    },
    {
      "name": "Far North",
      "countryCode": "CM",
      "isoCode": "EN",
      "latitude": 66.7613451,
      "longitude": 124.123753
    },
    {
      "name": "Littoral",
      "countryCode": "CM",
      "isoCode": "LT",
      "latitude": 48.4622757,
      "longitude": -68.5178071
    },
    {
      "name": "North",
      "countryCode": "CM",
      "isoCode": "NO",
      "latitude": 37.09024,
      "longitude": -95.712891
    },
    {
      "name": "Northwest",
      "countryCode": "CM",
      "isoCode": "NW",
      "latitude": 36.3711857,
      "longitude": -94.1934606
    },
    {
      "name": "South",
      "countryCode": "CM",
      "isoCode": "SU",
      "latitude": 37.631595,
      "longitude": -97.3458409
    },
    {
      "name": "Southwest",
      "countryCode": "CM",
      "isoCode": "SW",
      "latitude": 36.1908813,
      "longitude": -95.8897448
    },
    {
      "name": "West",
      "countryCode": "CM",
      "isoCode": "OU",
      "latitude": 37.0364989,
      "longitude": -95.6705987
    },