[
   {
      "name": "Acâş",
      "countryCode": "RO",
      "stateCode": "SM",
      "latitude": "47.53333000",
      "longitude": "22.78333000"
   },
   {
      "name": "Agriș",
      "countryCode": "RO",
      "stateCode": "SM",
      "latitude": "47.88075000",
      "longitude": "23.00340000"
   },
   {
      "name": "Andrid",
      "countryCode": "RO",
      "stateCode": "SM",
      "latitude": "47.51667000",
      "longitude": "22.35000000"
   },
   {
      "name": "Apa",
      "countryCode": "RO",
      "stateCode": "SM",
      "latitude": "47.76667000",
      "longitude": "23.20000000"
   },
   {
      "name": "Ardud",
      "countryCode": "RO",
      "stateCode": "SM",
      "latitude": "47.63333000",
      "longitude": "22.88333000"
   },
   {
      "name": "Babța",
      "countryCode": "RO",
      "stateCode": "SM",
      "latitude": "47.45778000",
      "longitude": "22.94283000"
   },
   {
      "name": "Beltiug",
      "countryCode": "RO",
      "stateCode": "SM",
      "latitude": "47.55000000",
      "longitude": "22.85000000"
   },
   {
      "name": "Berveni",
      "countryCode": "RO",
      "stateCode": "SM",
      "latitude": "47.75000000",
      "longitude": "22.46667000"
   },
   {
      "name": "Bixad",
      "countryCode": "RO",
      "stateCode": "SM",
      "latitude": "47.93333000",
      "longitude": "23.40000000"
   },
   {
      "name": "Bogdand",
      "countryCode": "RO",
      "stateCode": "SM",
      "latitude": "47.41667000",
      "longitude": "22.93333000"
   },
   {
      "name": "Boinești",
      "countryCode": "RO",
      "stateCode": "SM",
      "latitude": "47.91567000",
      "longitude": "23.35117000"
   },
   {
      "name": "Botiz",
      "countryCode": "RO",
      "stateCode": "SM",
      "latitude": "47.83333000",
      "longitude": "22.95000000"
   },
   {
      "name": "Bârsău de Sus",
      "countryCode": "RO",
      "stateCode": "SM",
      "latitude": "47.60000000",
      "longitude": "23.21667000"
   },
   {
      "name": "Bătarci",
      "countryCode": "RO",
      "stateCode": "SM",
      "latitude": "48.03333000",
      "longitude": "23.16667000"
   },
   {
      "name": "Carei",
      "countryCode": "RO",
      "stateCode": "SM",
      "latitude": "47.68333000",
      "longitude": "22.46667000"
   },
   {
      "name": "Cehal",
      "countryCode": "RO",
      "stateCode": "SM",
      "latitude": "47.38333000",
      "longitude": "22.60000000"
   },
   {
      "name": "Certeze",
      "countryCode": "RO",
      "stateCode": "SM",
      "latitude": "47.90000000",
      "longitude": "23.46667000"
   },
   {
      "name": "Cidreag",
      "countryCode": "RO",
      "stateCode": "SM",
      "latitude": "47.98677000",
      "longitude": "22.96395000"
   },
   {
      "name": "Ciumești",
      "countryCode": "RO",
      "stateCode": "SM",
      "latitude": "47.66382000",
      "longitude": "22.34069000"
   },
   {
      "name": "Comuna Acâş",
      "countryCode": "RO",
      "stateCode": "SM",
      "latitude": "47.53143000",
      "longitude": "22.74106000"
   },
   {
      "name": "Comuna Agriş",
      "countryCode": "RO",
      "stateCode": "SM",
      "latitude": "47.87377000",
      "longitude": "23.00343000"
   },
   {
      "name": "Comuna Andrid",
      "countryCode": "RO",
      "stateCode": "SM",
      "latitude": "47.51720000",
      "longitude": "22.34688000"
   },
   {
      "name": "Comuna Apa",
      "countryCode": "RO",
      "stateCode": "SM",
      "latitude": "47.74934000",
      "longitude": "23.18966000"
   },
   {
      "name": "Comuna Beltiug",
      "countryCode": "RO",
      "stateCode": "SM",
      "latitude": "47.56523000",
      "longitude": "22.85452000"
   },
   {
      "name": "Comuna Berveni",
      "countryCode": "RO",
      "stateCode": "SM",
      "latitude": "47.74896000",
      "longitude": "22.47553000"
   },
   {
      "name": "Comuna Bixad",
      "countryCode": "RO",
      "stateCode": "SM",
      "latitude": "47.92031000",
      "longitude": "23.37337000"
   },
   {
      "name": "Comuna Bogdand",
      "countryCode": "RO",
      "stateCode": "SM",
      "latitude": "47.41824000",
      "longitude": "22.92868000"
   },
   {
      "name": "Comuna Botiz",
      "countryCode": "RO",
      "stateCode": "SM",
      "latitude": "47.83285000",
      "longitude": "22.94865000"
   },
   {
      "name": "Comuna Bârsău",
      "countryCode": "RO",
      "stateCode": "SM",
      "latitude": "47.59376000",
      "longitude": "23.24257000"
   },
   {
      "name": "Comuna Bătarci",
      "countryCode": "RO",
      "stateCode": "SM",
      "latitude": "48.04054000",
      "longitude": "23.14274000"
   },
   {
      "name": "Comuna Cehal",
      "countryCode": "RO",
      "stateCode": "SM",
      "latitude": "47.38440000",
      "longitude": "22.59613000"
   },
   {
      "name": "Comuna Certeze",
      "countryCode": "RO",
      "stateCode": "SM",
      "latitude": "47.92014000",
      "longitude": "23.47350000"
   },
   {
      "name": "Comuna Ciumeşti",
      "countryCode": "RO",
      "stateCode": "SM",
      "latitude": "47.66308000",
      "longitude": "22.33452000"
   },
   {
      "name": "Comuna Craidorolţ",
      "countryCode": "RO",
      "stateCode": "SM",
      "latitude": "47.59793000",
      "longitude": "22.69883000"
   },
   {
      "name": "Comuna Crucişor",
      "countryCode": "RO",
      "stateCode": "SM",
      "latitude": "47.65949000",
      "longitude": "23.24776000"
   },
   {
      "name": "Comuna Culciu",
      "countryCode": "RO",
      "stateCode": "SM",
      "latitude": "47.75246000",
      "longitude": "23.05593000"
   },
   {
      "name": "Comuna Cãlineşti-Oaş",
      "countryCode": "RO",
      "stateCode": "SM",
      "latitude": "47.90340000",
      "longitude": "23.27351000"
   },
   {
      "name": "Comuna Cãmin",
      "countryCode": "RO",
      "stateCode": "SM",
      "latitude": "47.72836000",
      "longitude": "22.47987000"
   },
   {
      "name": "Comuna Cămărzana",
      "countryCode": "RO",
      "stateCode": "SM",
      "latitude": "47.99435000",
      "longitude": "23.30874000"
   },
   {
      "name": "Comuna Căpleni",
      "countryCode": "RO",
      "stateCode": "SM",
      "latitude": "47.70942000",
      "longitude": "22.50637000"
   },
   {
      "name": "Comuna Căuaş",
      "countryCode": "RO",
      "stateCode": "SM",
      "latitude": "47.57998000",
      "longitude": "22.55546000"
   },
   {
      "name": "Comuna Doba",
      "countryCode": "RO",
      "stateCode": "SM",
      "latitude": "47.74588000",
      "longitude": "22.68383000"
   },
   {
      "name": "Comuna Dorolţ",
      "countryCode": "RO",
      "stateCode": "SM",
      "latitude": "47.84524000",
      "longitude": "22.78642000"
   },
   {
      "name": "Comuna Foieni",
      "countryCode": "RO",
      "stateCode": "SM",
      "latitude": "47.70000000",
      "longitude": "22.38333000"
   },
   {
      "name": "Comuna Gherţa Mică",
      "countryCode": "RO",
      "stateCode": "SM",
      "latitude": "47.93724000",
      "longitude": "23.22169000"
   },
   {
      "name": "Comuna Halmeu",
      "countryCode": "RO",
      "stateCode": "SM",
      "latitude": "47.97833000",
      "longitude": "23.05362000"
   },
   {
      "name": "Comuna Hodod",
      "countryCode": "RO",
      "stateCode": "SM",
      "latitude": "47.39870000",
      "longitude": "23.04633000"
   },
   {
      "name": "Comuna Homoroade",
      "countryCode": "RO",
      "stateCode": "SM",
      "latitude": "47.63896000",
      "longitude": "23.06593000"
   },
   {
      "name": "Comuna Lazuri",
      "countryCode": "RO",
      "stateCode": "SM",
      "latitude": "47.89143000",
      "longitude": "22.87213000"
   },
   {
      "name": "Comuna Medieşu Aurit",
      "countryCode": "RO",
      "stateCode": "SM",
      "latitude": "47.79451000",
      "longitude": "23.15360000"
   },
   {
      "name": "Comuna Micula",
      "countryCode": "RO",
      "stateCode": "SM",
      "latitude": "47.91687000",
      "longitude": "22.93652000"
   },
   {
      "name": "Comuna Moftinu",
      "countryCode": "RO",
      "stateCode": "SM",
      "latitude": "47.68333000",
      "longitude": "22.60000000"
   },
   {
      "name": "Comuna Odoreu",
      "countryCode": "RO",
      "stateCode": "SM",
      "latitude": "47.79427000",
      "longitude": "22.99639000"
   },
   {
      "name": "Comuna Oraşu Nou",
      "countryCode": "RO",
      "stateCode": "SM",
      "latitude": "47.83470000",
      "longitude": "23.30211000"
   },
   {
      "name": "Comuna Petreşti",
      "countryCode": "RO",
      "stateCode": "SM",
      "latitude": "47.58993000",
      "longitude": "22.35972000"
   },
   {
      "name": "Comuna Pir",
      "countryCode": "RO",
      "stateCode": "SM",
      "latitude": "47.46650000",
      "longitude": "22.39380000"
   },
   {
      "name": "Comuna Pişcolt",
      "countryCode": "RO",
      "stateCode": "SM",
      "latitude": "47.59761000",
      "longitude": "22.27498000"
   },
   {
      "name": "Comuna Pomi",
      "countryCode": "RO",
      "stateCode": "SM",
      "latitude": "47.68071000",
      "longitude": "23.32362000"
   },
   {
      "name": "Comuna Porumbeşti",
      "countryCode": "RO",
      "stateCode": "SM",
      "latitude": "47.98491000",
      "longitude": "22.97236000"
   },
   {
      "name": "Comuna Pãuleşti",
      "countryCode": "RO",
      "stateCode": "SM",
      "latitude": "47.74992000",
      "longitude": "22.94743000"
   },
   {
      "name": "Comuna Racşa",
      "countryCode": "RO",
      "stateCode": "SM",
      "latitude": "47.82068000",
      "longitude": "23.33247000"
   },
   {
      "name": "Comuna Sanislău",
      "countryCode": "RO",
      "stateCode": "SM",
      "latitude": "47.63116000",
      "longitude": "22.33109000"
   },
   {
      "name": "Comuna Santău",
      "countryCode": "RO",
      "stateCode": "SM",
      "latitude": "47.51152000",
      "longitude": "22.47327000"
   },
   {
      "name": "Comuna Socond",
      "countryCode": "RO",
      "stateCode": "SM",
      "latitude": "47.54018000",
      "longitude": "22.98135000"
   },
   {
      "name": "Comuna Supur",
      "countryCode": "RO",
      "stateCode": "SM",
      "latitude": "47.45826000",
      "longitude": "22.80767000"
   },
   {
      "name": "Comuna Săcăşeni",
      "countryCode": "RO",
      "stateCode": "SM",
      "latitude": "47.46964000",
      "longitude": "22.68273000"
   },
   {
      "name": "Comuna Săuca",
      "countryCode": "RO",
      "stateCode": "SM",
      "latitude": "47.46041000",
      "longitude": "22.48621000"
   },
   {
      "name": "Comuna Tarna Mare",
      "countryCode": "RO",
      "stateCode": "SM",
      "latitude": "48.08356000",
      "longitude": "23.19491000"
   },
   {
      "name": "Comuna Terebeşti",
      "countryCode": "RO",
      "stateCode": "SM",
      "latitude": "47.67823000",
      "longitude": "22.74226000"
   },
   {
      "name": "Comuna Tiream",
      "countryCode": "RO",
      "stateCode": "SM",
      "latitude": "47.58553000",
      "longitude": "22.43993000"
   },
   {
      "name": "Comuna Turulung",
      "countryCode": "RO",
      "stateCode": "SM",
      "latitude": "47.92351000",
      "longitude": "23.10382000"
   },
   {
      "name": "Comuna Turţ",
      "countryCode": "RO",
      "stateCode": "SM",
      "latitude": "47.98018000",
      "longitude": "23.20968000"
   },
   {
      "name": "Comuna Târşolţ",
      "countryCode": "RO",
      "stateCode": "SM",
      "latitude": "47.95000000",
      "longitude": "23.35000000"
   },
   {
      "name": "Comuna Urziceni",
      "countryCode": "RO",
      "stateCode": "SM",
      "latitude": "47.73286000",
      "longitude": "22.40181000"
   },
   {
      "name": "Comuna Valea Vinului",
      "countryCode": "RO",
      "stateCode": "SM",
      "latitude": "47.69553000",
      "longitude": "23.18488000"
   },
   {
      "name": "Comuna Vama",
      "countryCode": "RO",
      "stateCode": "SM",
      "latitude": "47.84354000",
      "longitude": "23.39660000"
   },
   {
      "name": "Comuna Vetiş",
      "countryCode": "RO",
      "stateCode": "SM",
      "latitude": "47.79292000",
      "longitude": "22.75623000"
   },
   {
      "name": "Comuna Viile Satu Mare",
      "countryCode": "RO",
      "stateCode": "SM",
      "latitude": "47.66667000",
      "longitude": "22.95000000"
   },
   {
      "name": "Craidorolţ",
      "countryCode": "RO",
      "stateCode": "SM",
      "latitude": "47.61667000",
      "longitude": "22.70000000"
   },
   {
      "name": "Crucişor",
      "countryCode": "RO",
      "stateCode": "SM",
      "latitude": "47.68333000",
      "longitude": "23.25000000"
   },
   {
      "name": "Culciu Mic",
      "countryCode": "RO",
      "stateCode": "SM",
      "latitude": "47.76667000",
      "longitude": "23.03333000"
   },
   {
      "name": "Călineşti-Oaş",
      "countryCode": "RO",
      "stateCode": "SM",
      "latitude": "47.90000000",
      "longitude": "23.30000000"
   },
   {
      "name": "Cămin",
      "countryCode": "RO",
      "stateCode": "SM",
      "latitude": "47.72836000",
      "longitude": "22.47987000"
   },
   {
      "name": "Cămărzana",
      "countryCode": "RO",
      "stateCode": "SM",
      "latitude": "48.00000000",
      "longitude": "23.31667000"
   },
   {
      "name": "Căpleni",
      "countryCode": "RO",
      "stateCode": "SM",
      "latitude": "47.71667000",
      "longitude": "22.50000000"
   },
   {
      "name": "Cărășeu",
      "countryCode": "RO",
      "stateCode": "SM",
      "latitude": "47.74126000",
      "longitude": "23.09798000"
   },
   {
      "name": "Căuaş",
      "countryCode": "RO",
      "stateCode": "SM",
      "latitude": "47.56667000",
      "longitude": "22.55000000"
   },
   {
      "name": "Dara",
      "countryCode": "RO",
      "stateCode": "SM",
      "latitude": "47.81636000",
      "longitude": "22.75216000"
   },
   {
      "name": "Decebal",
      "countryCode": "RO",
      "stateCode": "SM",
      "latitude": "47.76630000",
      "longitude": "22.75603000"
   },
   {
      "name": "Doba",
      "countryCode": "RO",
      "stateCode": "SM",
      "latitude": "47.73333000",
      "longitude": "22.71667000"
   },
   {
      "name": "Dobra",
      "countryCode": "RO",
      "stateCode": "SM",
      "latitude": "47.49477000",
      "longitude": "22.82762000"
   },
   {
      "name": "Domănești",
      "countryCode": "RO",
      "stateCode": "SM",
      "latitude": "47.71071000",
      "longitude": "22.58975000"
   },
   {
      "name": "Dorolţ",
      "countryCode": "RO",
      "stateCode": "SM",
      "latitude": "47.85000000",
      "longitude": "22.81667000"
   },
   {
      "name": "Drăgușeni",
      "countryCode": "RO",
      "stateCode": "SM",
      "latitude": "47.90541000",
      "longitude": "23.07780000"
   },
   {
      "name": "Dumbrava",
      "countryCode": "RO",
      "stateCode": "SM",
      "latitude": "47.84418000",
      "longitude": "23.08060000"
   },
   {
      "name": "Foieni",
      "countryCode": "RO",
      "stateCode": "SM",
      "latitude": "47.70000000",
      "longitude": "22.38333000"
   },
   {
      "name": "Gherţa Mică",
      "countryCode": "RO",
      "stateCode": "SM",
      "latitude": "47.93333000",
      "longitude": "23.23333000"
   },
   {
      "name": "Gherța Mare",
      "countryCode": "RO",
      "stateCode": "SM",
      "latitude": "47.96884000",
      "longitude": "23.20853000"
   },
   {
      "name": "Halmeu",
      "countryCode": "RO",
      "stateCode": "SM",
      "latitude": "47.96667000",
      "longitude": "23.01667000"
   },
   {
      "name": "Hodod",
      "countryCode": "RO",
      "stateCode": "SM",
      "latitude": "47.40000000",
      "longitude": "23.03333000"
   },
   {
      "name": "Homorodu de Jos",
      "countryCode": "RO",
      "stateCode": "SM",
      "latitude": "47.66667000",
      "longitude": "23.08333000"
   },
   {
      "name": "Huta Certeze",
      "countryCode": "RO",
      "stateCode": "SM",
      "latitude": "47.92583000",
      "longitude": "23.48715000"
   },
   {
      "name": "Iojib",
      "countryCode": "RO",
      "stateCode": "SM",
      "latitude": "47.81617000",
      "longitude": "23.15603000"
   },
   {
      "name": "Lazuri",
      "countryCode": "RO",
      "stateCode": "SM",
      "latitude": "47.85000000",
      "longitude": "22.86667000"
   },
   {
      "name": "Livada",
      "countryCode": "RO",
      "stateCode": "SM",
      "latitude": "47.86667000",
      "longitude": "23.13333000"
   },
   {
      "name": "Lucăceni",
      "countryCode": "RO",
      "stateCode": "SM",
      "latitude": "47.74194000",
      "longitude": "22.47819000"
   },
   {
      "name": "Medieşu Aurit",
      "countryCode": "RO",
      "stateCode": "SM",
      "latitude": "47.78333000",
      "longitude": "23.15000000"
   },
   {
      "name": "Micula",
      "countryCode": "RO",
      "stateCode": "SM",
      "latitude": "47.90000000",
      "longitude": "22.95000000"
   },
   {
      "name": "Moftinu Mare",
      "countryCode": "RO",
      "stateCode": "SM",
      "latitude": "47.66667000",
      "longitude": "22.66667000"
   },
   {
      "name": "Moftinu Mic",
      "countryCode": "RO",
      "stateCode": "SM",
      "latitude": "47.68669000",
      "longitude": "22.60054000"
   },
   {
      "name": "Moișeni",
      "countryCode": "RO",
      "stateCode": "SM",
      "latitude": "47.92798000",
      "longitude": "23.46833000"
   },
   {
      "name": "Municipiul Carei",
      "countryCode": "RO",
      "stateCode": "SM",
      "latitude": "47.68203000",
      "longitude": "22.46635000"
   },
   {
      "name": "Municipiul Satu Mare",
      "countryCode": "RO",
      "stateCode": "SM",
      "latitude": "47.76514000",
      "longitude": "22.83565000"
   },
   {
      "name": "Mădăras",
      "countryCode": "RO",
      "stateCode": "SM",
      "latitude": "47.68403000",
      "longitude": "22.86554000"
   },
   {
      "name": "Negreşti-Oaş",
      "countryCode": "RO",
      "stateCode": "SM",
      "latitude": "47.86667000",
      "longitude": "23.43333000"
   },
   {
      "name": "Oar",
      "countryCode": "RO",
      "stateCode": "SM",
      "latitude": "47.80569000",
      "longitude": "22.73085000"
   },
   {
      "name": "Odoreu",
      "countryCode": "RO",
      "stateCode": "SM",
      "latitude": "47.80000000",
      "longitude": "23.00000000"
   },
   {
      "name": "Oraş Negreşti-Oaş",
      "countryCode": "RO",
      "stateCode": "SM",
      "latitude": "47.86801000",
      "longitude": "23.41816000"
   },
   {
      "name": "Oraşu Nou",
      "countryCode": "RO",
      "stateCode": "SM",
      "latitude": "47.83333000",
      "longitude": "23.28333000"
   },
   {
      "name": "Oraș Ardud",
      "countryCode": "RO",
      "stateCode": "SM",
      "latitude": "47.63333000",
      "longitude": "22.88333000"
   },
   {
      "name": "Oraș Livada",
      "countryCode": "RO",
      "stateCode": "SM",
      "latitude": "47.86667000",
      "longitude": "23.13333000"
   },
   {
      "name": "Oraș Tăşnad",
      "countryCode": "RO",
      "stateCode": "SM",
      "latitude": "47.48333000",
      "longitude": "22.58333000"
   },
   {
      "name": "Petreşti",
      "countryCode": "RO",
      "stateCode": "SM",
      "latitude": "47.60000000",
      "longitude": "22.36667000"
   },
   {
      "name": "Pir",
      "countryCode": "RO",
      "stateCode": "SM",
      "latitude": "47.46667000",
      "longitude": "22.36667000"
   },
   {
      "name": "Pişcolt",
      "countryCode": "RO",
      "stateCode": "SM",
      "latitude": "47.58333000",
      "longitude": "22.30000000"
   },
   {
      "name": "Poiana Codrului",
      "countryCode": "RO",
      "stateCode": "SM",
      "latitude": "47.62667000",
      "longitude": "23.25056000"
   },
   {
      "name": "Pomi",
      "countryCode": "RO",
      "stateCode": "SM",
      "latitude": "47.70000000",
      "longitude": "23.31667000"
   },
   {
      "name": "Porumbești",
      "countryCode": "RO",
      "stateCode": "SM",
      "latitude": "47.98305000",
      "longitude": "22.98076000"
   },
   {
      "name": "Potău",
      "countryCode": "RO",
      "stateCode": "SM",
      "latitude": "47.75673000",
      "longitude": "23.12090000"
   },
   {
      "name": "Păuleşti",
      "countryCode": "RO",
      "stateCode": "SM",
      "latitude": "47.78333000",
      "longitude": "22.91667000"
   },
   {
      "name": "Racşa",
      "countryCode": "RO",
      "stateCode": "SM",
      "latitude": "47.82068000",
      "longitude": "23.33247000"
   },
   {
      "name": "Sanislău",
      "countryCode": "RO",
      "stateCode": "SM",
      "latitude": "47.63333000",
      "longitude": "22.33333000"
   },
   {
      "name": "Santău",
      "countryCode": "RO",
      "stateCode": "SM",
      "latitude": "47.51667000",
      "longitude": "22.51667000"
   },
   {
      "name": "Satu Mare",
      "countryCode": "RO",
      "stateCode": "SM",
      "latitude": "47.79926000",
      "longitude": "22.86255000"
   },
   {
      "name": "Socond",
      "countryCode": "RO",
      "stateCode": "SM",
      "latitude": "47.56667000",
      "longitude": "22.95000000"
   },
   {
      "name": "Stâna",
      "countryCode": "RO",
      "stateCode": "SM",
      "latitude": "47.50757000",
      "longitude": "22.96423000"
   },
   {
      "name": "Supuru de Jos",
      "countryCode": "RO",
      "stateCode": "SM",
      "latitude": "47.46667000",
      "longitude": "22.80000000"
   },
   {
      "name": "Săcăşeni",
      "countryCode": "RO",
      "stateCode": "SM",
      "latitude": "47.48333000",
      "longitude": "22.68333000"
   },
   {
      "name": "Sărăuad",
      "countryCode": "RO",
      "stateCode": "SM",
      "latitude": "47.47944000",
      "longitude": "22.62559000"
   },
   {
      "name": "Sătmărel",
      "countryCode": "RO",
      "stateCode": "SM",
      "latitude": "47.73470000",
      "longitude": "22.79536000"
   },
   {
      "name": "Săuca",
      "countryCode": "RO",
      "stateCode": "SM",
      "latitude": "47.46667000",
      "longitude": "22.48333000"
   },
   {
      "name": "Tarna Mare",
      "countryCode": "RO",
      "stateCode": "SM",
      "latitude": "48.09175000",
      "longitude": "23.19369000"
   },
   {
      "name": "Terebeşti",
      "countryCode": "RO",
      "stateCode": "SM",
      "latitude": "47.68333000",
      "longitude": "22.71667000"
   },
   {
      "name": "Tiream",
      "countryCode": "RO",
      "stateCode": "SM",
      "latitude": "47.61667000",
      "longitude": "22.46667000"
   },
   {
      "name": "Trip",
      "countryCode": "RO",
      "stateCode": "SM",
      "latitude": "47.92450000",
      "longitude": "23.37648000"
   },
   {
      "name": "Tur",
      "countryCode": "RO",
      "stateCode": "SM",
      "latitude": "47.88231000",
      "longitude": "23.39045000"
   },
   {
      "name": "Turulung",
      "countryCode": "RO",
      "stateCode": "SM",
      "latitude": "47.93333000",
      "longitude": "23.08333000"
   },
   {
      "name": "Turţ",
      "countryCode": "RO",
      "stateCode": "SM",
      "latitude": "47.98333000",
      "longitude": "23.21667000"
   },
   {
      "name": "Târşolţ",
      "countryCode": "RO",
      "stateCode": "SM",
      "latitude": "47.95000000",
      "longitude": "23.35000000"
   },
   {
      "name": "Târşolţel",
      "countryCode": "RO",
      "stateCode": "SM",
      "latitude": "47.95000000",
      "longitude": "23.35000000"
   },
   {
      "name": "Tăşnad",
      "countryCode": "RO",
      "stateCode": "SM",
      "latitude": "47.48333000",
      "longitude": "22.58333000"
   },
   {
      "name": "Urziceni",
      "countryCode": "RO",
      "stateCode": "SM",
      "latitude": "47.73333000",
      "longitude": "22.40000000"
   },
   {
      "name": "Valea Seacă",
      "countryCode": "RO",
      "stateCode": "SM",
      "latitude": "48.08080000",
      "longitude": "23.16489000"
   },
   {
      "name": "Valea Vinului",
      "countryCode": "RO",
      "stateCode": "SM",
      "latitude": "47.71667000",
      "longitude": "23.18333000"
   },
   {
      "name": "Vama",
      "countryCode": "RO",
      "stateCode": "SM",
      "latitude": "47.83333000",
      "longitude": "23.40000000"
   },
   {
      "name": "Vetiş",
      "countryCode": "RO",
      "stateCode": "SM",
      "latitude": "47.80000000",
      "longitude": "22.76667000"
   },
   {
      "name": "Viile Satu Mare",
      "countryCode": "RO",
      "stateCode": "SM",
      "latitude": "47.66667000",
      "longitude": "22.95000000"
   }
]