[
   {
      "name": "Alborz",
      "countryCode": "IR",
      "stateCode": "26",
      "latitude": "36.18861000",
      "longitude": "50.07829000"
   },
   {
      "name": "Alvand",
      "countryCode": "IR",
      "stateCode": "26",
      "latitude": "36.18930000",
      "longitude": "50.06430000"
   },
   {
      "name": "Avaj",
      "countryCode": "IR",
      "stateCode": "26",
      "latitude": "35.57685000",
      "longitude": "49.22241000"
   },
   {
      "name": "Qazvin",
      "countryCode": "IR",
      "stateCode": "26",
      "latitude": "36.26877000",
      "longitude": "50.00410000"
   },
   {
      "name": "Shahrestān-e Bū’īn Zahrā",
      "countryCode": "IR",
      "stateCode": "26",
      "latitude": "35.61667000",
      "longitude": "49.70000000"
   },
   {
      "name": "Shahrestān-e Qazvīn",
      "countryCode": "IR",
      "stateCode": "26",
      "latitude": "36.43333000",
      "longitude": "49.81667000"
   },
   {
      "name": "Shahrestān-e Tākestān",
      "countryCode": "IR",
      "stateCode": "26",
      "latitude": "36.00000000",
      "longitude": "49.55000000"
   },
   {
      "name": "Tākestān",
      "countryCode": "IR",
      "stateCode": "26",
      "latitude": "36.07057000",
      "longitude": "49.69571000"
   }
]