[
   {
      "name": "Akçakoca",
      "countryCode": "TR",
      "stateCode": "81",
      "latitude": "41.08663000",
      "longitude": "31.11623000"
   },
   {
      "name": "Cumayeri İlçesi",
      "countryCode": "TR",
      "stateCode": "81",
      "latitude": "40.88176000",
      "longitude": "30.94094000"
   },
   {
      "name": "Düzce",
      "countryCode": "TR",
      "stateCode": "81",
      "latitude": "40.83889000",
      "longitude": "31.16389000"
   },
   {
      "name": "Gölyaka İlçesi",
      "countryCode": "TR",
      "stateCode": "81",
      "latitude": "40.78644000",
      "longitude": "31.00276000"
   },
   {
      "name": "Gümüşova İlçesi",
      "countryCode": "TR",
      "stateCode": "81",
      "latitude": "40.85640000",
      "longitude": "30.94935000"
   },
   {
      "name": "Kaynaşlı İlçesi",
      "countryCode": "TR",
      "stateCode": "81",
      "latitude": "40.77908000",
      "longitude": "31.31135000"
   },
   {
      "name": "Yığılca İlçesi",
      "countryCode": "TR",
      "stateCode": "81",
      "latitude": "40.96497000",
      "longitude": "31.45672000"
   },
   {
      "name": "Çilimli İlçesi",
      "countryCode": "TR",
      "stateCode": "81",
      "latitude": "40.90267000",
      "longitude": "31.05913000"
   }
]