[
   {
      "name": "Al Ghayl",
      "countryCode": "YE",
      "stateCode": "JA",
      "latitude": "16.09140000",
      "longitude": "44.68520000"
   },
   {
      "name": "Al Hazm",
      "countryCode": "YE",
      "stateCode": "JA",
      "latitude": "16.03780000",
      "longitude": "44.95850000"
   },
   {
      "name": "Al Humaydat",
      "countryCode": "YE",
      "stateCode": "JA",
      "latitude": "16.46670000",
      "longitude": "44.42990000"
   },
   {
      "name": "Al Khalq",
      "countryCode": "YE",
      "stateCode": "JA",
      "latitude": "16.06810000",
      "longitude": "44.79700000"
   },
   {
      "name": "Al Maslub",
      "countryCode": "YE",
      "stateCode": "JA",
      "latitude": "16.09610000",
      "longitude": "44.56670000"
   },
   {
      "name": "Al Matammah",
      "countryCode": "YE",
      "stateCode": "JA",
      "latitude": "16.19840000",
      "longitude": "44.39020000"
   },
   {
      "name": "Al Maton",
      "countryCode": "YE",
      "stateCode": "JA",
      "latitude": "16.28720000",
      "longitude": "44.63890000"
   },
   {
      "name": "Al ‘Inān",
      "countryCode": "YE",
      "stateCode": "JA",
      "latitude": "16.72189000",
      "longitude": "44.31252000"
   },
   {
      "name": "Az Zahir",
      "countryCode": "YE",
      "stateCode": "JA",
      "latitude": "16.33080000",
      "longitude": "44.52440000"
   },
   {
      "name": "Barţ al ‘Anān",
      "countryCode": "YE",
      "stateCode": "JA",
      "latitude": "16.91972000",
      "longitude": "44.51882000"
   },
   {
      "name": "Khabb wa ash Sha'af",
      "countryCode": "YE",
      "stateCode": "JA",
      "latitude": "16.59750000",
      "longitude": "45.78530000"
   },
   {
      "name": "Kharab Al Marashi",
      "countryCode": "YE",
      "stateCode": "JA",
      "latitude": "16.61070000",
      "longitude": "44.22550000"
   },
   {
      "name": "Rajuzah",
      "countryCode": "YE",
      "stateCode": "JA",
      "latitude": "16.63420000",
      "longitude": "44.50420000"
   }
]