[
   {
      "name": "Baro Kunda",
      "countryCode": "GM",
      "stateCode": "L",
      "latitude": "13.48333000",
      "longitude": "-15.26667000"
   },
   {
      "name": "Bureng",
      "countryCode": "GM",
      "stateCode": "L",
      "latitude": "13.41667000",
      "longitude": "-15.28333000"
   },
   {
      "name": "Jali",
      "countryCode": "GM",
      "stateCode": "L",
      "latitude": "13.35000000",
      "longitude": "-15.96667000"
   },
   {
      "name": "Jarra Central",
      "countryCode": "GM",
      "stateCode": "L",
      "latitude": "13.41667000",
      "longitude": "-15.41667000"
   },
   {
      "name": "Jarra East",
      "countryCode": "GM",
      "stateCode": "L",
      "latitude": "13.41667000",
      "longitude": "-15.25000000"
   },
   {
      "name": "Jarra West",
      "countryCode": "GM",
      "stateCode": "L",
      "latitude": "13.41667000",
      "longitude": "-15.53333000"
   },
   {
      "name": "Jenoi",
      "countryCode": "GM",
      "stateCode": "L",
      "latitude": "13.48333000",
      "longitude": "-15.56667000"
   },
   {
      "name": "Jifarong",
      "countryCode": "GM",
      "stateCode": "L",
      "latitude": "13.30000000",
      "longitude": "-15.86667000"
   },
   {
      "name": "Kaiaf",
      "countryCode": "GM",
      "stateCode": "L",
      "latitude": "13.40000000",
      "longitude": "-15.61667000"
   },
   {
      "name": "Karantaba",
      "countryCode": "GM",
      "stateCode": "L",
      "latitude": "13.43333000",
      "longitude": "-15.51667000"
   },
   {
      "name": "Keneba",
      "countryCode": "GM",
      "stateCode": "L",
      "latitude": "13.32889000",
      "longitude": "-16.01500000"
   },
   {
      "name": "Kiang Central",
      "countryCode": "GM",
      "stateCode": "L",
      "latitude": "13.40000000",
      "longitude": "-15.75000000"
   },
   {
      "name": "Kiang East",
      "countryCode": "GM",
      "stateCode": "L",
      "latitude": "13.41667000",
      "longitude": "-15.63333000"
   },
   {
      "name": "Kiang West District",
      "countryCode": "GM",
      "stateCode": "L",
      "latitude": "13.33333000",
      "longitude": "-16.00000000"
   },
   {
      "name": "Mansa Konko",
      "countryCode": "GM",
      "stateCode": "L",
      "latitude": "13.44325000",
      "longitude": "-15.53570000"
   },
   {
      "name": "Nioro",
      "countryCode": "GM",
      "stateCode": "L",
      "latitude": "13.35000000",
      "longitude": "-15.75000000"
   },
   {
      "name": "Sankwia",
      "countryCode": "GM",
      "stateCode": "L",
      "latitude": "13.46667000",
      "longitude": "-15.51667000"
   },
   {
      "name": "Si Kunda",
      "countryCode": "GM",
      "stateCode": "L",
      "latitude": "13.43333000",
      "longitude": "-15.56667000"
   },
   {
      "name": "Soma",
      "countryCode": "GM",
      "stateCode": "L",
      "latitude": "13.43333000",
      "longitude": "-15.53333000"
   },
   {
      "name": "Sutukung",
      "countryCode": "GM",
      "stateCode": "L",
      "latitude": "13.46667000",
      "longitude": "-15.26667000"
   },
   {
      "name": "Toniataba",
      "countryCode": "GM",
      "stateCode": "L",
      "latitude": "13.43333000",
      "longitude": "-15.58333000"
   },
   {
      "name": "Wellingara Ba",
      "countryCode": "GM",
      "stateCode": "L",
      "latitude": "13.41667000",
      "longitude": "-15.40000000"
   }
]