[
   {
      "name": "Abrud",
      "countryCode": "RO",
      "stateCode": "AB",
      "latitude": "46.27406000",
      "longitude": "23.06339000"
   },
   {
      "name": "Abrud-Sat",
      "countryCode": "RO",
      "stateCode": "AB",
      "latitude": "46.28166000",
      "longitude": "23.06098000"
   },
   {
      "name": "Aiud",
      "countryCode": "RO",
      "stateCode": "AB",
      "latitude": "46.31006000",
      "longitude": "23.72128000"
   },
   {
      "name": "Aiudul de Sus",
      "countryCode": "RO",
      "stateCode": "AB",
      "latitude": "46.31653000",
      "longitude": "23.69053000"
   },
   {
      "name": "Alba Iulia",
      "countryCode": "RO",
      "stateCode": "AB",
      "latitude": "46.06667000",
      "longitude": "23.58333000"
   },
   {
      "name": "Albac",
      "countryCode": "RO",
      "stateCode": "AB",
      "latitude": "46.45246000",
      "longitude": "22.95164000"
   },
   {
      "name": "Almaşu Mare",
      "countryCode": "RO",
      "stateCode": "AB",
      "latitude": "46.11014000",
      "longitude": "23.11721000"
   },
   {
      "name": "Arieşeni",
      "countryCode": "RO",
      "stateCode": "AB",
      "latitude": "46.47641000",
      "longitude": "22.75741000"
   },
   {
      "name": "Avram Iancu",
      "countryCode": "RO",
      "stateCode": "AB",
      "latitude": "46.38333000",
      "longitude": "22.78333000"
   },
   {
      "name": "Baia de Arieş",
      "countryCode": "RO",
      "stateCode": "AB",
      "latitude": "46.38045000",
      "longitude": "23.28115000"
   },
   {
      "name": "Berghin",
      "countryCode": "RO",
      "stateCode": "AB",
      "latitude": "46.07782000",
      "longitude": "23.73742000"
   },
   {
      "name": "Biia",
      "countryCode": "RO",
      "stateCode": "AB",
      "latitude": "46.23097000",
      "longitude": "24.00461000"
   },
   {
      "name": "Bistra",
      "countryCode": "RO",
      "stateCode": "AB",
      "latitude": "46.37820000",
      "longitude": "23.10081000"
   },
   {
      "name": "Blaj",
      "countryCode": "RO",
      "stateCode": "AB",
      "latitude": "46.17508000",
      "longitude": "23.91578000"
   },
   {
      "name": "Blideşti",
      "countryCode": "RO",
      "stateCode": "AB",
      "latitude": "46.30000000",
      "longitude": "23.13333000"
   },
   {
      "name": "Blândiana",
      "countryCode": "RO",
      "stateCode": "AB",
      "latitude": "45.97943000",
      "longitude": "23.38543000"
   },
   {
      "name": "Bucerdea-Grânoasă",
      "countryCode": "RO",
      "stateCode": "AB",
      "latitude": "46.20000000",
      "longitude": "23.83333000"
   },
   {
      "name": "Bucium",
      "countryCode": "RO",
      "stateCode": "AB",
      "latitude": "46.26402000",
      "longitude": "23.17910000"
   },
   {
      "name": "Bălcaciu",
      "countryCode": "RO",
      "stateCode": "AB",
      "latitude": "46.19122000",
      "longitude": "24.06139000"
   },
   {
      "name": "Bărăbanț",
      "countryCode": "RO",
      "stateCode": "AB",
      "latitude": "46.09930000",
      "longitude": "23.58487000"
   },
   {
      "name": "Cenade",
      "countryCode": "RO",
      "stateCode": "AB",
      "latitude": "46.05000000",
      "longitude": "24.01667000"
   },
   {
      "name": "Cergău Mare",
      "countryCode": "RO",
      "stateCode": "AB",
      "latitude": "46.09869000",
      "longitude": "23.92284000"
   },
   {
      "name": "Cergău Mic",
      "countryCode": "RO",
      "stateCode": "AB",
      "latitude": "46.08333000",
      "longitude": "23.93333000"
   },
   {
      "name": "Ceru-Băcăinţi",
      "countryCode": "RO",
      "stateCode": "AB",
      "latitude": "45.98333000",
      "longitude": "23.25000000"
   },
   {
      "name": "Cetatea de Baltă",
      "countryCode": "RO",
      "stateCode": "AB",
      "latitude": "46.24794000",
      "longitude": "24.17244000"
   },
   {
      "name": "Ciugud",
      "countryCode": "RO",
      "stateCode": "AB",
      "latitude": "46.05000000",
      "longitude": "23.61667000"
   },
   {
      "name": "Ciumbrud",
      "countryCode": "RO",
      "stateCode": "AB",
      "latitude": "46.30810000",
      "longitude": "23.76222000"
   },
   {
      "name": "Ciuruleasa",
      "countryCode": "RO",
      "stateCode": "AB",
      "latitude": "46.25000000",
      "longitude": "23.03333000"
   },
   {
      "name": "Comuna Albac",
      "countryCode": "RO",
      "stateCode": "AB",
      "latitude": "46.45246000",
      "longitude": "22.95027000"
   },
   {
      "name": "Comuna Almaşu Mare",
      "countryCode": "RO",
      "stateCode": "AB",
      "latitude": "46.10877000",
      "longitude": "23.12038000"
   },
   {
      "name": "Comuna Arieşeni",
      "countryCode": "RO",
      "stateCode": "AB",
      "latitude": "46.47659000",
      "longitude": "22.75535000"
   },
   {
      "name": "Comuna Avram Iancu",
      "countryCode": "RO",
      "stateCode": "AB",
      "latitude": "46.38333000",
      "longitude": "22.78333000"
   },
   {
      "name": "Comuna Berghin",
      "countryCode": "RO",
      "stateCode": "AB",
      "latitude": "46.07484000",
      "longitude": "23.73768000"
   },
   {
      "name": "Comuna Bistra",
      "countryCode": "RO",
      "stateCode": "AB",
      "latitude": "46.37856000",
      "longitude": "23.10150000"
   },
   {
      "name": "Comuna Blândiana",
      "countryCode": "RO",
      "stateCode": "AB",
      "latitude": "45.98146000",
      "longitude": "23.38543000"
   },
   {
      "name": "Comuna Bucerdea-Grânoasă",
      "countryCode": "RO",
      "stateCode": "AB",
      "latitude": "46.20878000",
      "longitude": "23.85614000"
   },
   {
      "name": "Comuna Bucium",
      "countryCode": "RO",
      "stateCode": "AB",
      "latitude": "46.26131000",
      "longitude": "23.15742000"
   },
   {
      "name": "Comuna Cenade",
      "countryCode": "RO",
      "stateCode": "AB",
      "latitude": "46.08045000",
      "longitude": "24.01382000"
   },
   {
      "name": "Comuna Cergău",
      "countryCode": "RO",
      "stateCode": "AB",
      "latitude": "46.09314000",
      "longitude": "23.94597000"
   },
   {
      "name": "Comuna Ceru-Băcăinţi",
      "countryCode": "RO",
      "stateCode": "AB",
      "latitude": "46.00117000",
      "longitude": "23.26983000"
   },
   {
      "name": "Comuna Cetatea de Baltă",
      "countryCode": "RO",
      "stateCode": "AB",
      "latitude": "46.21619000",
      "longitude": "24.16716000"
   },
   {
      "name": "Comuna Ciugud",
      "countryCode": "RO",
      "stateCode": "AB",
      "latitude": "46.06526000",
      "longitude": "23.62794000"
   },
   {
      "name": "Comuna Ciuruleasa",
      "countryCode": "RO",
      "stateCode": "AB",
      "latitude": "46.24481000",
      "longitude": "23.01644000"
   },
   {
      "name": "Comuna Cricău",
      "countryCode": "RO",
      "stateCode": "AB",
      "latitude": "46.18689000",
      "longitude": "23.55309000"
   },
   {
      "name": "Comuna Crăciunelu de Jos",
      "countryCode": "RO",
      "stateCode": "AB",
      "latitude": "46.17285000",
      "longitude": "23.83585000"
   },
   {
      "name": "Comuna Cut",
      "countryCode": "RO",
      "stateCode": "AB",
      "latitude": "45.93972000",
      "longitude": "23.66719000"
   },
   {
      "name": "Comuna Câlnic",
      "countryCode": "RO",
      "stateCode": "AB",
      "latitude": "45.87305000",
      "longitude": "23.64329000"
   },
   {
      "name": "Comuna Daia Română",
      "countryCode": "RO",
      "stateCode": "AB",
      "latitude": "46.00709000",
      "longitude": "23.66816000"
   },
   {
      "name": "Comuna Doştat",
      "countryCode": "RO",
      "stateCode": "AB",
      "latitude": "45.96143000",
      "longitude": "23.83313000"
   },
   {
      "name": "Comuna Fărău",
      "countryCode": "RO",
      "stateCode": "AB",
      "latitude": "46.32999000",
      "longitude": "24.04335000"
   },
   {
      "name": "Comuna Galda de Jos",
      "countryCode": "RO",
      "stateCode": "AB",
      "latitude": "46.21776000",
      "longitude": "23.56918000"
   },
   {
      "name": "Comuna Gârbova",
      "countryCode": "RO",
      "stateCode": "AB",
      "latitude": "45.85277000",
      "longitude": "23.68693000"
   },
   {
      "name": "Comuna Gârda de Sus",
      "countryCode": "RO",
      "stateCode": "AB",
      "latitude": "46.46719000",
      "longitude": "22.81519000"
   },
   {
      "name": "Comuna Hopârta",
      "countryCode": "RO",
      "stateCode": "AB",
      "latitude": "46.33134000",
      "longitude": "23.90340000"
   },
   {
      "name": "Comuna Horea",
      "countryCode": "RO",
      "stateCode": "AB",
      "latitude": "46.50058000",
      "longitude": "22.94915000"
   },
   {
      "name": "Comuna Ighiu",
      "countryCode": "RO",
      "stateCode": "AB",
      "latitude": "46.14854000",
      "longitude": "23.51232000"
   },
   {
      "name": "Comuna Jidvei",
      "countryCode": "RO",
      "stateCode": "AB",
      "latitude": "46.23083000",
      "longitude": "24.11475000"
   },
   {
      "name": "Comuna Livezile",
      "countryCode": "RO",
      "stateCode": "AB",
      "latitude": "46.37559000",
      "longitude": "23.58563000"
   },
   {
      "name": "Comuna Lopadea Nouă",
      "countryCode": "RO",
      "stateCode": "AB",
      "latitude": "46.27782000",
      "longitude": "23.84975000"
   },
   {
      "name": "Comuna Lunca Mureşului",
      "countryCode": "RO",
      "stateCode": "AB",
      "latitude": "46.42943000",
      "longitude": "23.93272000"
   },
   {
      "name": "Comuna Lupşa",
      "countryCode": "RO",
      "stateCode": "AB",
      "latitude": "46.34891000",
      "longitude": "23.20455000"
   },
   {
      "name": "Comuna Meteş",
      "countryCode": "RO",
      "stateCode": "AB",
      "latitude": "46.10543000",
      "longitude": "23.41707000"
   },
   {
      "name": "Comuna Mihalţ",
      "countryCode": "RO",
      "stateCode": "AB",
      "latitude": "46.17641000",
      "longitude": "23.73841000"
   },
   {
      "name": "Comuna Mirăslău",
      "countryCode": "RO",
      "stateCode": "AB",
      "latitude": "46.38660000",
      "longitude": "23.69329000"
   },
   {
      "name": "Comuna Mogoş",
      "countryCode": "RO",
      "stateCode": "AB",
      "latitude": "46.28356000",
      "longitude": "23.31873000"
   },
   {
      "name": "Comuna Noşlac",
      "countryCode": "RO",
      "stateCode": "AB",
      "latitude": "46.41300000",
      "longitude": "23.97668000"
   },
   {
      "name": "Comuna Ocoliş",
      "countryCode": "RO",
      "stateCode": "AB",
      "latitude": "46.49636000",
      "longitude": "23.46581000"
   },
   {
      "name": "Comuna Ohaba",
      "countryCode": "RO",
      "stateCode": "AB",
      "latitude": "46.08263000",
      "longitude": "23.80106000"
   },
   {
      "name": "Comuna Pianu",
      "countryCode": "RO",
      "stateCode": "AB",
      "latitude": "45.87127000",
      "longitude": "23.49549000"
   },
   {
      "name": "Comuna Poiana Vadului",
      "countryCode": "RO",
      "stateCode": "AB",
      "latitude": "46.40457000",
      "longitude": "22.87080000"
   },
   {
      "name": "Comuna Ponor",
      "countryCode": "RO",
      "stateCode": "AB",
      "latitude": "46.32065000",
      "longitude": "23.40376000"
   },
   {
      "name": "Comuna Poşaga",
      "countryCode": "RO",
      "stateCode": "AB",
      "latitude": "46.45354000",
      "longitude": "23.36115000"
   },
   {
      "name": "Comuna Roşia Montană",
      "countryCode": "RO",
      "stateCode": "AB",
      "latitude": "46.30991000",
      "longitude": "23.08697000"
   },
   {
      "name": "Comuna Roşia de Secaş",
      "countryCode": "RO",
      "stateCode": "AB",
      "latitude": "46.04807000",
      "longitude": "23.85329000"
   },
   {
      "name": "Comuna Râmetea",
      "countryCode": "RO",
      "stateCode": "AB",
      "latitude": "46.43815000",
      "longitude": "23.56579000"
   },
   {
      "name": "Comuna Râmeţ",
      "countryCode": "RO",
      "stateCode": "AB",
      "latitude": "46.31564000",
      "longitude": "23.52602000"
   },
   {
      "name": "Comuna Rădeşti",
      "countryCode": "RO",
      "stateCode": "AB",
      "latitude": "46.24931000",
      "longitude": "23.74444000"
   },
   {
      "name": "Comuna Scărişoara",
      "countryCode": "RO",
      "stateCode": "AB",
      "latitude": "46.46072000",
      "longitude": "22.88166000"
   },
   {
      "name": "Comuna Sohodol",
      "countryCode": "RO",
      "stateCode": "AB",
      "latitude": "46.32748000",
      "longitude": "22.99414000"
   },
   {
      "name": "Comuna Stremţ",
      "countryCode": "RO",
      "stateCode": "AB",
      "latitude": "46.25606000",
      "longitude": "23.59340000"
   },
   {
      "name": "Comuna Sâncel",
      "countryCode": "RO",
      "stateCode": "AB",
      "latitude": "46.21176000",
      "longitude": "23.94791000"
   },
   {
      "name": "Comuna Sântimbru",
      "countryCode": "RO",
      "stateCode": "AB",
      "latitude": "46.12974000",
      "longitude": "23.66899000"
   },
   {
      "name": "Comuna Sãliştea",
      "countryCode": "RO",
      "stateCode": "AB",
      "latitude": "45.91425000",
      "longitude": "23.41294000"
   },
   {
      "name": "Comuna Sălciua",
      "countryCode": "RO",
      "stateCode": "AB",
      "latitude": "46.38261000",
      "longitude": "23.41526000"
   },
   {
      "name": "Comuna Săsciori",
      "countryCode": "RO",
      "stateCode": "AB",
      "latitude": "45.85629000",
      "longitude": "23.56898000"
   },
   {
      "name": "Comuna Unirea",
      "countryCode": "RO",
      "stateCode": "AB",
      "latitude": "46.41948000",
      "longitude": "23.76260000"
   },
   {
      "name": "Comuna Vadu Moţilor",
      "countryCode": "RO",
      "stateCode": "AB",
      "latitude": "46.40910000",
      "longitude": "22.95532000"
   },
   {
      "name": "Comuna Valea Lungă",
      "countryCode": "RO",
      "stateCode": "AB",
      "latitude": "46.13355000",
      "longitude": "24.08280000"
   },
   {
      "name": "Comuna Vidra",
      "countryCode": "RO",
      "stateCode": "AB",
      "latitude": "46.37067000",
      "longitude": "22.92726000"
   },
   {
      "name": "Comuna Vinţu de Jos",
      "countryCode": "RO",
      "stateCode": "AB",
      "latitude": "46.02229000",
      "longitude": "23.45647000"
   },
   {
      "name": "Comuna Întregalde",
      "countryCode": "RO",
      "stateCode": "AB",
      "latitude": "46.24908000",
      "longitude": "23.39213000"
   },
   {
      "name": "Comuna Şibot",
      "countryCode": "RO",
      "stateCode": "AB",
      "latitude": "45.94093000",
      "longitude": "23.32226000"
   },
   {
      "name": "Comuna Şona",
      "countryCode": "RO",
      "stateCode": "AB",
      "latitude": "46.25089000",
      "longitude": "24.00259000"
   },
   {
      "name": "Comuna Şpring",
      "countryCode": "RO",
      "stateCode": "AB",
      "latitude": "45.96833000",
      "longitude": "23.73449000"
   },
   {
      "name": "Comuna Şugag",
      "countryCode": "RO",
      "stateCode": "AB",
      "latitude": "45.74780000",
      "longitude": "23.59957000"
   },
   {
      "name": "Cricău",
      "countryCode": "RO",
      "stateCode": "AB",
      "latitude": "46.18333000",
      "longitude": "23.56667000"
   },
   {
      "name": "Crăciunelu de Jos",
      "countryCode": "RO",
      "stateCode": "AB",
      "latitude": "46.18333000",
      "longitude": "23.83333000"
   },
   {
      "name": "Cugir",
      "countryCode": "RO",
      "stateCode": "AB",
      "latitude": "45.83651000",
      "longitude": "23.36998000"
   },
   {
      "name": "Cut",
      "countryCode": "RO",
      "stateCode": "AB",
      "latitude": "45.93972000",
      "longitude": "23.66719000"
   },
   {
      "name": "Câlnic",
      "countryCode": "RO",
      "stateCode": "AB",
      "latitude": "45.88333000",
      "longitude": "23.66667000"
   },
   {
      "name": "Câmpeni",
      "countryCode": "RO",
      "stateCode": "AB",
      "latitude": "46.36667000",
      "longitude": "23.05000000"
   },
   {
      "name": "Daia Română",
      "countryCode": "RO",
      "stateCode": "AB",
      "latitude": "46.01667000",
      "longitude": "23.66667000"
   },
   {
      "name": "Dobra",
      "countryCode": "RO",
      "stateCode": "AB",
      "latitude": "45.76913000",
      "longitude": "23.64218000"
   },
   {
      "name": "Doştat",
      "countryCode": "RO",
      "stateCode": "AB",
      "latitude": "45.96667000",
      "longitude": "23.85000000"
   },
   {
      "name": "Feisa",
      "countryCode": "RO",
      "stateCode": "AB",
      "latitude": "46.22608000",
      "longitude": "24.14492000"
   },
   {
      "name": "Feneș",
      "countryCode": "RO",
      "stateCode": "AB",
      "latitude": "46.10431000",
      "longitude": "23.29511000"
   },
   {
      "name": "Fărău",
      "countryCode": "RO",
      "stateCode": "AB",
      "latitude": "46.33333000",
      "longitude": "24.01667000"
   },
   {
      "name": "Galda de Jos",
      "countryCode": "RO",
      "stateCode": "AB",
      "latitude": "46.18333000",
      "longitude": "23.61667000"
   },
   {
      "name": "Gârbova",
      "countryCode": "RO",
      "stateCode": "AB",
      "latitude": "45.86667000",
      "longitude": "23.73333000"
   },
   {
      "name": "Gârda de Sus",
      "countryCode": "RO",
      "stateCode": "AB",
      "latitude": "46.45000000",
      "longitude": "22.81667000"
   },
   {
      "name": "Hopârta",
      "countryCode": "RO",
      "stateCode": "AB",
      "latitude": "46.32134000",
      "longitude": "23.87244000"
   },
   {
      "name": "Horea",
      "countryCode": "RO",
      "stateCode": "AB",
      "latitude": "46.50246000",
      "longitude": "22.95034000"
   },
   {
      "name": "Ighiel",
      "countryCode": "RO",
      "stateCode": "AB",
      "latitude": "46.14680000",
      "longitude": "23.47968000"
   },
   {
      "name": "Ighiu",
      "countryCode": "RO",
      "stateCode": "AB",
      "latitude": "46.15000000",
      "longitude": "23.51667000"
   },
   {
      "name": "Intregalde",
      "countryCode": "RO",
      "stateCode": "AB",
      "latitude": "46.25000000",
      "longitude": "23.41667000"
   },
   {
      "name": "Izvoarele",
      "countryCode": "RO",
      "stateCode": "AB",
      "latitude": "46.17011000",
      "longitude": "23.90377000"
   },
   {
      "name": "Jidvei",
      "countryCode": "RO",
      "stateCode": "AB",
      "latitude": "46.21667000",
      "longitude": "24.10000000"
   },
   {
      "name": "Lancrăm",
      "countryCode": "RO",
      "stateCode": "AB",
      "latitude": "45.98708000",
      "longitude": "23.55665000"
   },
   {
      "name": "Livezile",
      "countryCode": "RO",
      "stateCode": "AB",
      "latitude": "46.35000000",
      "longitude": "23.63333000"
   },
   {
      "name": "Lopadea Nouă",
      "countryCode": "RO",
      "stateCode": "AB",
      "latitude": "46.29090000",
      "longitude": "23.81901000"
   },
   {
      "name": "Lunca Mureşului",
      "countryCode": "RO",
      "stateCode": "AB",
      "latitude": "46.43333000",
      "longitude": "23.90000000"
   },
   {
      "name": "Lupşa",
      "countryCode": "RO",
      "stateCode": "AB",
      "latitude": "46.36667000",
      "longitude": "23.20000000"
   },
   {
      "name": "Meteş",
      "countryCode": "RO",
      "stateCode": "AB",
      "latitude": "46.10000000",
      "longitude": "23.41667000"
   },
   {
      "name": "Micești",
      "countryCode": "RO",
      "stateCode": "AB",
      "latitude": "46.10141000",
      "longitude": "23.55573000"
   },
   {
      "name": "Mihalţ",
      "countryCode": "RO",
      "stateCode": "AB",
      "latitude": "46.15000000",
      "longitude": "23.73333000"
   },
   {
      "name": "Mirăslău",
      "countryCode": "RO",
      "stateCode": "AB",
      "latitude": "46.36667000",
      "longitude": "23.71667000"
   },
   {
      "name": "Mogoș",
      "countryCode": "RO",
      "stateCode": "AB",
      "latitude": "46.27554000",
      "longitude": "23.28038000"
   },
   {
      "name": "Municipiul Aiud",
      "countryCode": "RO",
      "stateCode": "AB",
      "latitude": "46.30440000",
      "longitude": "23.69751000"
   },
   {
      "name": "Municipiul Alba Iulia",
      "countryCode": "RO",
      "stateCode": "AB",
      "latitude": "46.06346000",
      "longitude": "23.57494000"
   },
   {
      "name": "Municipiul Blaj",
      "countryCode": "RO",
      "stateCode": "AB",
      "latitude": "46.15084000",
      "longitude": "23.91041000"
   },
   {
      "name": "Municipiul Sebeş",
      "countryCode": "RO",
      "stateCode": "AB",
      "latitude": "45.94237000",
      "longitude": "23.57681000"
   },
   {
      "name": "Noşlac",
      "countryCode": "RO",
      "stateCode": "AB",
      "latitude": "46.40000000",
      "longitude": "23.93333000"
   },
   {
      "name": "Oarda",
      "countryCode": "RO",
      "stateCode": "AB",
      "latitude": "46.03333000",
      "longitude": "23.56667000"
   },
   {
      "name": "Ocna Mureş",
      "countryCode": "RO",
      "stateCode": "AB",
      "latitude": "46.38333000",
      "longitude": "23.85000000"
   },
   {
      "name": "Ocoliş",
      "countryCode": "RO",
      "stateCode": "AB",
      "latitude": "46.48333000",
      "longitude": "23.46667000"
   },
   {
      "name": "Ohaba",
      "countryCode": "RO",
      "stateCode": "AB",
      "latitude": "46.06667000",
      "longitude": "23.78333000"
   },
   {
      "name": "Oraş Baia de Arieş",
      "countryCode": "RO",
      "stateCode": "AB",
      "latitude": "46.37933000",
      "longitude": "23.29903000"
   },
   {
      "name": "Oraş Cugir",
      "countryCode": "RO",
      "stateCode": "AB",
      "latitude": "45.81371000",
      "longitude": "23.40740000"
   },
   {
      "name": "Oraş Câmpeni",
      "countryCode": "RO",
      "stateCode": "AB",
      "latitude": "46.38493000",
      "longitude": "23.04553000"
   },
   {
      "name": "Oraş Ocna Mureş",
      "countryCode": "RO",
      "stateCode": "AB",
      "latitude": "46.38475000",
      "longitude": "23.84070000"
   },
   {
      "name": "Oraş Teiuş",
      "countryCode": "RO",
      "stateCode": "AB",
      "latitude": "46.20959000",
      "longitude": "23.70812000"
   },
   {
      "name": "Oraş Zlatna",
      "countryCode": "RO",
      "stateCode": "AB",
      "latitude": "46.13753000",
      "longitude": "23.20215000"
   },
   {
      "name": "Oraş abrud",
      "countryCode": "RO",
      "stateCode": "AB",
      "latitude": "46.27409000",
      "longitude": "23.06129000"
   },
   {
      "name": "Petrești",
      "countryCode": "RO",
      "stateCode": "AB",
      "latitude": "45.92102000",
      "longitude": "23.56083000"
   },
   {
      "name": "Pianu de Jos",
      "countryCode": "RO",
      "stateCode": "AB",
      "latitude": "45.93528000",
      "longitude": "23.48912000"
   },
   {
      "name": "Pianu de Sus",
      "countryCode": "RO",
      "stateCode": "AB",
      "latitude": "45.90000000",
      "longitude": "23.48333000"
   },
   {
      "name": "Poiana Vadului",
      "countryCode": "RO",
      "stateCode": "AB",
      "latitude": "46.40000000",
      "longitude": "22.88333000"
   },
   {
      "name": "Poienile-Mogoş",
      "countryCode": "RO",
      "stateCode": "AB",
      "latitude": "46.28333000",
      "longitude": "23.28333000"
   },
   {
      "name": "Ponor",
      "countryCode": "RO",
      "stateCode": "AB",
      "latitude": "46.33333000",
      "longitude": "23.41667000"
   },
   {
      "name": "Poşaga de Sus",
      "countryCode": "RO",
      "stateCode": "AB",
      "latitude": "46.46667000",
      "longitude": "23.38333000"
   },
   {
      "name": "Rimetea",
      "countryCode": "RO",
      "stateCode": "AB",
      "latitude": "46.45000000",
      "longitude": "23.56667000"
   },
   {
      "name": "Roşia de Secaş",
      "countryCode": "RO",
      "stateCode": "AB",
      "latitude": "46.05000000",
      "longitude": "23.88333000"
   },
   {
      "name": "Roșia Montană",
      "countryCode": "RO",
      "stateCode": "AB",
      "latitude": "46.30669000",
      "longitude": "23.13373000"
   },
   {
      "name": "Rădeşti",
      "countryCode": "RO",
      "stateCode": "AB",
      "latitude": "46.26667000",
      "longitude": "23.71667000"
   },
   {
      "name": "Războieni-Cetate",
      "countryCode": "RO",
      "stateCode": "AB",
      "latitude": "46.41335000",
      "longitude": "23.87158000"
   },
   {
      "name": "Scărişoara",
      "countryCode": "RO",
      "stateCode": "AB",
      "latitude": "46.46667000",
      "longitude": "22.85000000"
   },
   {
      "name": "Sebeş",
      "countryCode": "RO",
      "stateCode": "AB",
      "latitude": "45.95646000",
      "longitude": "23.57100000"
   },
   {
      "name": "Sebeșel",
      "countryCode": "RO",
      "stateCode": "AB",
      "latitude": "45.88771000",
      "longitude": "23.56606000"
   },
   {
      "name": "Sohodol",
      "countryCode": "RO",
      "stateCode": "AB",
      "latitude": "46.35581000",
      "longitude": "23.02923000"
   },
   {
      "name": "Stremţ",
      "countryCode": "RO",
      "stateCode": "AB",
      "latitude": "46.21667000",
      "longitude": "23.63333000"
   },
   {
      "name": "Sâncel",
      "countryCode": "RO",
      "stateCode": "AB",
      "latitude": "46.20000000",
      "longitude": "23.95000000"
   },
   {
      "name": "Sâncrai",
      "countryCode": "RO",
      "stateCode": "AB",
      "latitude": "46.29394000",
      "longitude": "23.75209000"
   },
   {
      "name": "Sântimbru",
      "countryCode": "RO",
      "stateCode": "AB",
      "latitude": "46.13333000",
      "longitude": "23.65000000"
   },
   {
      "name": "Sălciua de Sus",
      "countryCode": "RO",
      "stateCode": "AB",
      "latitude": "46.40000000",
      "longitude": "23.41667000"
   },
   {
      "name": "Săliştea-Deal",
      "countryCode": "RO",
      "stateCode": "AB",
      "latitude": "45.90000000",
      "longitude": "23.40000000"
   },
   {
      "name": "Săliștea",
      "countryCode": "RO",
      "stateCode": "AB",
      "latitude": "45.90744000",
      "longitude": "23.39789000"
   },
   {
      "name": "Săsciori",
      "countryCode": "RO",
      "stateCode": "AB",
      "latitude": "45.86667000",
      "longitude": "23.58333000"
   },
   {
      "name": "Teiuş",
      "countryCode": "RO",
      "stateCode": "AB",
      "latitude": "46.20000000",
      "longitude": "23.68333000"
   },
   {
      "name": "Tiur",
      "countryCode": "RO",
      "stateCode": "AB",
      "latitude": "46.16009000",
      "longitude": "23.88927000"
   },
   {
      "name": "Uioara de Jos",
      "countryCode": "RO",
      "stateCode": "AB",
      "latitude": "46.37087000",
      "longitude": "23.83863000"
   },
   {
      "name": "Unirea",
      "countryCode": "RO",
      "stateCode": "AB",
      "latitude": "46.40387000",
      "longitude": "23.81314000"
   },
   {
      "name": "Vadu Moţilor",
      "countryCode": "RO",
      "stateCode": "AB",
      "latitude": "46.40000000",
      "longitude": "22.96667000"
   },
   {
      "name": "Valea Lungă Alba Romania",
      "countryCode": "RO",
      "stateCode": "AB",
      "latitude": "46.12592000",
      "longitude": "24.04541000"
   },
   {
      "name": "Veseuș",
      "countryCode": "RO",
      "stateCode": "AB",
      "latitude": "46.27456000",
      "longitude": "24.14276000"
   },
   {
      "name": "Veza",
      "countryCode": "RO",
      "stateCode": "AB",
      "latitude": "46.16747000",
      "longitude": "23.92470000"
   },
   {
      "name": "Vidra",
      "countryCode": "RO",
      "stateCode": "AB",
      "latitude": "46.36758000",
      "longitude": "22.88811000"
   },
   {
      "name": "Vinerea",
      "countryCode": "RO",
      "stateCode": "AB",
      "latitude": "45.88632000",
      "longitude": "23.35289000"
   },
   {
      "name": "Vințu de Jos",
      "countryCode": "RO",
      "stateCode": "AB",
      "latitude": "45.99462000",
      "longitude": "23.48612000"
   },
   {
      "name": "Vurpăr",
      "countryCode": "RO",
      "stateCode": "AB",
      "latitude": "46.00000000",
      "longitude": "23.46667000"
   },
   {
      "name": "Zlatna",
      "countryCode": "RO",
      "stateCode": "AB",
      "latitude": "46.10633000",
      "longitude": "23.23162000"
   },
   {
      "name": "Şibot",
      "countryCode": "RO",
      "stateCode": "AB",
      "latitude": "45.95000000",
      "longitude": "23.33333000"
   },
   {
      "name": "Şona",
      "countryCode": "RO",
      "stateCode": "AB",
      "latitude": "46.21667000",
      "longitude": "24.01667000"
   },
   {
      "name": "Şpring",
      "countryCode": "RO",
      "stateCode": "AB",
      "latitude": "45.96667000",
      "longitude": "23.78333000"
   },
   {
      "name": "Şugag",
      "countryCode": "RO",
      "stateCode": "AB",
      "latitude": "45.76667000",
      "longitude": "23.63333000"
   },
   {
      "name": "Șard",
      "countryCode": "RO",
      "stateCode": "AB",
      "latitude": "46.12814000",
      "longitude": "23.53520000"
   },
   {
      "name": "Țelna",
      "countryCode": "RO",
      "stateCode": "AB",
      "latitude": "46.15902000",
      "longitude": "23.50099000"
   }
]