[
   {
      "name": "Anse Ger",
      "countryCode": "LC",
      "stateCode": "08",
      "latitude": "13.79567000",
      "longitude": "-60.91567000"
   },
   {
      "name": "Beauchamp",
      "countryCode": "LC",
      "stateCode": "08",
      "latitude": "13.81778000",
      "longitude": "-60.91528000"
   },
   {
      "name": "Blanchard",
      "countryCode": "LC",
      "stateCode": "08",
      "latitude": "13.80616000",
      "longitude": "-60.94630000"
   },
   {
      "name": "Canelles",
      "countryCode": "LC",
      "stateCode": "08",
      "latitude": "13.78515000",
      "longitude": "-60.91789000"
   },
   {
      "name": "Cazuca",
      "countryCode": "LC",
      "stateCode": "08",
      "latitude": "13.80002000",
      "longitude": "-60.90481000"
   },
   {
      "name": "Chique/Blanchard",
      "countryCode": "LC",
      "stateCode": "08",
      "latitude": "13.80120000",
      "longitude": "-60.94970000"
   },
   {
      "name": "Coolie Town",
      "countryCode": "LC",
      "stateCode": "08",
      "latitude": "13.85429000",
      "longitude": "-60.91380000"
   },
   {
      "name": "Delomel",
      "countryCode": "LC",
      "stateCode": "08",
      "latitude": "13.80338000",
      "longitude": "-60.92927000"
   },
   {
      "name": "Des Blanchard",
      "countryCode": "LC",
      "stateCode": "08",
      "latitude": "13.81155000",
      "longitude": "-60.93423000"
   },
   {
      "name": "Desruisseaux",
      "countryCode": "LC",
      "stateCode": "08",
      "latitude": "13.79640000",
      "longitude": "-60.93540000"
   },
   {
      "name": "Dugard",
      "countryCode": "LC",
      "stateCode": "08",
      "latitude": "13.81090000",
      "longitude": "-60.91415000"
   },
   {
      "name": "Escap",
      "countryCode": "LC",
      "stateCode": "08",
      "latitude": "13.83031000",
      "longitude": "-60.89673000"
   },
   {
      "name": "Fond D'Lor/Dugard",
      "countryCode": "LC",
      "stateCode": "08",
      "latitude": "13.81069000",
      "longitude": "-60.92119000"
   },
   {
      "name": "Fond Estate",
      "countryCode": "LC",
      "stateCode": "08",
      "latitude": "13.84243000",
      "longitude": "-60.91862000"
   },
   {
      "name": "Fond/Desruisseaux",
      "countryCode": "LC",
      "stateCode": "08",
      "latitude": "13.79421000",
      "longitude": "-60.94128000"
   },
   {
      "name": "Gomier",
      "countryCode": "LC",
      "stateCode": "08",
      "latitude": "13.81485000",
      "longitude": "-60.95252000"
   },
   {
      "name": "Gouette",
      "countryCode": "LC",
      "stateCode": "08",
      "latitude": "13.80650000",
      "longitude": "-60.93964000"
   },
   {
      "name": "Honeymoon Beach",
      "countryCode": "LC",
      "stateCode": "08",
      "latitude": "13.77746000",
      "longitude": "-60.90493000"
   },
   {
      "name": "L'Eau Mineau",
      "countryCode": "LC",
      "stateCode": "08",
      "latitude": "13.80672000",
      "longitude": "-60.92103000"
   },
   {
      "name": "La Courville",
      "countryCode": "LC",
      "stateCode": "08",
      "latitude": "13.81056000",
      "longitude": "-60.92766000"
   },
   {
      "name": "La Pointe",
      "countryCode": "LC",
      "stateCode": "08",
      "latitude": "13.84593000",
      "longitude": "-60.89332000"
   },
   {
      "name": "La Tille",
      "countryCode": "LC",
      "stateCode": "08",
      "latitude": "13.82744000",
      "longitude": "-60.91716000"
   },
   {
      "name": "Lezy",
      "countryCode": "LC",
      "stateCode": "08",
      "latitude": "13.80372000",
      "longitude": "-60.93906000"
   },
   {
      "name": "Lombard",
      "countryCode": "LC",
      "stateCode": "08",
      "latitude": "13.85772000",
      "longitude": "-60.91510000"
   },
   {
      "name": "Mahaut",
      "countryCode": "LC",
      "stateCode": "08",
      "latitude": "13.84391000",
      "longitude": "-60.95397000"
   },
   {
      "name": "Malgretoute",
      "countryCode": "LC",
      "stateCode": "08",
      "latitude": "13.84199000",
      "longitude": "-60.90411000"
   },
   {
      "name": "Mamiku",
      "countryCode": "LC",
      "stateCode": "08",
      "latitude": "13.86744000",
      "longitude": "-60.90184000"
   },
   {
      "name": "Micoud",
      "countryCode": "LC",
      "stateCode": "08",
      "latitude": "13.81667000",
      "longitude": "-60.90000000"
   },
   {
      "name": "Mon Repos",
      "countryCode": "LC",
      "stateCode": "08",
      "latitude": "13.85865000",
      "longitude": "-60.89591000"
   },
   {
      "name": "Moreau",
      "countryCode": "LC",
      "stateCode": "08",
      "latitude": "13.82676000",
      "longitude": "-60.94238000"
   },
   {
      "name": "Morne Vient",
      "countryCode": "LC",
      "stateCode": "08",
      "latitude": "13.80646000",
      "longitude": "-60.95241000"
   },
   {
      "name": "Myette Gardens",
      "countryCode": "LC",
      "stateCode": "08",
      "latitude": "13.81862000",
      "longitude": "-60.90440000"
   },
   {
      "name": "New Village",
      "countryCode": "LC",
      "stateCode": "08",
      "latitude": "13.82446000",
      "longitude": "-60.89864000"
   },
   {
      "name": "Paix Bouche",
      "countryCode": "LC",
      "stateCode": "08",
      "latitude": "13.81556000",
      "longitude": "-60.94073000"
   },
   {
      "name": "Palmiste Estate",
      "countryCode": "LC",
      "stateCode": "08",
      "latitude": "13.85377000",
      "longitude": "-60.96007000"
   },
   {
      "name": "Patience",
      "countryCode": "LC",
      "stateCode": "08",
      "latitude": "13.85000000",
      "longitude": "-60.90874000"
   },
   {
      "name": "Planard",
      "countryCode": "LC",
      "stateCode": "08",
      "latitude": "13.80521000",
      "longitude": "-60.91540000"
   },
   {
      "name": "Praslin",
      "countryCode": "LC",
      "stateCode": "08",
      "latitude": "13.87545000",
      "longitude": "-60.89717000"
   },
   {
      "name": "Rameau",
      "countryCode": "LC",
      "stateCode": "08",
      "latitude": "13.83055000",
      "longitude": "-60.92375000"
   },
   {
      "name": "Saint Marie Road",
      "countryCode": "LC",
      "stateCode": "08",
      "latitude": "13.85444000",
      "longitude": "-60.91803000"
   },
   {
      "name": "Saut",
      "countryCode": "LC",
      "stateCode": "08",
      "latitude": "13.81272000",
      "longitude": "-60.94375000"
   },
   {
      "name": "Savannes",
      "countryCode": "LC",
      "stateCode": "08",
      "latitude": "13.77098000",
      "longitude": "-60.92017000"
   },
   {
      "name": "St Helen Estate",
      "countryCode": "LC",
      "stateCode": "08",
      "latitude": "13.78735000",
      "longitude": "-60.90726000"
   },
   {
      "name": "Ti Riviere",
      "countryCode": "LC",
      "stateCode": "08",
      "latitude": "13.83006000",
      "longitude": "-60.93774000"
   },
   {
      "name": "Ti Rocher",
      "countryCode": "LC",
      "stateCode": "08",
      "latitude": "13.81734000",
      "longitude": "-60.92858000"
   },
   {
      "name": "Troumassee",
      "countryCode": "LC",
      "stateCode": "08",
      "latitude": "13.80892000",
      "longitude": "-60.90341000"
   },
   {
      "name": "Village",
      "countryCode": "LC",
      "stateCode": "08",
      "latitude": "13.81904000",
      "longitude": "-60.89692000"
   },
   {
      "name": "Volet",
      "countryCode": "LC",
      "stateCode": "08",
      "latitude": "13.82626000",
      "longitude": "-60.90789000"
   }
]