[
   {
      "name": "Aberdeen",
      "countryCode": "US",
      "stateCode": "FL",
      "latitude": "26.55063000",
      "longitude": "-80.14866000"
   },
   {
      "name": "Alachua",
      "countryCode": "US",
      "stateCode": "FL",
      "latitude": "29.75163000",
      "longitude": "-82.42483000"
   },
   {
      "name": "Alachua County",
      "countryCode": "US",
      "stateCode": "FL",
      "latitude": "29.67476000",
      "longitude": "-82.35770000"
   },
   {
      "name": "Alafaya",
      "countryCode": "US",
      "stateCode": "FL",
      "latitude": "28.56410000",
      "longitude": "-81.21140000"
   },
   {
      "name": "Allapattah",
      "countryCode": "US",
      "stateCode": "FL",
      "latitude": "25.81454000",
      "longitude": "-80.22394000"
   },
   {
      "name": "Altamonte Springs",
      "countryCode": "US",
      "stateCode": "FL",
      "latitude": "28.66111000",
      "longitude": "-81.36562000"
   },
   {
      "name": "Alturas",
      "countryCode": "US",
      "stateCode": "FL",
      "latitude": "27.87169000",
      "longitude": "-81.71508000"
   },
   {
      "name": "Alva",
      "countryCode": "US",
      "stateCode": "FL",
      "latitude": "26.71562000",
      "longitude": "-81.61008000"
   },
   {
      "name": "Andover",
      "countryCode": "US",
      "stateCode": "FL",
      "latitude": "25.96843000",
      "longitude": "-80.21283000"
   },
   {
      "name": "Anna Maria",
      "countryCode": "US",
      "stateCode": "FL",
      "latitude": "27.53115000",
      "longitude": "-82.73343000"
   },
   {
      "name": "Apalachicola",
      "countryCode": "US",
      "stateCode": "FL",
      "latitude": "29.72600000",
      "longitude": "-84.98560000"
   },
   {
      "name": "Apollo Beach",
      "countryCode": "US",
      "stateCode": "FL",
      "latitude": "27.77308000",
      "longitude": "-82.40759000"
   },
   {
      "name": "Apopka",
      "countryCode": "US",
      "stateCode": "FL",
      "latitude": "28.67617000",
      "longitude": "-81.51186000"
   },
   {
      "name": "Arcadia",
      "countryCode": "US",
      "stateCode": "FL",
      "latitude": "27.21588000",
      "longitude": "-81.85842000"
   },
   {
      "name": "Archer",
      "countryCode": "US",
      "stateCode": "FL",
      "latitude": "29.52997000",
      "longitude": "-82.51900000"
   },
   {
      "name": "Asbury Lake",
      "countryCode": "US",
      "stateCode": "FL",
      "latitude": "30.04913000",
      "longitude": "-81.82149000"
   },
   {
      "name": "Astatula",
      "countryCode": "US",
      "stateCode": "FL",
      "latitude": "28.70972000",
      "longitude": "-81.73285000"
   },
   {
      "name": "Astor",
      "countryCode": "US",
      "stateCode": "FL",
      "latitude": "29.16248000",
      "longitude": "-81.52535000"
   },
   {
      "name": "Atlantic Beach",
      "countryCode": "US",
      "stateCode": "FL",
      "latitude": "30.33441000",
      "longitude": "-81.39870000"
   },
   {
      "name": "Atlantis",
      "countryCode": "US",
      "stateCode": "FL",
      "latitude": "26.59090000",
      "longitude": "-80.10088000"
   },
   {
      "name": "Auburndale",
      "countryCode": "US",
      "stateCode": "FL",
      "latitude": "28.06530000",
      "longitude": "-81.78869000"
   },
   {
      "name": "Aventura",
      "countryCode": "US",
      "stateCode": "FL",
      "latitude": "25.95648000",
      "longitude": "-80.13921000"
   },
   {
      "name": "Avon Park",
      "countryCode": "US",
      "stateCode": "FL",
      "latitude": "27.59587000",
      "longitude": "-81.50619000"
   },
   {
      "name": "Azalea Park",
      "countryCode": "US",
      "stateCode": "FL",
      "latitude": "28.54111000",
      "longitude": "-81.30062000"
   },
   {
      "name": "Babson Park",
      "countryCode": "US",
      "stateCode": "FL",
      "latitude": "27.83197000",
      "longitude": "-81.52230000"
   },
   {
      "name": "Bagdad",
      "countryCode": "US",
      "stateCode": "FL",
      "latitude": "30.59880000",
      "longitude": "-87.03223000"
   },
   {
      "name": "Baker County",
      "countryCode": "US",
      "stateCode": "FL",
      "latitude": "30.33107000",
      "longitude": "-82.28459000"
   },
   {
      "name": "Bal Harbour",
      "countryCode": "US",
      "stateCode": "FL",
      "latitude": "25.89176000",
      "longitude": "-80.12699000"
   },
   {
      "name": "Baldwin",
      "countryCode": "US",
      "stateCode": "FL",
      "latitude": "30.30274000",
      "longitude": "-81.97539000"
   },
   {
      "name": "Balm",
      "countryCode": "US",
      "stateCode": "FL",
      "latitude": "27.75947000",
      "longitude": "-82.26120000"
   },
   {
      "name": "Bartow",
      "countryCode": "US",
      "stateCode": "FL",
      "latitude": "27.89641000",
      "longitude": "-81.84314000"
   },
   {
      "name": "Bay County",
      "countryCode": "US",
      "stateCode": "FL",
      "latitude": "30.23765000",
      "longitude": "-85.63262000"
   },
   {
      "name": "Bay Harbor Islands",
      "countryCode": "US",
      "stateCode": "FL",
      "latitude": "25.88759000",
      "longitude": "-80.13116000"
   },
   {
      "name": "Bay Hill",
      "countryCode": "US",
      "stateCode": "FL",
      "latitude": "28.46806000",
      "longitude": "-81.51618000"
   },
   {
      "name": "Bay Pines",
      "countryCode": "US",
      "stateCode": "FL",
      "latitude": "27.81419000",
      "longitude": "-82.77816000"
   },
   {
      "name": "Bayonet Point",
      "countryCode": "US",
      "stateCode": "FL",
      "latitude": "28.32667000",
      "longitude": "-82.68343000"
   },
   {
      "name": "Bayshore Gardens",
      "countryCode": "US",
      "stateCode": "FL",
      "latitude": "27.42532000",
      "longitude": "-82.59038000"
   },
   {
      "name": "Beacon Square",
      "countryCode": "US",
      "stateCode": "FL",
      "latitude": "28.20862000",
      "longitude": "-82.75538000"
   },
   {
      "name": "Bee Ridge",
      "countryCode": "US",
      "stateCode": "FL",
      "latitude": "27.28394000",
      "longitude": "-82.48065000"
   },
   {
      "name": "Bellair-Meadowbrook Terrace",
      "countryCode": "US",
      "stateCode": "FL",
      "latitude": "30.17881000",
      "longitude": "-81.74341000"
   },
   {
      "name": "Belle Glade",
      "countryCode": "US",
      "stateCode": "FL",
      "latitude": "26.68451000",
      "longitude": "-80.66756000"
   },
   {
      "name": "Belle Glade Camp",
      "countryCode": "US",
      "stateCode": "FL",
      "latitude": "26.65757000",
      "longitude": "-80.68284000"
   },
   {
      "name": "Belle Isle",
      "countryCode": "US",
      "stateCode": "FL",
      "latitude": "28.45834000",
      "longitude": "-81.35924000"
   },
   {
      "name": "Belleair",
      "countryCode": "US",
      "stateCode": "FL",
      "latitude": "27.93585000",
      "longitude": "-82.80621000"
   },
   {
      "name": "Belleair Beach",
      "countryCode": "US",
      "stateCode": "FL",
      "latitude": "27.92308000",
      "longitude": "-82.84316000"
   },
   {
      "name": "Belleair Bluffs",
      "countryCode": "US",
      "stateCode": "FL",
      "latitude": "27.92141000",
      "longitude": "-82.81705000"
   },
   {
      "name": "Belleview",
      "countryCode": "US",
      "stateCode": "FL",
      "latitude": "29.05526000",
      "longitude": "-82.06231000"
   },
   {
      "name": "Bellview",
      "countryCode": "US",
      "stateCode": "FL",
      "latitude": "30.46159000",
      "longitude": "-87.31497000"
   },
   {
      "name": "Beverly Hills",
      "countryCode": "US",
      "stateCode": "FL",
      "latitude": "28.91692000",
      "longitude": "-82.45815000"
   },
   {
      "name": "Big Coppitt Key",
      "countryCode": "US",
      "stateCode": "FL",
      "latitude": "24.59653000",
      "longitude": "-81.66009000"
   },
   {
      "name": "Big Pine Key",
      "countryCode": "US",
      "stateCode": "FL",
      "latitude": "24.66987000",
      "longitude": "-81.35397000"
   },
   {
      "name": "Biscayne Park",
      "countryCode": "US",
      "stateCode": "FL",
      "latitude": "25.88260000",
      "longitude": "-80.18060000"
   },
   {
      "name": "Bithlo",
      "countryCode": "US",
      "stateCode": "FL",
      "latitude": "28.55472000",
      "longitude": "-81.10645000"
   },
   {
      "name": "Black Diamond",
      "countryCode": "US",
      "stateCode": "FL",
      "latitude": "28.91248000",
      "longitude": "-82.48593000"
   },
   {
      "name": "Bloomingdale",
      "countryCode": "US",
      "stateCode": "FL",
      "latitude": "27.89364000",
      "longitude": "-82.24037000"
   },
   {
      "name": "Blountstown",
      "countryCode": "US",
      "stateCode": "FL",
      "latitude": "30.44379000",
      "longitude": "-85.04744000"
   },
   {
      "name": "Boca Del Mar",
      "countryCode": "US",
      "stateCode": "FL",
      "latitude": "26.34508000",
      "longitude": "-80.14671000"
   },
   {
      "name": "Boca Pointe",
      "countryCode": "US",
      "stateCode": "FL",
      "latitude": "26.33313000",
      "longitude": "-80.15949000"
   },
   {
      "name": "Boca Raton",
      "countryCode": "US",
      "stateCode": "FL",
      "latitude": "26.35869000",
      "longitude": "-80.08310000"
   },
   {
      "name": "Bokeelia",
      "countryCode": "US",
      "stateCode": "FL",
      "latitude": "26.70563000",
      "longitude": "-82.15898000"
   },
   {
      "name": "Bonifay",
      "countryCode": "US",
      "stateCode": "FL",
      "latitude": "30.79186000",
      "longitude": "-85.67965000"
   },
   {
      "name": "Bonita Springs",
      "countryCode": "US",
      "stateCode": "FL",
      "latitude": "26.33981000",
      "longitude": "-81.77870000"
   },
   {
      "name": "Boulevard Gardens",
      "countryCode": "US",
      "stateCode": "FL",
      "latitude": "26.12326000",
      "longitude": "-80.17997000"
   },
   {
      "name": "Bowling Green",
      "countryCode": "US",
      "stateCode": "FL",
      "latitude": "27.63837000",
      "longitude": "-81.82397000"
   },
   {
      "name": "Boyette",
      "countryCode": "US",
      "stateCode": "FL",
      "latitude": "27.81753000",
      "longitude": "-82.22259000"
   },
   {
      "name": "Boynton Beach",
      "countryCode": "US",
      "stateCode": "FL",
      "latitude": "26.52535000",
      "longitude": "-80.06643000"
   },
   {
      "name": "Bradenton",
      "countryCode": "US",
      "stateCode": "FL",
      "latitude": "27.49893000",
      "longitude": "-82.57482000"
   },
   {
      "name": "Bradenton Beach",
      "countryCode": "US",
      "stateCode": "FL",
      "latitude": "27.46698000",
      "longitude": "-82.70399000"
   },
   {
      "name": "Bradford County",
      "countryCode": "US",
      "stateCode": "FL",
      "latitude": "29.94996000",
      "longitude": "-82.16878000"
   },
   {
      "name": "Brandon",
      "countryCode": "US",
      "stateCode": "FL",
      "latitude": "27.93780000",
      "longitude": "-82.28592000"
   },
   {
      "name": "Brent",
      "countryCode": "US",
      "stateCode": "FL",
      "latitude": "30.46881000",
      "longitude": "-87.23608000"
   },
   {
      "name": "Brevard County",
      "countryCode": "US",
      "stateCode": "FL",
      "latitude": "28.30031000",
      "longitude": "-80.70121000"
   },
   {
      "name": "Bristol",
      "countryCode": "US",
      "stateCode": "FL",
      "latitude": "30.43247000",
      "longitude": "-84.97702000"
   },
   {
      "name": "Broadview Park",
      "countryCode": "US",
      "stateCode": "FL",
      "latitude": "26.09953000",
      "longitude": "-80.20866000"
   },
   {
      "name": "Bronson",
      "countryCode": "US",
      "stateCode": "FL",
      "latitude": "29.44774000",
      "longitude": "-82.64233000"
   },
   {
      "name": "Brookridge",
      "countryCode": "US",
      "stateCode": "FL",
      "latitude": "28.55110000",
      "longitude": "-82.49204000"
   },
   {
      "name": "Brooksville",
      "countryCode": "US",
      "stateCode": "FL",
      "latitude": "28.55554000",
      "longitude": "-82.38991000"
   },
   {
      "name": "Broward County",
      "countryCode": "US",
      "stateCode": "FL",
      "latitude": "26.15186000",
      "longitude": "-80.45589000"
   },
   {
      "name": "Broward Estates",
      "countryCode": "US",
      "stateCode": "FL",
      "latitude": "26.12564000",
      "longitude": "-80.19338000"
   },
   {
      "name": "Brownsville",
      "countryCode": "US",
      "stateCode": "FL",
      "latitude": "25.82176000",
      "longitude": "-80.24116000"
   },
   {
      "name": "Buckhead Ridge",
      "countryCode": "US",
      "stateCode": "FL",
      "latitude": "27.13033000",
      "longitude": "-80.89367000"
   },
   {
      "name": "Buckingham",
      "countryCode": "US",
      "stateCode": "FL",
      "latitude": "26.67507000",
      "longitude": "-81.73203000"
   },
   {
      "name": "Buenaventura Lakes",
      "countryCode": "US",
      "stateCode": "FL",
      "latitude": "28.33584000",
      "longitude": "-81.35313000"
   },
   {
      "name": "Bunche Park",
      "countryCode": "US",
      "stateCode": "FL",
      "latitude": "25.92065000",
      "longitude": "-80.23699000"
   },
   {
      "name": "Bunnell",
      "countryCode": "US",
      "stateCode": "FL",
      "latitude": "29.46609000",
      "longitude": "-81.25784000"
   },
   {
      "name": "Burnt Store Marina",
      "countryCode": "US",
      "stateCode": "FL",
      "latitude": "26.76507000",
      "longitude": "-82.05092000"
   },
   {
      "name": "Bushnell",
      "countryCode": "US",
      "stateCode": "FL",
      "latitude": "28.66499000",
      "longitude": "-82.11286000"
   },
   {
      "name": "Butler Beach",
      "countryCode": "US",
      "stateCode": "FL",
      "latitude": "29.79830000",
      "longitude": "-81.26701000"
   },
   {
      "name": "Calhoun County",
      "countryCode": "US",
      "stateCode": "FL",
      "latitude": "30.40603000",
      "longitude": "-85.19721000"
   },
   {
      "name": "Callahan",
      "countryCode": "US",
      "stateCode": "FL",
      "latitude": "30.56218000",
      "longitude": "-81.83066000"
   },
   {
      "name": "Callaway",
      "countryCode": "US",
      "stateCode": "FL",
      "latitude": "30.15298000",
      "longitude": "-85.56993000"
   },
   {
      "name": "Campbell",
      "countryCode": "US",
      "stateCode": "FL",
      "latitude": "28.25890000",
      "longitude": "-81.45646000"
   },
   {
      "name": "Cantonment",
      "countryCode": "US",
      "stateCode": "FL",
      "latitude": "30.60853000",
      "longitude": "-87.33998000"
   },
   {
      "name": "Cape Canaveral",
      "countryCode": "US",
      "stateCode": "FL",
      "latitude": "28.40584000",
      "longitude": "-80.60477000"
   },
   {
      "name": "Cape Coral",
      "countryCode": "US",
      "stateCode": "FL",
      "latitude": "26.56285000",
      "longitude": "-81.94953000"
   },
   {
      "name": "Carol City",
      "countryCode": "US",
      "stateCode": "FL",
      "latitude": "25.94065000",
      "longitude": "-80.24560000"
   },
   {
      "name": "Carrabelle",
      "countryCode": "US",
      "stateCode": "FL",
      "latitude": "29.85326000",
      "longitude": "-84.66435000"
   },
   {
      "name": "Carrollwood",
      "countryCode": "US",
      "stateCode": "FL",
      "latitude": "28.05002000",
      "longitude": "-82.49287000"
   },
   {
      "name": "Carrollwood Village",
      "countryCode": "US",
      "stateCode": "FL",
      "latitude": "28.06752000",
      "longitude": "-82.52093000"
   },
   {
      "name": "Carver Ranches",
      "countryCode": "US",
      "stateCode": "FL",
      "latitude": "25.98842000",
      "longitude": "-80.19227000"
   },
   {
      "name": "Casselberry",
      "countryCode": "US",
      "stateCode": "FL",
      "latitude": "28.67778000",
      "longitude": "-81.32785000"
   },
   {
      "name": "Cedar Grove",
      "countryCode": "US",
      "stateCode": "FL",
      "latitude": "30.17103000",
      "longitude": "-85.62520000"
   },
   {
      "name": "Celebration",
      "countryCode": "US",
      "stateCode": "FL",
      "latitude": "28.32529000",
      "longitude": "-81.53313000"
   },
   {
      "name": "Center Hill",
      "countryCode": "US",
      "stateCode": "FL",
      "latitude": "28.64999000",
      "longitude": "-81.99258000"
   },
   {
      "name": "Century",
      "countryCode": "US",
      "stateCode": "FL",
      "latitude": "30.97324000",
      "longitude": "-87.26386000"
   },
   {
      "name": "Charlotte County",
      "countryCode": "US",
      "stateCode": "FL",
      "latitude": "26.89985000",
      "longitude": "-81.95031000"
   },
   {
      "name": "Charlotte Harbor",
      "countryCode": "US",
      "stateCode": "FL",
      "latitude": "26.95839000",
      "longitude": "-82.06703000"
   },
   {
      "name": "Charlotte Park",
      "countryCode": "US",
      "stateCode": "FL",
      "latitude": "26.91006000",
      "longitude": "-82.05398000"
   },
   {
      "name": "Chattahoochee",
      "countryCode": "US",
      "stateCode": "FL",
      "latitude": "30.70546000",
      "longitude": "-84.84574000"
   },
   {
      "name": "Cheval",
      "countryCode": "US",
      "stateCode": "FL",
      "latitude": "28.14862000",
      "longitude": "-82.51454000"
   },
   {
      "name": "Chiefland",
      "countryCode": "US",
      "stateCode": "FL",
      "latitude": "29.47496000",
      "longitude": "-82.85984000"
   },
   {
      "name": "Chipley",
      "countryCode": "US",
      "stateCode": "FL",
      "latitude": "30.78186000",
      "longitude": "-85.53854000"
   },
   {
      "name": "Christmas",
      "countryCode": "US",
      "stateCode": "FL",
      "latitude": "28.53639000",
      "longitude": "-81.01756000"
   },
   {
      "name": "Chuluota",
      "countryCode": "US",
      "stateCode": "FL",
      "latitude": "28.64194000",
      "longitude": "-81.12340000"
   },
   {
      "name": "Citra",
      "countryCode": "US",
      "stateCode": "FL",
      "latitude": "29.41192000",
      "longitude": "-82.10982000"
   },
   {
      "name": "Citrus County",
      "countryCode": "US",
      "stateCode": "FL",
      "latitude": "28.84757000",
      "longitude": "-82.52011000"
   },
   {
      "name": "Citrus Hills",
      "countryCode": "US",
      "stateCode": "FL",
      "latitude": "28.88831000",
      "longitude": "-82.43260000"
   },
   {
      "name": "Citrus Park",
      "countryCode": "US",
      "stateCode": "FL",
      "latitude": "28.07835000",
      "longitude": "-82.56982000"
   },
   {
      "name": "Citrus Ridge",
      "countryCode": "US",
      "stateCode": "FL",
      "latitude": "28.33385000",
      "longitude": "-81.64232000"
   },
   {
      "name": "Citrus Springs",
      "countryCode": "US",
      "stateCode": "FL",
      "latitude": "28.99748000",
      "longitude": "-82.47065000"
   },
   {
      "name": "Clarcona",
      "countryCode": "US",
      "stateCode": "FL",
      "latitude": "28.61278000",
      "longitude": "-81.49868000"
   },
   {
      "name": "Clay County",
      "countryCode": "US",
      "stateCode": "FL",
      "latitude": "29.98307000",
      "longitude": "-81.85789000"
   },
   {
      "name": "Clearwater",
      "countryCode": "US",
      "stateCode": "FL",
      "latitude": "27.96585000",
      "longitude": "-82.80010000"
   },
   {
      "name": "Clermont",
      "countryCode": "US",
      "stateCode": "FL",
      "latitude": "28.54944000",
      "longitude": "-81.77285000"
   },
   {
      "name": "Cleveland",
      "countryCode": "US",
      "stateCode": "FL",
      "latitude": "26.96173000",
      "longitude": "-81.98398000"
   },
   {
      "name": "Clewiston",
      "countryCode": "US",
      "stateCode": "FL",
      "latitude": "26.75423000",
      "longitude": "-80.93368000"
   },
   {
      "name": "Cocoa",
      "countryCode": "US",
      "stateCode": "FL",
      "latitude": "28.38612000",
      "longitude": "-80.74200000"
   },
   {
      "name": "Cocoa Beach",
      "countryCode": "US",
      "stateCode": "FL",
      "latitude": "28.32055000",
      "longitude": "-80.60922000"
   },
   {
      "name": "Cocoa West",
      "countryCode": "US",
      "stateCode": "FL",
      "latitude": "28.35942000",
      "longitude": "-80.77109000"
   },
   {
      "name": "Coconut Creek",
      "countryCode": "US",
      "stateCode": "FL",
      "latitude": "26.25175000",
      "longitude": "-80.17894000"
   },
   {
      "name": "Coconut Grove",
      "countryCode": "US",
      "stateCode": "FL",
      "latitude": "25.71260000",
      "longitude": "-80.25699000"
   },
   {
      "name": "Collier County",
      "countryCode": "US",
      "stateCode": "FL",
      "latitude": "26.09924000",
      "longitude": "-81.38097000"
   },
   {
      "name": "Columbia County",
      "countryCode": "US",
      "stateCode": "FL",
      "latitude": "30.22424000",
      "longitude": "-82.62154000"
   },
   {
      "name": "Combee Settlement",
      "countryCode": "US",
      "stateCode": "FL",
      "latitude": "28.05835000",
      "longitude": "-81.90536000"
   },
   {
      "name": "Connerton",
      "countryCode": "US",
      "stateCode": "FL",
      "latitude": "28.31441000",
      "longitude": "-82.47539000"
   },
   {
      "name": "Conway",
      "countryCode": "US",
      "stateCode": "FL",
      "latitude": "28.50278000",
      "longitude": "-81.33062000"
   },
   {
      "name": "Cooper City",
      "countryCode": "US",
      "stateCode": "FL",
      "latitude": "26.05731000",
      "longitude": "-80.27172000"
   },
   {
      "name": "Coral Gables",
      "countryCode": "US",
      "stateCode": "FL",
      "latitude": "25.72149000",
      "longitude": "-80.26838000"
   },
   {
      "name": "Coral Springs",
      "countryCode": "US",
      "stateCode": "FL",
      "latitude": "26.27119000",
      "longitude": "-80.27060000"
   },
   {
      "name": "Coral Terrace",
      "countryCode": "US",
      "stateCode": "FL",
      "latitude": "25.74593000",
      "longitude": "-80.30450000"
   },
   {
      "name": "Cortez",
      "countryCode": "US",
      "stateCode": "FL",
      "latitude": "27.46921000",
      "longitude": "-82.68621000"
   },
   {
      "name": "Country Club",
      "countryCode": "US",
      "stateCode": "FL",
      "latitude": "25.94815000",
      "longitude": "-80.31700000"
   },
   {
      "name": "Country Walk",
      "countryCode": "US",
      "stateCode": "FL",
      "latitude": "25.63399000",
      "longitude": "-80.43228000"
   },
   {
      "name": "Crawfordville",
      "countryCode": "US",
      "stateCode": "FL",
      "latitude": "30.17604000",
      "longitude": "-84.37518000"
   },
   {
      "name": "Crescent City",
      "countryCode": "US",
      "stateCode": "FL",
      "latitude": "29.43025000",
      "longitude": "-81.51063000"
   },
   {
      "name": "Crestview",
      "countryCode": "US",
      "stateCode": "FL",
      "latitude": "30.76213000",
      "longitude": "-86.57051000"
   },
   {
      "name": "Crooked Lake Park",
      "countryCode": "US",
      "stateCode": "FL",
      "latitude": "27.82919000",
      "longitude": "-81.58397000"
   },
   {
      "name": "Cross City",
      "countryCode": "US",
      "stateCode": "FL",
      "latitude": "29.63465000",
      "longitude": "-83.12694000"
   },
   {
      "name": "Crystal Lake",
      "countryCode": "US",
      "stateCode": "FL",
      "latitude": "28.03558000",
      "longitude": "-81.90841000"
   },
   {
      "name": "Crystal River",
      "countryCode": "US",
      "stateCode": "FL",
      "latitude": "28.90248000",
      "longitude": "-82.59260000"
   },
   {
      "name": "Crystal Springs",
      "countryCode": "US",
      "stateCode": "FL",
      "latitude": "28.18140000",
      "longitude": "-82.15758000"
   },
   {
      "name": "Cudjoe Key",
      "countryCode": "US",
      "stateCode": "FL",
      "latitude": "24.67153000",
      "longitude": "-81.49842000"
   },
   {
      "name": "Cutler",
      "countryCode": "US",
      "stateCode": "FL",
      "latitude": "25.61510000",
      "longitude": "-80.31061000"
   },
   {
      "name": "Cutler Bay",
      "countryCode": "US",
      "stateCode": "FL",
      "latitude": "25.57830000",
      "longitude": "-80.33770000"
   },
   {
      "name": "Cutler Ridge",
      "countryCode": "US",
      "stateCode": "FL",
      "latitude": "25.58066000",
      "longitude": "-80.34672000"
   },
   {
      "name": "Cypress Gardens",
      "countryCode": "US",
      "stateCode": "FL",
      "latitude": "27.99391000",
      "longitude": "-81.69008000"
   },
   {
      "name": "Cypress Lake",
      "countryCode": "US",
      "stateCode": "FL",
      "latitude": "26.53813000",
      "longitude": "-81.89925000"
   },
   {
      "name": "Cypress Quarters",
      "countryCode": "US",
      "stateCode": "FL",
      "latitude": "27.25199000",
      "longitude": "-80.81395000"
   },
   {
      "name": "Dade City",
      "countryCode": "US",
      "stateCode": "FL",
      "latitude": "28.36472000",
      "longitude": "-82.19592000"
   },
   {
      "name": "Dade City North",
      "countryCode": "US",
      "stateCode": "FL",
      "latitude": "28.38334000",
      "longitude": "-82.19389000"
   },
   {
      "name": "Dania Beach",
      "countryCode": "US",
      "stateCode": "FL",
      "latitude": "26.05231000",
      "longitude": "-80.14393000"
   },
   {
      "name": "Davenport",
      "countryCode": "US",
      "stateCode": "FL",
      "latitude": "28.16140000",
      "longitude": "-81.60174000"
   },
   {
      "name": "Davie",
      "countryCode": "US",
      "stateCode": "FL",
      "latitude": "26.06287000",
      "longitude": "-80.23310000"
   },
   {
      "name": "Daytona Beach",
      "countryCode": "US",
      "stateCode": "FL",
      "latitude": "29.21081000",
      "longitude": "-81.02283000"
   },
   {
      "name": "Daytona Beach Shores",
      "countryCode": "US",
      "stateCode": "FL",
      "latitude": "29.17609000",
      "longitude": "-80.98283000"
   },
   {
      "name": "De Land Southwest",
      "countryCode": "US",
      "stateCode": "FL",
      "latitude": "29.00770000",
      "longitude": "-81.31129000"
   },
   {
      "name": "De Leon Springs",
      "countryCode": "US",
      "stateCode": "FL",
      "latitude": "29.11989000",
      "longitude": "-81.35286000"
   },
   {
      "name": "DeBary",
      "countryCode": "US",
      "stateCode": "FL",
      "latitude": "28.88305000",
      "longitude": "-81.30868000"
   },
   {
      "name": "DeFuniak Springs",
      "countryCode": "US",
      "stateCode": "FL",
      "latitude": "30.72102000",
      "longitude": "-86.11522000"
   },
   {
      "name": "DeLand",
      "countryCode": "US",
      "stateCode": "FL",
      "latitude": "29.02832000",
      "longitude": "-81.30312000"
   },
   {
      "name": "DeSoto County",
      "countryCode": "US",
      "stateCode": "FL",
      "latitude": "27.18632000",
      "longitude": "-81.80930000"
   },
   {
      "name": "Deerfield Beach",
      "countryCode": "US",
      "stateCode": "FL",
      "latitude": "26.31841000",
      "longitude": "-80.09977000"
   },
   {
      "name": "Delray Beach",
      "countryCode": "US",
      "stateCode": "FL",
      "latitude": "26.46146000",
      "longitude": "-80.07282000"
   },
   {
      "name": "Deltona",
      "countryCode": "US",
      "stateCode": "FL",
      "latitude": "28.90054000",
      "longitude": "-81.26367000"
   },
   {
      "name": "Desoto Lakes",
      "countryCode": "US",
      "stateCode": "FL",
      "latitude": "27.37143000",
      "longitude": "-82.48982000"
   },
   {
      "name": "Destin",
      "countryCode": "US",
      "stateCode": "FL",
      "latitude": "30.39353000",
      "longitude": "-86.49578000"
   },
   {
      "name": "Dixie County",
      "countryCode": "US",
      "stateCode": "FL",
      "latitude": "29.58124000",
      "longitude": "-83.18703000"
   },
   {
      "name": "Doctor Phillips",
      "countryCode": "US",
      "stateCode": "FL",
      "latitude": "28.44945000",
      "longitude": "-81.49229000"
   },
   {
      "name": "Doral",
      "countryCode": "US",
      "stateCode": "FL",
      "latitude": "25.81954000",
      "longitude": "-80.35533000"
   },
   {
      "name": "Dover",
      "countryCode": "US",
      "stateCode": "FL",
      "latitude": "27.99419000",
      "longitude": "-82.21953000"
   },
   {
      "name": "Dundee",
      "countryCode": "US",
      "stateCode": "FL",
      "latitude": "28.02252000",
      "longitude": "-81.61924000"
   },
   {
      "name": "Dunedin",
      "countryCode": "US",
      "stateCode": "FL",
      "latitude": "28.01990000",
      "longitude": "-82.77323000"
   },
   {
      "name": "Dunnellon",
      "countryCode": "US",
      "stateCode": "FL",
      "latitude": "29.04914000",
      "longitude": "-82.46093000"
   },
   {
      "name": "Duval County",
      "countryCode": "US",
      "stateCode": "FL",
      "latitude": "30.33544000",
      "longitude": "-81.64801000"
   },
   {
      "name": "Eagle Lake",
      "countryCode": "US",
      "stateCode": "FL",
      "latitude": "27.97836000",
      "longitude": "-81.75647000"
   },
   {
      "name": "East Bronson",
      "countryCode": "US",
      "stateCode": "FL",
      "latitude": "29.45928000",
      "longitude": "-82.59040000"
   },
   {
      "name": "East Lake",
      "countryCode": "US",
      "stateCode": "FL",
      "latitude": "28.11085000",
      "longitude": "-82.69482000"
   },
   {
      "name": "East Lake-Orient Park",
      "countryCode": "US",
      "stateCode": "FL",
      "latitude": "27.98269000",
      "longitude": "-82.37878000"
   },
   {
      "name": "East Milton",
      "countryCode": "US",
      "stateCode": "FL",
      "latitude": "30.61519000",
      "longitude": "-87.02163000"
   },
   {
      "name": "East Naples",
      "countryCode": "US",
      "stateCode": "FL",
      "latitude": "26.13842000",
      "longitude": "-81.76648000"
   },
   {
      "name": "East Palatka",
      "countryCode": "US",
      "stateCode": "FL",
      "latitude": "29.65830000",
      "longitude": "-81.59841000"
   },
   {
      "name": "East Pensacola Heights",
      "countryCode": "US",
      "stateCode": "FL",
      "latitude": "30.42881000",
      "longitude": "-87.17997000"
   },
   {
      "name": "East Perrine",
      "countryCode": "US",
      "stateCode": "FL",
      "latitude": "25.60872000",
      "longitude": "-80.33894000"
   },
   {
      "name": "Eastpoint",
      "countryCode": "US",
      "stateCode": "FL",
      "latitude": "29.73660000",
      "longitude": "-84.87852000"
   },
   {
      "name": "Eatonville",
      "countryCode": "US",
      "stateCode": "FL",
      "latitude": "28.61472000",
      "longitude": "-81.38062000"
   },
   {
      "name": "Edgewater",
      "countryCode": "US",
      "stateCode": "FL",
      "latitude": "28.98888000",
      "longitude": "-80.90228000"
   },
   {
      "name": "Edgewood",
      "countryCode": "US",
      "stateCode": "FL",
      "latitude": "28.48612000",
      "longitude": "-81.37229000"
   },
   {
      "name": "Eglin Air Force Base",
      "countryCode": "US",
      "stateCode": "FL",
      "latitude": "30.45907000",
      "longitude": "-86.55026000"
   },
   {
      "name": "Eglin Village",
      "countryCode": "US",
      "stateCode": "FL",
      "latitude": "30.46298000",
      "longitude": "-86.53940000"
   },
   {
      "name": "Egypt Lake-Leto",
      "countryCode": "US",
      "stateCode": "FL",
      "latitude": "28.01769000",
      "longitude": "-82.50619000"
   },
   {
      "name": "El Portal",
      "countryCode": "US",
      "stateCode": "FL",
      "latitude": "25.85537000",
      "longitude": "-80.19310000"
   },
   {
      "name": "Elfers",
      "countryCode": "US",
      "stateCode": "FL",
      "latitude": "28.21668000",
      "longitude": "-82.72232000"
   },
   {
      "name": "Ellenton",
      "countryCode": "US",
      "stateCode": "FL",
      "latitude": "27.52171000",
      "longitude": "-82.52760000"
   },
   {
      "name": "Englewood",
      "countryCode": "US",
      "stateCode": "FL",
      "latitude": "26.96201000",
      "longitude": "-82.35260000"
   },
   {
      "name": "Ensley",
      "countryCode": "US",
      "stateCode": "FL",
      "latitude": "30.51881000",
      "longitude": "-87.27275000"
   },
   {
      "name": "Escambia County",
      "countryCode": "US",
      "stateCode": "FL",
      "latitude": "30.61440000",
      "longitude": "-87.34136000"
   },
   {
      "name": "Estero",
      "countryCode": "US",
      "stateCode": "FL",
      "latitude": "26.43814000",
      "longitude": "-81.80675000"
   },
   {
      "name": "Eustis",
      "countryCode": "US",
      "stateCode": "FL",
      "latitude": "28.85277000",
      "longitude": "-81.68535000"
   },
   {
      "name": "Fairview Shores",
      "countryCode": "US",
      "stateCode": "FL",
      "latitude": "28.59111000",
      "longitude": "-81.39424000"
   },
   {
      "name": "Feather Sound",
      "countryCode": "US",
      "stateCode": "FL",
      "latitude": "27.90079000",
      "longitude": "-82.67349000"
   },
   {
      "name": "Fellsmere",
      "countryCode": "US",
      "stateCode": "FL",
      "latitude": "27.76781000",
      "longitude": "-80.60144000"
   },
   {
      "name": "Fern Park",
      "countryCode": "US",
      "stateCode": "FL",
      "latitude": "28.64916000",
      "longitude": "-81.35118000"
   },
   {
      "name": "Fernandina Beach",
      "countryCode": "US",
      "stateCode": "FL",
      "latitude": "30.66968000",
      "longitude": "-81.46259000"
   },
   {
      "name": "Ferry Pass",
      "countryCode": "US",
      "stateCode": "FL",
      "latitude": "30.51020000",
      "longitude": "-87.21247000"
   },
   {
      "name": "Fish Hawk",
      "countryCode": "US",
      "stateCode": "FL",
      "latitude": "27.85058000",
      "longitude": "-82.21092000"
   },
   {
      "name": "Five Points",
      "countryCode": "US",
      "stateCode": "FL",
      "latitude": "30.20912000",
      "longitude": "-82.63735000"
   },
   {
      "name": "Flagami",
      "countryCode": "US",
      "stateCode": "FL",
      "latitude": "25.76232000",
      "longitude": "-80.31616000"
   },
   {
      "name": "Flagler Beach",
      "countryCode": "US",
      "stateCode": "FL",
      "latitude": "29.47498000",
      "longitude": "-81.12700000"
   },
   {
      "name": "Flagler County",
      "countryCode": "US",
      "stateCode": "FL",
      "latitude": "29.47115000",
      "longitude": "-81.29299000"
   },
   {
      "name": "Flagler Estates",
      "countryCode": "US",
      "stateCode": "FL",
      "latitude": "29.64553000",
      "longitude": "-81.45700000"
   },
   {
      "name": "Fleming Island",
      "countryCode": "US",
      "stateCode": "FL",
      "latitude": "30.09330000",
      "longitude": "-81.71898000"
   },
   {
      "name": "Floral City",
      "countryCode": "US",
      "stateCode": "FL",
      "latitude": "28.74999000",
      "longitude": "-82.29676000"
   },
   {
      "name": "Florida City",
      "countryCode": "US",
      "stateCode": "FL",
      "latitude": "25.44789000",
      "longitude": "-80.47922000"
   },
   {
      "name": "Florida Ridge",
      "countryCode": "US",
      "stateCode": "FL",
      "latitude": "27.58031000",
      "longitude": "-80.38672000"
   },
   {
      "name": "Forest City",
      "countryCode": "US",
      "stateCode": "FL",
      "latitude": "28.66678000",
      "longitude": "-81.44334000"
   },
   {
      "name": "Fort Lauderdale",
      "countryCode": "US",
      "stateCode": "FL",
      "latitude": "26.12231000",
      "longitude": "-80.14338000"
   },
   {
      "name": "Fort Meade",
      "countryCode": "US",
      "stateCode": "FL",
      "latitude": "27.75225000",
      "longitude": "-81.80175000"
   },
   {
      "name": "Fort Myers",
      "countryCode": "US",
      "stateCode": "FL",
      "latitude": "26.62168000",
      "longitude": "-81.84059000"
   },
   {
      "name": "Fort Myers Beach",
      "countryCode": "US",
      "stateCode": "FL",
      "latitude": "26.45271000",
      "longitude": "-81.95011000"
   },
   {
      "name": "Fort Myers Shores",
      "countryCode": "US",
      "stateCode": "FL",
      "latitude": "26.70924000",
      "longitude": "-81.74592000"
   },
   {
      "name": "Fort Pierce",
      "countryCode": "US",
      "stateCode": "FL",
      "latitude": "27.44671000",
      "longitude": "-80.32561000"
   },
   {
      "name": "Fort Pierce North",
      "countryCode": "US",
      "stateCode": "FL",
      "latitude": "27.47364000",
      "longitude": "-80.35930000"
   },
   {
      "name": "Fort Pierce South",
      "countryCode": "US",
      "stateCode": "FL",
      "latitude": "27.40962000",
      "longitude": "-80.35483000"
   },
   {
      "name": "Fort Walton Beach",
      "countryCode": "US",
      "stateCode": "FL",
      "latitude": "30.42059000",
      "longitude": "-86.61707000"
   },
   {
      "name": "Fountainebleau",
      "countryCode": "US",
      "stateCode": "FL",
      "latitude": "25.77288000",
      "longitude": "-80.34783000"
   },
   {
      "name": "Four Corners",
      "countryCode": "US",
      "stateCode": "FL",
      "latitude": "28.33287000",
      "longitude": "-81.64738000"
   },
   {
      "name": "Franklin County",
      "countryCode": "US",
      "stateCode": "FL",
      "latitude": "29.81168000",
      "longitude": "-84.80046000"
   },
   {
      "name": "Freeport",
      "countryCode": "US",
      "stateCode": "FL",
      "latitude": "30.49825000",
      "longitude": "-86.13605000"
   },
   {
      "name": "Frostproof",
      "countryCode": "US",
      "stateCode": "FL",
      "latitude": "27.74586000",
      "longitude": "-81.53063000"
   },
   {
      "name": "Fruit Cove",
      "countryCode": "US",
      "stateCode": "FL",
      "latitude": "30.11107000",
      "longitude": "-81.64176000"
   },
   {
      "name": "Fruitland Park",
      "countryCode": "US",
      "stateCode": "FL",
      "latitude": "28.86138000",
      "longitude": "-81.90647000"
   },
   {
      "name": "Fruitville",
      "countryCode": "US",
      "stateCode": "FL",
      "latitude": "27.32977000",
      "longitude": "-82.45760000"
   },
   {
      "name": "Fuller Heights",
      "countryCode": "US",
      "stateCode": "FL",
      "latitude": "27.90919000",
      "longitude": "-81.99814000"
   },
   {
      "name": "Fussels Corner",
      "countryCode": "US",
      "stateCode": "FL",
      "latitude": "28.05419000",
      "longitude": "-81.86064000"
   },
   {
      "name": "Gadsden County",
      "countryCode": "US",
      "stateCode": "FL",
      "latitude": "30.57947000",
      "longitude": "-84.61360000"
   },
   {
      "name": "Gainesville",
      "countryCode": "US",
      "stateCode": "FL",
      "latitude": "29.65163000",
      "longitude": "-82.32483000"
   },
   {
      "name": "Gandy",
      "countryCode": "US",
      "stateCode": "FL",
      "latitude": "27.86850000",
      "longitude": "-82.61612000"
   },
   {
      "name": "Gateway",
      "countryCode": "US",
      "stateCode": "FL",
      "latitude": "26.57757000",
      "longitude": "-81.75036000"
   },
   {
      "name": "Geneva",
      "countryCode": "US",
      "stateCode": "FL",
      "latitude": "28.73972000",
      "longitude": "-81.11506000"
   },
   {
      "name": "Gibsonia",
      "countryCode": "US",
      "stateCode": "FL",
      "latitude": "28.11474000",
      "longitude": "-81.97369000"
   },
   {
      "name": "Gibsonton",
      "countryCode": "US",
      "stateCode": "FL",
      "latitude": "27.85364000",
      "longitude": "-82.38259000"
   },
   {
      "name": "Gifford",
      "countryCode": "US",
      "stateCode": "FL",
      "latitude": "27.67531000",
      "longitude": "-80.40922000"
   },
   {
      "name": "Gilchrist County",
      "countryCode": "US",
      "stateCode": "FL",
      "latitude": "29.72582000",
      "longitude": "-82.80037000"
   },
   {
      "name": "Glades County",
      "countryCode": "US",
      "stateCode": "FL",
      "latitude": "26.95648000",
      "longitude": "-81.18898000"
   },
   {
      "name": "Gladeview",
      "countryCode": "US",
      "stateCode": "FL",
      "latitude": "25.83926000",
      "longitude": "-80.23560000"
   },
   {
      "name": "Glencoe",
      "countryCode": "US",
      "stateCode": "FL",
      "latitude": "29.02582000",
      "longitude": "-80.97200000"
   },
   {
      "name": "Glenvar Heights",
      "countryCode": "US",
      "stateCode": "FL",
      "latitude": "25.70760000",
      "longitude": "-80.32561000"
   },
   {
      "name": "Golden Gate",
      "countryCode": "US",
      "stateCode": "FL",
      "latitude": "26.18787000",
      "longitude": "-81.69509000"
   },
   {
      "name": "Golden Glades",
      "countryCode": "US",
      "stateCode": "FL",
      "latitude": "25.91176000",
      "longitude": "-80.20033000"
   },
   {
      "name": "Goldenrod",
      "countryCode": "US",
      "stateCode": "FL",
      "latitude": "28.61028000",
      "longitude": "-81.28868000"
   },
   {
      "name": "Gonzalez",
      "countryCode": "US",
      "stateCode": "FL",
      "latitude": "30.58158000",
      "longitude": "-87.29136000"
   },
   {
      "name": "Gotha",
      "countryCode": "US",
      "stateCode": "FL",
      "latitude": "28.52778000",
      "longitude": "-81.52313000"
   },
   {
      "name": "Goulding",
      "countryCode": "US",
      "stateCode": "FL",
      "latitude": "30.44298000",
      "longitude": "-87.22247000"
   },
   {
      "name": "Goulds",
      "countryCode": "US",
      "stateCode": "FL",
      "latitude": "25.56261000",
      "longitude": "-80.38228000"
   },
   {
      "name": "Graceville",
      "countryCode": "US",
      "stateCode": "FL",
      "latitude": "30.95685000",
      "longitude": "-85.51660000"
   },
   {
      "name": "Grant-Valkaria",
      "countryCode": "US",
      "stateCode": "FL",
      "latitude": "27.93980000",
      "longitude": "-80.57104000"
   },
   {
      "name": "Greater Northdale",
      "countryCode": "US",
      "stateCode": "FL",
      "latitude": "28.10545000",
      "longitude": "-82.52594000"
   },
   {
      "name": "Green Cove Springs",
      "countryCode": "US",
      "stateCode": "FL",
      "latitude": "29.99191000",
      "longitude": "-81.67815000"
   },
   {
      "name": "Greenacres City",
      "countryCode": "US",
      "stateCode": "FL",
      "latitude": "26.62368000",
      "longitude": "-80.12532000"
   },
   {
      "name": "Greenbriar",
      "countryCode": "US",
      "stateCode": "FL",
      "latitude": "28.01128000",
      "longitude": "-82.75272000"
   },
   {
      "name": "Gretna",
      "countryCode": "US",
      "stateCode": "FL",
      "latitude": "30.61714000",
      "longitude": "-84.65991000"
   },
   {
      "name": "Grove City",
      "countryCode": "US",
      "stateCode": "FL",
      "latitude": "26.91423000",
      "longitude": "-82.32704000"
   },
   {
      "name": "Groveland",
      "countryCode": "US",
      "stateCode": "FL",
      "latitude": "28.55805000",
      "longitude": "-81.85119000"
   },
   {
      "name": "Gulf Breeze",
      "countryCode": "US",
      "stateCode": "FL",
      "latitude": "30.35714000",
      "longitude": "-87.16386000"
   },
   {
      "name": "Gulf County",
      "countryCode": "US",
      "stateCode": "FL",
      "latitude": "29.90862000",
      "longitude": "-85.26101000"
   },
   {
      "name": "Gulf Gate Estates",
      "countryCode": "US",
      "stateCode": "FL",
      "latitude": "27.25173000",
      "longitude": "-82.51471000"
   },
   {
      "name": "Gulfport",
      "countryCode": "US",
      "stateCode": "FL",
      "latitude": "27.74836000",
      "longitude": "-82.70343000"
   },
   {
      "name": "Haines City",
      "countryCode": "US",
      "stateCode": "FL",
      "latitude": "28.11450000",
      "longitude": "-81.62009000"
   },
   {
      "name": "Hallandale Beach",
      "countryCode": "US",
      "stateCode": "FL",
      "latitude": "25.98120000",
      "longitude": "-80.14838000"
   },
   {
      "name": "Hamilton County",
      "countryCode": "US",
      "stateCode": "FL",
      "latitude": "30.49643000",
      "longitude": "-82.94796000"
   },
   {
      "name": "Harbor Bluffs",
      "countryCode": "US",
      "stateCode": "FL",
      "latitude": "27.90947000",
      "longitude": "-82.82760000"
   },
   {
      "name": "Harbour Heights",
      "countryCode": "US",
      "stateCode": "FL",
      "latitude": "26.99089000",
      "longitude": "-82.00231000"
   },
   {
      "name": "Hardee County",
      "countryCode": "US",
      "stateCode": "FL",
      "latitude": "27.49270000",
      "longitude": "-81.80993000"
   },
   {
      "name": "Harlem",
      "countryCode": "US",
      "stateCode": "FL",
      "latitude": "26.73757000",
      "longitude": "-80.95090000"
   },
   {
      "name": "Harlem Heights",
      "countryCode": "US",
      "stateCode": "FL",
      "latitude": "26.51619000",
      "longitude": "-81.92787000"
   },
   {
      "name": "Havana",
      "countryCode": "US",
      "stateCode": "FL",
      "latitude": "30.62381000",
      "longitude": "-84.41463000"
   },
   {
      "name": "Haverhill",
      "countryCode": "US",
      "stateCode": "FL",
      "latitude": "26.69118000",
      "longitude": "-80.12004000"
   },
   {
      "name": "Hawthorne",
      "countryCode": "US",
      "stateCode": "FL",
      "latitude": "29.59191000",
      "longitude": "-82.08732000"
   },
   {
      "name": "Heathrow",
      "countryCode": "US",
      "stateCode": "FL",
      "latitude": "28.76333000",
      "longitude": "-81.37225000"
   },
   {
      "name": "Hendry County",
      "countryCode": "US",
      "stateCode": "FL",
      "latitude": "26.55349000",
      "longitude": "-81.16590000"
   },
   {
      "name": "Heritage Pines",
      "countryCode": "US",
      "stateCode": "FL",
      "latitude": "28.42522000",
      "longitude": "-82.62111000"
   },
   {
      "name": "Hernando",
      "countryCode": "US",
      "stateCode": "FL",
      "latitude": "28.89998000",
      "longitude": "-82.37454000"
   },
   {
      "name": "Hernando Beach",
      "countryCode": "US",
      "stateCode": "FL",
      "latitude": "28.46944000",
      "longitude": "-82.65927000"
   },
   {
      "name": "Hernando County",
      "countryCode": "US",
      "stateCode": "FL",
      "latitude": "28.55617000",
      "longitude": "-82.46849000"
   },
   {
      "name": "Hialeah",
      "countryCode": "US",
      "stateCode": "FL",
      "latitude": "25.85760000",
      "longitude": "-80.27811000"
   },
   {
      "name": "Hialeah Gardens",
      "countryCode": "US",
      "stateCode": "FL",
      "latitude": "25.86510000",
      "longitude": "-80.32450000"
   },
   {
      "name": "High Point",
      "countryCode": "US",
      "stateCode": "FL",
      "latitude": "28.54687000",
      "longitude": "-82.52468000"
   },
   {
      "name": "High Springs",
      "countryCode": "US",
      "stateCode": "FL",
      "latitude": "29.82691000",
      "longitude": "-82.59678000"
   },
   {
      "name": "Highland Beach",
      "countryCode": "US",
      "stateCode": "FL",
      "latitude": "26.39952000",
      "longitude": "-80.06560000"
   },
   {
      "name": "Highland City",
      "countryCode": "US",
      "stateCode": "FL",
      "latitude": "27.96530000",
      "longitude": "-81.87786000"
   },
   {
      "name": "Highlands County",
      "countryCode": "US",
      "stateCode": "FL",
      "latitude": "27.34340000",
      "longitude": "-81.34097000"
   },
   {
      "name": "Hiland Park",
      "countryCode": "US",
      "stateCode": "FL",
      "latitude": "30.20103000",
      "longitude": "-85.62687000"
   },
   {
      "name": "Hill 'n Dale",
      "countryCode": "US",
      "stateCode": "FL",
      "latitude": "28.51972000",
      "longitude": "-82.29926000"
   },
   {
      "name": "Hilliard",
      "countryCode": "US",
      "stateCode": "FL",
      "latitude": "30.69107000",
      "longitude": "-81.91733000"
   },
   {
      "name": "Hillsboro Beach",
      "countryCode": "US",
      "stateCode": "FL",
      "latitude": "26.29397000",
      "longitude": "-80.07893000"
   },
   {
      "name": "Hillsborough County",
      "countryCode": "US",
      "stateCode": "FL",
      "latitude": "27.90623000",
      "longitude": "-82.34692000"
   },
   {
      "name": "Hobe Sound",
      "countryCode": "US",
      "stateCode": "FL",
      "latitude": "27.05950000",
      "longitude": "-80.13643000"
   },
   {
      "name": "Holden Heights",
      "countryCode": "US",
      "stateCode": "FL",
      "latitude": "28.49667000",
      "longitude": "-81.38785000"
   },
   {
      "name": "Holiday",
      "countryCode": "US",
      "stateCode": "FL",
      "latitude": "28.18779000",
      "longitude": "-82.73955000"
   },
   {
      "name": "Holley",
      "countryCode": "US",
      "stateCode": "FL",
      "latitude": "30.44686000",
      "longitude": "-86.90691000"
   },
   {
      "name": "Holly Hill",
      "countryCode": "US",
      "stateCode": "FL",
      "latitude": "29.24359000",
      "longitude": "-81.03756000"
   },
   {
      "name": "Hollywood",
      "countryCode": "US",
      "stateCode": "FL",
      "latitude": "26.01120000",
      "longitude": "-80.14949000"
   },
   {
      "name": "Holmes Beach",
      "countryCode": "US",
      "stateCode": "FL",
      "latitude": "27.49532000",
      "longitude": "-82.71093000"
   },
   {
      "name": "Holmes County",
      "countryCode": "US",
      "stateCode": "FL",
      "latitude": "30.86789000",
      "longitude": "-85.81410000"
   },
   {
      "name": "Homestead",
      "countryCode": "US",
      "stateCode": "FL",
      "latitude": "25.46872000",
      "longitude": "-80.47756000"
   },
   {
      "name": "Homosassa",
      "countryCode": "US",
      "stateCode": "FL",
      "latitude": "28.78137000",
      "longitude": "-82.61510000"
   },
   {
      "name": "Homosassa Springs",
      "countryCode": "US",
      "stateCode": "FL",
      "latitude": "28.80359000",
      "longitude": "-82.57593000"
   },
   {
      "name": "Horizon West",
      "countryCode": "US",
      "stateCode": "FL",
      "latitude": "28.43383000",
      "longitude": "-81.62270000"
   },
   {
      "name": "Howey-in-the-Hills",
      "countryCode": "US",
      "stateCode": "FL",
      "latitude": "28.71694000",
      "longitude": "-81.77341000"
   },
   {
      "name": "Hudson",
      "countryCode": "US",
      "stateCode": "FL",
      "latitude": "28.36445000",
      "longitude": "-82.69343000"
   },
   {
      "name": "Hunters Creek",
      "countryCode": "US",
      "stateCode": "FL",
      "latitude": "28.36056000",
      "longitude": "-81.42229000"
   },
   {
      "name": "Hutchinson Island South",
      "countryCode": "US",
      "stateCode": "FL",
      "latitude": "27.29949000",
      "longitude": "-80.22045000"
   },
   {
      "name": "Hypoluxo",
      "countryCode": "US",
      "stateCode": "FL",
      "latitude": "26.56646000",
      "longitude": "-80.05337000"
   },
   {
      "name": "Immokalee",
      "countryCode": "US",
      "stateCode": "FL",
      "latitude": "26.41869000",
      "longitude": "-81.41730000"
   },
   {
      "name": "Indialantic",
      "countryCode": "US",
      "stateCode": "FL",
      "latitude": "28.08946000",
      "longitude": "-80.56561000"
   },
   {
      "name": "Indian Harbour Beach",
      "countryCode": "US",
      "stateCode": "FL",
      "latitude": "28.14890000",
      "longitude": "-80.58839000"
   },
   {
      "name": "Indian River County",
      "countryCode": "US",
      "stateCode": "FL",
      "latitude": "27.69639000",
      "longitude": "-80.57409000"
   },
   {
      "name": "Indian River Estates",
      "countryCode": "US",
      "stateCode": "FL",
      "latitude": "27.36449000",
      "longitude": "-80.30977000"
   },
   {
      "name": "Indian River Shores",
      "countryCode": "US",
      "stateCode": "FL",
      "latitude": "27.71670000",
      "longitude": "-80.38422000"
   },
   {
      "name": "Indian Rocks Beach",
      "countryCode": "US",
      "stateCode": "FL",
      "latitude": "27.87530000",
      "longitude": "-82.85122000"
   },
   {
      "name": "Indian Shores",
      "countryCode": "US",
      "stateCode": "FL",
      "latitude": "27.86280000",
      "longitude": "-82.84844000"
   },
   {
      "name": "Indiantown",
      "countryCode": "US",
      "stateCode": "FL",
      "latitude": "27.02728000",
      "longitude": "-80.48561000"
   },
   {
      "name": "Inglis",
      "countryCode": "US",
      "stateCode": "FL",
      "latitude": "29.03025000",
      "longitude": "-82.66872000"
   },
   {
      "name": "Interlachen",
      "countryCode": "US",
      "stateCode": "FL",
      "latitude": "29.62421000",
      "longitude": "-81.89256000"
   },
   {
      "name": "Inverness",
      "countryCode": "US",
      "stateCode": "FL",
      "latitude": "28.83582000",
      "longitude": "-82.33037000"
   },
   {
      "name": "Inverness Highlands North",
      "countryCode": "US",
      "stateCode": "FL",
      "latitude": "28.86420000",
      "longitude": "-82.37688000"
   },
   {
      "name": "Inverness Highlands South",
      "countryCode": "US",
      "stateCode": "FL",
      "latitude": "28.80055000",
      "longitude": "-82.33710000"
   },
   {
      "name": "Inwood",
      "countryCode": "US",
      "stateCode": "FL",
      "latitude": "28.03697000",
      "longitude": "-81.76508000"
   },
   {
      "name": "Iona",
      "countryCode": "US",
      "stateCode": "FL",
      "latitude": "26.52036000",
      "longitude": "-81.96398000"
   },
   {
      "name": "Islamorada",
      "countryCode": "US",
      "stateCode": "FL",
      "latitude": "24.92430000",
      "longitude": "-80.62784000"
   },
   {
      "name": "Island Walk",
      "countryCode": "US",
      "stateCode": "FL",
      "latitude": "26.25099000",
      "longitude": "-81.71101000"
   },
   {
      "name": "Isle of Normandy",
      "countryCode": "US",
      "stateCode": "FL",
      "latitude": "25.85287000",
      "longitude": "-80.13505000"
   },
   {
      "name": "Ives Estates",
      "countryCode": "US",
      "stateCode": "FL",
      "latitude": "25.96231000",
      "longitude": "-80.17671000"
   },
   {
      "name": "Jackson County",
      "countryCode": "US",
      "stateCode": "FL",
      "latitude": "30.79539000",
      "longitude": "-85.21546000"
   },
   {
      "name": "Jacksonville",
      "countryCode": "US",
      "stateCode": "FL",
      "latitude": "30.33218000",
      "longitude": "-81.65565000"
   },
   {
      "name": "Jacksonville Beach",
      "countryCode": "US",
      "stateCode": "FL",
      "latitude": "30.29469000",
      "longitude": "-81.39314000"
   },
   {
      "name": "Jan-Phyl Village",
      "countryCode": "US",
      "stateCode": "FL",
      "latitude": "28.01474000",
      "longitude": "-81.77175000"
   },
   {
      "name": "Jasmine Estates",
      "countryCode": "US",
      "stateCode": "FL",
      "latitude": "28.29306000",
      "longitude": "-82.69010000"
   },
   {
      "name": "Jasper",
      "countryCode": "US",
      "stateCode": "FL",
      "latitude": "30.51827000",
      "longitude": "-82.94819000"
   },
   {
      "name": "Jefferson County",
      "countryCode": "US",
      "stateCode": "FL",
      "latitude": "30.42346000",
      "longitude": "-83.90047000"
   },
   {
      "name": "Jensen Beach",
      "countryCode": "US",
      "stateCode": "FL",
      "latitude": "27.25449000",
      "longitude": "-80.22977000"
   },
   {
      "name": "June Park",
      "countryCode": "US",
      "stateCode": "FL",
      "latitude": "28.07224000",
      "longitude": "-80.68006000"
   },
   {
      "name": "Juno Beach",
      "countryCode": "US",
      "stateCode": "FL",
      "latitude": "26.87978000",
      "longitude": "-80.05337000"
   },
   {
      "name": "Jupiter",
      "countryCode": "US",
      "stateCode": "FL",
      "latitude": "26.93422000",
      "longitude": "-80.09421000"
   },
   {
      "name": "Kathleen",
      "countryCode": "US",
      "stateCode": "FL",
      "latitude": "28.12085000",
      "longitude": "-82.02314000"
   },
   {
      "name": "Kendale Lakes",
      "countryCode": "US",
      "stateCode": "FL",
      "latitude": "25.70816000",
      "longitude": "-80.40700000"
   },
   {
      "name": "Kendall",
      "countryCode": "US",
      "stateCode": "FL",
      "latitude": "25.67927000",
      "longitude": "-80.31727000"
   },
   {
      "name": "Kendall Green",
      "countryCode": "US",
      "stateCode": "FL",
      "latitude": "26.25397000",
      "longitude": "-80.12393000"
   },
   {
      "name": "Kendall West",
      "countryCode": "US",
      "stateCode": "FL",
      "latitude": "25.70650000",
      "longitude": "-80.43880000"
   },
   {
      "name": "Kenneth City",
      "countryCode": "US",
      "stateCode": "FL",
      "latitude": "27.81558000",
      "longitude": "-82.72010000"
   },
   {
      "name": "Kensington Park",
      "countryCode": "US",
      "stateCode": "FL",
      "latitude": "27.35949000",
      "longitude": "-82.49649000"
   },
   {
      "name": "Key Biscayne",
      "countryCode": "US",
      "stateCode": "FL",
      "latitude": "25.69371000",
      "longitude": "-80.16282000"
   },
   {
      "name": "Key Largo",
      "countryCode": "US",
      "stateCode": "FL",
      "latitude": "25.08652000",
      "longitude": "-80.44728000"
   },
   {
      "name": "Key Vista",
      "countryCode": "US",
      "stateCode": "FL",
      "latitude": "28.19470000",
      "longitude": "-82.77038000"
   },
   {
      "name": "Key West",
      "countryCode": "US",
      "stateCode": "FL",
      "latitude": "24.55524000",
      "longitude": "-81.78163000"
   },
   {
      "name": "Keystone",
      "countryCode": "US",
      "stateCode": "FL",
      "latitude": "28.15585000",
      "longitude": "-82.62121000"
   },
   {
      "name": "Keystone Heights",
      "countryCode": "US",
      "stateCode": "FL",
      "latitude": "29.78608000",
      "longitude": "-82.03149000"
   },
   {
      "name": "Kings Point",
      "countryCode": "US",
      "stateCode": "FL",
      "latitude": "26.44535000",
      "longitude": "-80.13977000"
   },
   {
      "name": "Kissimmee",
      "countryCode": "US",
      "stateCode": "FL",
      "latitude": "28.30468000",
      "longitude": "-81.41667000"
   },
   {
      "name": "LaBelle",
      "countryCode": "US",
      "stateCode": "FL",
      "latitude": "26.76173000",
      "longitude": "-81.43841000"
   },
   {
      "name": "Lacoochee",
      "countryCode": "US",
      "stateCode": "FL",
      "latitude": "28.46583000",
      "longitude": "-82.17203000"
   },
   {
      "name": "Lady Lake",
      "countryCode": "US",
      "stateCode": "FL",
      "latitude": "28.91749000",
      "longitude": "-81.92286000"
   },
   {
      "name": "Lafayette County",
      "countryCode": "US",
      "stateCode": "FL",
      "latitude": "29.98552000",
      "longitude": "-83.18107000"
   },
   {
      "name": "Laguna Beach",
      "countryCode": "US",
      "stateCode": "FL",
      "latitude": "30.23965000",
      "longitude": "-85.92410000"
   },
   {
      "name": "Lake Alfred",
      "countryCode": "US",
      "stateCode": "FL",
      "latitude": "28.09196000",
      "longitude": "-81.72341000"
   },
   {
      "name": "Lake Belvedere Estates",
      "countryCode": "US",
      "stateCode": "FL",
      "latitude": "26.68923000",
      "longitude": "-80.13338000"
   },
   {
      "name": "Lake Butler",
      "countryCode": "US",
      "stateCode": "FL",
      "latitude": "30.02274000",
      "longitude": "-82.33956000"
   },
   {
      "name": "Lake City",
      "countryCode": "US",
      "stateCode": "FL",
      "latitude": "30.18968000",
      "longitude": "-82.63929000"
   },
   {
      "name": "Lake Clarke Shores",
      "countryCode": "US",
      "stateCode": "FL",
      "latitude": "26.64534000",
      "longitude": "-80.07588000"
   },
   {
      "name": "Lake County",
      "countryCode": "US",
      "stateCode": "FL",
      "latitude": "28.76147000",
      "longitude": "-81.71130000"
   },
   {
      "name": "Lake Forest",
      "countryCode": "US",
      "stateCode": "FL",
      "latitude": "25.97759000",
      "longitude": "-80.18310000"
   },
   {
      "name": "Lake Hamilton",
      "countryCode": "US",
      "stateCode": "FL",
      "latitude": "28.04446000",
      "longitude": "-81.62785000"
   },
   {
      "name": "Lake Helen",
      "countryCode": "US",
      "stateCode": "FL",
      "latitude": "28.98082000",
      "longitude": "-81.23339000"
   },
   {
      "name": "Lake Lorraine",
      "countryCode": "US",
      "stateCode": "FL",
      "latitude": "30.44159000",
      "longitude": "-86.56523000"
   },
   {
      "name": "Lake Lucerne",
      "countryCode": "US",
      "stateCode": "FL",
      "latitude": "25.96509000",
      "longitude": "-80.24144000"
   },
   {
      "name": "Lake Mack-Forest Hills",
      "countryCode": "US",
      "stateCode": "FL",
      "latitude": "29.00074000",
      "longitude": "-81.42397000"
   },
   {
      "name": "Lake Magdalene",
      "countryCode": "US",
      "stateCode": "FL",
      "latitude": "28.07418000",
      "longitude": "-82.47176000"
   },
   {
      "name": "Lake Mary",
      "countryCode": "US",
      "stateCode": "FL",
      "latitude": "28.75888000",
      "longitude": "-81.31784000"
   },
   {
      "name": "Lake Panasoffkee",
      "countryCode": "US",
      "stateCode": "FL",
      "latitude": "28.75582000",
      "longitude": "-82.09481000"
   },
   {
      "name": "Lake Park",
      "countryCode": "US",
      "stateCode": "FL",
      "latitude": "26.80034000",
      "longitude": "-80.06643000"
   },
   {
      "name": "Lake Placid",
      "countryCode": "US",
      "stateCode": "FL",
      "latitude": "27.35197000",
      "longitude": "-81.32631000"
   },
   {
      "name": "Lake Sarasota",
      "countryCode": "US",
      "stateCode": "FL",
      "latitude": "27.29255000",
      "longitude": "-82.43760000"
   },
   {
      "name": "Lake Wales",
      "countryCode": "US",
      "stateCode": "FL",
      "latitude": "27.90141000",
      "longitude": "-81.58591000"
   },
   {
      "name": "Lake Worth",
      "countryCode": "US",
      "stateCode": "FL",
      "latitude": "26.61708000",
      "longitude": "-80.07231000"
   },
   {
      "name": "Lake Worth Corridor",
      "countryCode": "US",
      "stateCode": "FL",
      "latitude": "26.61649000",
      "longitude": "-80.10102000"
   },
   {
      "name": "Lakeland",
      "countryCode": "US",
      "stateCode": "FL",
      "latitude": "28.03947000",
      "longitude": "-81.94980000"
   },
   {
      "name": "Lakeland Highlands",
      "countryCode": "US",
      "stateCode": "FL",
      "latitude": "27.95975000",
      "longitude": "-81.95008000"
   },
   {
      "name": "Lakes by the Bay",
      "countryCode": "US",
      "stateCode": "FL",
      "latitude": "25.57233000",
      "longitude": "-80.32533000"
   },
   {
      "name": "Lakeside",
      "countryCode": "US",
      "stateCode": "FL",
      "latitude": "30.12996000",
      "longitude": "-81.76815000"
   },
   {
      "name": "Lakewood Park",
      "countryCode": "US",
      "stateCode": "FL",
      "latitude": "27.54309000",
      "longitude": "-80.40227000"
   },
   {
      "name": "Land O' Lakes",
      "countryCode": "US",
      "stateCode": "FL",
      "latitude": "28.21890000",
      "longitude": "-82.45759000"
   },
   {
      "name": "Lantana",
      "countryCode": "US",
      "stateCode": "FL",
      "latitude": "26.58674000",
      "longitude": "-80.05199000"
   },
   {
      "name": "Largo",
      "countryCode": "US",
      "stateCode": "FL",
      "latitude": "27.90979000",
      "longitude": "-82.78842000"
   },
   {
      "name": "Lauderdale Lakes",
      "countryCode": "US",
      "stateCode": "FL",
      "latitude": "26.16647000",
      "longitude": "-80.20838000"
   },
   {
      "name": "Lauderdale-by-the-Sea",
      "countryCode": "US",
      "stateCode": "FL",
      "latitude": "26.19203000",
      "longitude": "-80.09643000"
   },
   {
      "name": "Lauderhill",
      "countryCode": "US",
      "stateCode": "FL",
      "latitude": "26.14036000",
      "longitude": "-80.21338000"
   },
   {
      "name": "Laurel",
      "countryCode": "US",
      "stateCode": "FL",
      "latitude": "27.14378000",
      "longitude": "-82.46158000"
   },
   {
      "name": "Lealman",
      "countryCode": "US",
      "stateCode": "FL",
      "latitude": "27.82114000",
      "longitude": "-82.67927000"
   },
   {
      "name": "Lecanto",
      "countryCode": "US",
      "stateCode": "FL",
      "latitude": "28.85165000",
      "longitude": "-82.48760000"
   },
   {
      "name": "Lee County",
      "countryCode": "US",
      "stateCode": "FL",
      "latitude": "26.62536000",
      "longitude": "-81.84952000"
   },
   {
      "name": "Leesburg",
      "countryCode": "US",
      "stateCode": "FL",
      "latitude": "28.81082000",
      "longitude": "-81.87786000"
   },
   {
      "name": "Lehigh Acres",
      "countryCode": "US",
      "stateCode": "FL",
      "latitude": "26.62535000",
      "longitude": "-81.62480000"
   },
   {
      "name": "Leisure City",
      "countryCode": "US",
      "stateCode": "FL",
      "latitude": "25.49539000",
      "longitude": "-80.42922000"
   },
   {
      "name": "Lely",
      "countryCode": "US",
      "stateCode": "FL",
      "latitude": "26.10065000",
      "longitude": "-81.72842000"
   },
   {
      "name": "Lely Resort",
      "countryCode": "US",
      "stateCode": "FL",
      "latitude": "26.08093000",
      "longitude": "-81.69786000"
   },
   {
      "name": "Leon County",
      "countryCode": "US",
      "stateCode": "FL",
      "latitude": "30.45804000",
      "longitude": "-84.27788000"
   },
   {
      "name": "Levy County",
      "countryCode": "US",
      "stateCode": "FL",
      "latitude": "29.28221000",
      "longitude": "-82.78861000"
   },
   {
      "name": "Liberty County",
      "countryCode": "US",
      "stateCode": "FL",
      "latitude": "30.24136000",
      "longitude": "-84.88291000"
   },
   {
      "name": "Lighthouse Point",
      "countryCode": "US",
      "stateCode": "FL",
      "latitude": "26.27564000",
      "longitude": "-80.08727000"
   },
   {
      "name": "Limestone Creek",
      "countryCode": "US",
      "stateCode": "FL",
      "latitude": "26.94284000",
      "longitude": "-80.14115000"
   },
   {
      "name": "Live Oak",
      "countryCode": "US",
      "stateCode": "FL",
      "latitude": "30.29495000",
      "longitude": "-82.98402000"
   },
   {
      "name": "Lochmoor Waterway Estates",
      "countryCode": "US",
      "stateCode": "FL",
      "latitude": "26.64424000",
      "longitude": "-81.90981000"
   },
   {
      "name": "Lockhart",
      "countryCode": "US",
      "stateCode": "FL",
      "latitude": "28.61944000",
      "longitude": "-81.44257000"
   },
   {
      "name": "Longboat Key",
      "countryCode": "US",
      "stateCode": "FL",
      "latitude": "27.41254000",
      "longitude": "-82.65899000"
   },
   {
      "name": "Longwood",
      "countryCode": "US",
      "stateCode": "FL",
      "latitude": "28.70305000",
      "longitude": "-81.33840000"
   },
   {
      "name": "Loughman",
      "countryCode": "US",
      "stateCode": "FL",
      "latitude": "28.24196000",
      "longitude": "-81.56674000"
   },
   {
      "name": "Lower Grand Lagoon",
      "countryCode": "US",
      "stateCode": "FL",
      "latitude": "30.14409000",
      "longitude": "-85.75076000"
   },
   {
      "name": "Loxahatchee Groves",
      "countryCode": "US",
      "stateCode": "FL",
      "latitude": "26.68368000",
      "longitude": "-80.27977000"
   },
   {
      "name": "Lutz",
      "countryCode": "US",
      "stateCode": "FL",
      "latitude": "28.15112000",
      "longitude": "-82.46148000"
   },
   {
      "name": "Lynn Haven",
      "countryCode": "US",
      "stateCode": "FL",
      "latitude": "30.24548000",
      "longitude": "-85.64826000"
   },
   {
      "name": "Macclenny",
      "countryCode": "US",
      "stateCode": "FL",
      "latitude": "30.28218000",
      "longitude": "-82.12206000"
   },
   {
      "name": "Madeira Beach",
      "countryCode": "US",
      "stateCode": "FL",
      "latitude": "27.79808000",
      "longitude": "-82.79732000"
   },
   {
      "name": "Madison",
      "countryCode": "US",
      "stateCode": "FL",
      "latitude": "30.46938000",
      "longitude": "-83.41293000"
   },
   {
      "name": "Madison County",
      "countryCode": "US",
      "stateCode": "FL",
      "latitude": "30.44414000",
      "longitude": "-83.47012000"
   },
   {
      "name": "Maitland",
      "countryCode": "US",
      "stateCode": "FL",
      "latitude": "28.62778000",
      "longitude": "-81.36312000"
   },
   {
      "name": "Malabar",
      "countryCode": "US",
      "stateCode": "FL",
      "latitude": "28.00363000",
      "longitude": "-80.56561000"
   },
   {
      "name": "Malone",
      "countryCode": "US",
      "stateCode": "FL",
      "latitude": "30.95769000",
      "longitude": "-85.16215000"
   },
   {
      "name": "Manasota Key",
      "countryCode": "US",
      "stateCode": "FL",
      "latitude": "26.92534000",
      "longitude": "-82.35204000"
   },
   {
      "name": "Manatee County",
      "countryCode": "US",
      "stateCode": "FL",
      "latitude": "27.47752000",
      "longitude": "-82.35754000"
   },
   {
      "name": "Manatee Road",
      "countryCode": "US",
      "stateCode": "FL",
      "latitude": "29.51302000",
      "longitude": "-82.91429000"
   },
   {
      "name": "Mango",
      "countryCode": "US",
      "stateCode": "FL",
      "latitude": "27.97974000",
      "longitude": "-82.30648000"
   },
   {
      "name": "Mangonia Park",
      "countryCode": "US",
      "stateCode": "FL",
      "latitude": "26.76034000",
      "longitude": "-80.07365000"
   },
   {
      "name": "Marathon",
      "countryCode": "US",
      "stateCode": "FL",
      "latitude": "24.71375000",
      "longitude": "-81.09035000"
   },
   {
      "name": "Marco",
      "countryCode": "US",
      "stateCode": "FL",
      "latitude": "25.97260000",
      "longitude": "-81.72898000"
   },
   {
      "name": "Marco Island",
      "countryCode": "US",
      "stateCode": "FL",
      "latitude": "25.94121000",
      "longitude": "-81.71842000"
   },
   {
      "name": "Margate",
      "countryCode": "US",
      "stateCode": "FL",
      "latitude": "26.24453000",
      "longitude": "-80.20644000"
   },
   {
      "name": "Marianna",
      "countryCode": "US",
      "stateCode": "FL",
      "latitude": "30.77436000",
      "longitude": "-85.22687000"
   },
   {
      "name": "Marion County",
      "countryCode": "US",
      "stateCode": "FL",
      "latitude": "29.21020000",
      "longitude": "-82.05668000"
   },
   {
      "name": "Martin County",
      "countryCode": "US",
      "stateCode": "FL",
      "latitude": "27.08157000",
      "longitude": "-80.39851000"
   },
   {
      "name": "Mary Esther",
      "countryCode": "US",
      "stateCode": "FL",
      "latitude": "30.41015000",
      "longitude": "-86.66509000"
   },
   {
      "name": "Masaryktown",
      "countryCode": "US",
      "stateCode": "FL",
      "latitude": "28.44167000",
      "longitude": "-82.45704000"
   },
   {
      "name": "Mascotte",
      "countryCode": "US",
      "stateCode": "FL",
      "latitude": "28.57833000",
      "longitude": "-81.88675000"
   },
   {
      "name": "Mayo",
      "countryCode": "US",
      "stateCode": "FL",
      "latitude": "30.05300000",
      "longitude": "-83.17486000"
   },
   {
      "name": "McGregor",
      "countryCode": "US",
      "stateCode": "FL",
      "latitude": "26.56091000",
      "longitude": "-81.91453000"
   },
   {
      "name": "Meadow Oaks",
      "countryCode": "US",
      "stateCode": "FL",
      "latitude": "28.34619000",
      "longitude": "-82.60284000"
   },
   {
      "name": "Meadow Woods",
      "countryCode": "US",
      "stateCode": "FL",
      "latitude": "28.38556000",
      "longitude": "-81.36646000"
   },
   {
      "name": "Medulla",
      "countryCode": "US",
      "stateCode": "FL",
      "latitude": "27.96780000",
      "longitude": "-81.97342000"
   },
   {
      "name": "Melbourne",
      "countryCode": "US",
      "stateCode": "FL",
      "latitude": "28.08363000",
      "longitude": "-80.60811000"
   },
   {
      "name": "Melbourne Beach",
      "countryCode": "US",
      "stateCode": "FL",
      "latitude": "28.06835000",
      "longitude": "-80.56033000"
   },
   {
      "name": "Melrose Park",
      "countryCode": "US",
      "stateCode": "FL",
      "latitude": "26.11342000",
      "longitude": "-80.19338000"
   },
   {
      "name": "Memphis",
      "countryCode": "US",
      "stateCode": "FL",
      "latitude": "27.53587000",
      "longitude": "-82.56121000"
   },
   {
      "name": "Merritt Island",
      "countryCode": "US",
      "stateCode": "FL",
      "latitude": "28.53917000",
      "longitude": "-80.67200000"
   },
   {
      "name": "Mexico Beach",
      "countryCode": "US",
      "stateCode": "FL",
      "latitude": "29.94809000",
      "longitude": "-85.41995000"
   },
   {
      "name": "Miami",
      "countryCode": "US",
      "stateCode": "FL",
      "latitude": "25.77427000",
      "longitude": "-80.19366000"
   },
   {
      "name": "Miami Beach",
      "countryCode": "US",
      "stateCode": "FL",
      "latitude": "25.79065000",
      "longitude": "-80.13005000"
   },
   {
      "name": "Miami Gardens",
      "countryCode": "US",
      "stateCode": "FL",
      "latitude": "25.94204000",
      "longitude": "-80.24560000"
   },
   {
      "name": "Miami Lakes",
      "countryCode": "US",
      "stateCode": "FL",
      "latitude": "25.90871000",
      "longitude": "-80.30866000"
   },
   {
      "name": "Miami Shores",
      "countryCode": "US",
      "stateCode": "FL",
      "latitude": "25.86315000",
      "longitude": "-80.19283000"
   },
   {
      "name": "Miami Springs",
      "countryCode": "US",
      "stateCode": "FL",
      "latitude": "25.82232000",
      "longitude": "-80.28950000"
   },
   {
      "name": "Miami-Dade County",
      "countryCode": "US",
      "stateCode": "FL",
      "latitude": "25.60897000",
      "longitude": "-80.49867000"
   },
   {
      "name": "Micco",
      "countryCode": "US",
      "stateCode": "FL",
      "latitude": "27.88058000",
      "longitude": "-80.50033000"
   },
   {
      "name": "Middleburg",
      "countryCode": "US",
      "stateCode": "FL",
      "latitude": "30.06885000",
      "longitude": "-81.86038000"
   },
   {
      "name": "Midway",
      "countryCode": "US",
      "stateCode": "FL",
      "latitude": "30.40648000",
      "longitude": "-87.00553000"
   },
   {
      "name": "Milton",
      "countryCode": "US",
      "stateCode": "FL",
      "latitude": "30.63241000",
      "longitude": "-87.03969000"
   },
   {
      "name": "Mims",
      "countryCode": "US",
      "stateCode": "FL",
      "latitude": "28.66527000",
      "longitude": "-80.84478000"
   },
   {
      "name": "Minneola",
      "countryCode": "US",
      "stateCode": "FL",
      "latitude": "28.57444000",
      "longitude": "-81.74619000"
   },
   {
      "name": "Miramar",
      "countryCode": "US",
      "stateCode": "FL",
      "latitude": "25.98731000",
      "longitude": "-80.23227000"
   },
   {
      "name": "Miramar Beach",
      "countryCode": "US",
      "stateCode": "FL",
      "latitude": "30.37437000",
      "longitude": "-86.35856000"
   },
   {
      "name": "Molino",
      "countryCode": "US",
      "stateCode": "FL",
      "latitude": "30.72408000",
      "longitude": "-87.31414000"
   },
   {
      "name": "Monroe County",
      "countryCode": "US",
      "stateCode": "FL",
      "latitude": "25.55731000",
      "longitude": "-80.91705000"
   },
   {
      "name": "Monticello",
      "countryCode": "US",
      "stateCode": "FL",
      "latitude": "30.54515000",
      "longitude": "-83.87130000"
   },
   {
      "name": "Montverde",
      "countryCode": "US",
      "stateCode": "FL",
      "latitude": "28.60028000",
      "longitude": "-81.67396000"
   },
   {
      "name": "Moore Haven",
      "countryCode": "US",
      "stateCode": "FL",
      "latitude": "26.83312000",
      "longitude": "-81.09312000"
   },
   {
      "name": "Mount Dora",
      "countryCode": "US",
      "stateCode": "FL",
      "latitude": "28.80249000",
      "longitude": "-81.64452000"
   },
   {
      "name": "Mount Plymouth",
      "countryCode": "US",
      "stateCode": "FL",
      "latitude": "28.80805000",
      "longitude": "-81.53313000"
   },
   {
      "name": "Mulberry",
      "countryCode": "US",
      "stateCode": "FL",
      "latitude": "27.89530000",
      "longitude": "-81.97342000"
   },
   {
      "name": "Myrtle Grove",
      "countryCode": "US",
      "stateCode": "FL",
      "latitude": "30.42103000",
      "longitude": "-87.30747000"
   },
   {
      "name": "Naples",
      "countryCode": "US",
      "stateCode": "FL",
      "latitude": "26.14234000",
      "longitude": "-81.79596000"
   },
   {
      "name": "Naples Manor",
      "countryCode": "US",
      "stateCode": "FL",
      "latitude": "26.08870000",
      "longitude": "-81.72620000"
   },
   {
      "name": "Naples Park",
      "countryCode": "US",
      "stateCode": "FL",
      "latitude": "26.26175000",
      "longitude": "-81.80925000"
   },
   {
      "name": "Naranja",
      "countryCode": "US",
      "stateCode": "FL",
      "latitude": "25.51816000",
      "longitude": "-80.42283000"
   },
   {
      "name": "Nassau County",
      "countryCode": "US",
      "stateCode": "FL",
      "latitude": "30.61058000",
      "longitude": "-81.77142000"
   },
   {
      "name": "Nassau Village-Ratliff",
      "countryCode": "US",
      "stateCode": "FL",
      "latitude": "30.51111000",
      "longitude": "-81.80925000"
   },
   {
      "name": "Navarre",
      "countryCode": "US",
      "stateCode": "FL",
      "latitude": "30.40159000",
      "longitude": "-86.86357000"
   },
   {
      "name": "Neptune Beach",
      "countryCode": "US",
      "stateCode": "FL",
      "latitude": "30.31191000",
      "longitude": "-81.39647000"
   },
   {
      "name": "New Port Richey",
      "countryCode": "US",
      "stateCode": "FL",
      "latitude": "28.24418000",
      "longitude": "-82.71927000"
   },
   {
      "name": "New Port Richey East",
      "countryCode": "US",
      "stateCode": "FL",
      "latitude": "28.26027000",
      "longitude": "-82.69261000"
   },
   {
      "name": "New Smyrna Beach",
      "countryCode": "US",
      "stateCode": "FL",
      "latitude": "29.02582000",
      "longitude": "-80.92700000"
   },
   {
      "name": "Newberry",
      "countryCode": "US",
      "stateCode": "FL",
      "latitude": "29.64635000",
      "longitude": "-82.60650000"
   },
   {
      "name": "Niceville",
      "countryCode": "US",
      "stateCode": "FL",
      "latitude": "30.51686000",
      "longitude": "-86.48217000"
   },
   {
      "name": "Nocatee",
      "countryCode": "US",
      "stateCode": "FL",
      "latitude": "27.16033000",
      "longitude": "-81.88231000"
   },
   {
      "name": "Nokomis",
      "countryCode": "US",
      "stateCode": "FL",
      "latitude": "27.11922000",
      "longitude": "-82.44426000"
   },
   {
      "name": "Norland",
      "countryCode": "US",
      "stateCode": "FL",
      "latitude": "25.94898000",
      "longitude": "-80.21227000"
   },
   {
      "name": "North Andrews Gardens",
      "countryCode": "US",
      "stateCode": "FL",
      "latitude": "26.19147000",
      "longitude": "-80.14421000"
   },
   {
      "name": "North Bay Village",
      "countryCode": "US",
      "stateCode": "FL",
      "latitude": "25.84621000",
      "longitude": "-80.15394000"
   },
   {
      "name": "North Brooksville",
      "countryCode": "US",
      "stateCode": "FL",
      "latitude": "28.57305000",
      "longitude": "-82.40815000"
   },
   {
      "name": "North DeLand",
      "countryCode": "US",
      "stateCode": "FL",
      "latitude": "29.04943000",
      "longitude": "-81.29812000"
   },
   {
      "name": "North Fort Myers",
      "countryCode": "US",
      "stateCode": "FL",
      "latitude": "26.66729000",
      "longitude": "-81.88009000"
   },
   {
      "name": "North Key Largo",
      "countryCode": "US",
      "stateCode": "FL",
      "latitude": "25.26734000",
      "longitude": "-80.32339000"
   },
   {
      "name": "North Lauderdale",
      "countryCode": "US",
      "stateCode": "FL",
      "latitude": "26.21730000",
      "longitude": "-80.22588000"
   },
   {
      "name": "North Miami",
      "countryCode": "US",
      "stateCode": "FL",
      "latitude": "25.89009000",
      "longitude": "-80.18671000"
   },
   {
      "name": "North Miami Beach",
      "countryCode": "US",
      "stateCode": "FL",
      "latitude": "25.93315000",
      "longitude": "-80.16255000"
   },
   {
      "name": "North Palm Beach",
      "countryCode": "US",
      "stateCode": "FL",
      "latitude": "26.81756000",
      "longitude": "-80.08199000"
   },
   {
      "name": "North Port",
      "countryCode": "US",
      "stateCode": "FL",
      "latitude": "27.04422000",
      "longitude": "-82.23593000"
   },
   {
      "name": "North Redington Beach",
      "countryCode": "US",
      "stateCode": "FL",
      "latitude": "27.81614000",
      "longitude": "-82.82066000"
   },
   {
      "name": "North River Shores",
      "countryCode": "US",
      "stateCode": "FL",
      "latitude": "27.21755000",
      "longitude": "-80.26977000"
   },
   {
      "name": "North Sarasota",
      "countryCode": "US",
      "stateCode": "FL",
      "latitude": "27.37393000",
      "longitude": "-82.51843000"
   },
   {
      "name": "North Weeki Wachee",
      "countryCode": "US",
      "stateCode": "FL",
      "latitude": "28.55014000",
      "longitude": "-82.55888000"
   },
   {
      "name": "Northdale",
      "countryCode": "US",
      "stateCode": "FL",
      "latitude": "28.09390000",
      "longitude": "-82.50561000"
   },
   {
      "name": "Oak Hill",
      "countryCode": "US",
      "stateCode": "FL",
      "latitude": "28.86443000",
      "longitude": "-80.85450000"
   },
   {
      "name": "Oak Ridge",
      "countryCode": "US",
      "stateCode": "FL",
      "latitude": "28.47112000",
      "longitude": "-81.42452000"
   },
   {
      "name": "Oakland",
      "countryCode": "US",
      "stateCode": "FL",
      "latitude": "28.55500000",
      "longitude": "-81.63313000"
   },
   {
      "name": "Oakland Park",
      "countryCode": "US",
      "stateCode": "FL",
      "latitude": "26.17231000",
      "longitude": "-80.13199000"
   },
   {
      "name": "Oakleaf Plantation",
      "countryCode": "US",
      "stateCode": "FL",
      "latitude": "30.17083000",
      "longitude": "-81.83549000"
   },
   {
      "name": "Ocala",
      "countryCode": "US",
      "stateCode": "FL",
      "latitude": "29.18720000",
      "longitude": "-82.14009000"
   },
   {
      "name": "Ocean City",
      "countryCode": "US",
      "stateCode": "FL",
      "latitude": "30.44103000",
      "longitude": "-86.61356000"
   },
   {
      "name": "Ocean Ridge",
      "countryCode": "US",
      "stateCode": "FL",
      "latitude": "26.52702000",
      "longitude": "-80.04837000"
   },
   {
      "name": "Ocoee",
      "countryCode": "US",
      "stateCode": "FL",
      "latitude": "28.56917000",
      "longitude": "-81.54396000"
   },
   {
      "name": "Odessa",
      "countryCode": "US",
      "stateCode": "FL",
      "latitude": "28.19390000",
      "longitude": "-82.59176000"
   },
   {
      "name": "Ojus",
      "countryCode": "US",
      "stateCode": "FL",
      "latitude": "25.94843000",
      "longitude": "-80.15060000"
   },
   {
      "name": "Okaloosa County",
      "countryCode": "US",
      "stateCode": "FL",
      "latitude": "30.66503000",
      "longitude": "-86.59218000"
   },
   {
      "name": "Okeechobee",
      "countryCode": "US",
      "stateCode": "FL",
      "latitude": "27.24393000",
      "longitude": "-80.82978000"
   },
   {
      "name": "Okeechobee County",
      "countryCode": "US",
      "stateCode": "FL",
      "latitude": "27.38629000",
      "longitude": "-80.88858000"
   },
   {
      "name": "Oldsmar",
      "countryCode": "US",
      "stateCode": "FL",
      "latitude": "28.03418000",
      "longitude": "-82.66510000"
   },
   {
      "name": "Olga",
      "countryCode": "US",
      "stateCode": "FL",
      "latitude": "26.71896000",
      "longitude": "-81.71230000"
   },
   {
      "name": "Olympia Heights",
      "countryCode": "US",
      "stateCode": "FL",
      "latitude": "25.72677000",
      "longitude": "-80.35533000"
   },
   {
      "name": "Opa-locka",
      "countryCode": "US",
      "stateCode": "FL",
      "latitude": "25.90232000",
      "longitude": "-80.25033000"
   },
   {
      "name": "Orange City",
      "countryCode": "US",
      "stateCode": "FL",
      "latitude": "28.94888000",
      "longitude": "-81.29867000"
   },
   {
      "name": "Orange County",
      "countryCode": "US",
      "stateCode": "FL",
      "latitude": "28.51442000",
      "longitude": "-81.32348000"
   },
   {
      "name": "Orange Park",
      "countryCode": "US",
      "stateCode": "FL",
      "latitude": "30.16607000",
      "longitude": "-81.70648000"
   },
   {
      "name": "Orangetree",
      "countryCode": "US",
      "stateCode": "FL",
      "latitude": "26.29286000",
      "longitude": "-81.58842000"
   },
   {
      "name": "Oriole Beach",
      "countryCode": "US",
      "stateCode": "FL",
      "latitude": "30.37381000",
      "longitude": "-87.09136000"
   },
   {
      "name": "Orlando",
      "countryCode": "US",
      "stateCode": "FL",
      "latitude": "28.53834000",
      "longitude": "-81.37924000"
   },
   {
      "name": "Orlovista",
      "countryCode": "US",
      "stateCode": "FL",
      "latitude": "28.53834000",
      "longitude": "-81.46035000"
   },
   {
      "name": "Ormond Beach",
      "countryCode": "US",
      "stateCode": "FL",
      "latitude": "29.28581000",
      "longitude": "-81.05589000"
   },
   {
      "name": "Ormond-by-the-Sea",
      "countryCode": "US",
      "stateCode": "FL",
      "latitude": "29.34914000",
      "longitude": "-81.06645000"
   },
   {
      "name": "Osceola County",
      "countryCode": "US",
      "stateCode": "FL",
      "latitude": "28.06266000",
      "longitude": "-81.14948000"
   },
   {
      "name": "Osprey",
      "countryCode": "US",
      "stateCode": "FL",
      "latitude": "27.19616000",
      "longitude": "-82.49037000"
   },
   {
      "name": "Oviedo",
      "countryCode": "US",
      "stateCode": "FL",
      "latitude": "28.67000000",
      "longitude": "-81.20812000"
   },
   {
      "name": "Pace",
      "countryCode": "US",
      "stateCode": "FL",
      "latitude": "30.59936000",
      "longitude": "-87.16108000"
   },
   {
      "name": "Pahokee",
      "countryCode": "US",
      "stateCode": "FL",
      "latitude": "26.82006000",
      "longitude": "-80.66534000"
   },
   {
      "name": "Palatka",
      "countryCode": "US",
      "stateCode": "FL",
      "latitude": "29.64858000",
      "longitude": "-81.63758000"
   },
   {
      "name": "Palm Aire",
      "countryCode": "US",
      "stateCode": "FL",
      "latitude": "26.20619000",
      "longitude": "-80.19171000"
   },
   {
      "name": "Palm Bay",
      "countryCode": "US",
      "stateCode": "FL",
      "latitude": "28.03446000",
      "longitude": "-80.58866000"
   },
   {
      "name": "Palm Beach",
      "countryCode": "US",
      "stateCode": "FL",
      "latitude": "26.70562000",
      "longitude": "-80.03643000"
   },
   {
      "name": "Palm Beach County",
      "countryCode": "US",
      "stateCode": "FL",
      "latitude": "26.64757000",
      "longitude": "-80.43651000"
   },
   {
      "name": "Palm Beach Gardens",
      "countryCode": "US",
      "stateCode": "FL",
      "latitude": "26.82339000",
      "longitude": "-80.13865000"
   },
   {
      "name": "Palm Beach Shores",
      "countryCode": "US",
      "stateCode": "FL",
      "latitude": "26.77812000",
      "longitude": "-80.03560000"
   },
   {
      "name": "Palm City",
      "countryCode": "US",
      "stateCode": "FL",
      "latitude": "27.16783000",
      "longitude": "-80.26616000"
   },
   {
      "name": "Palm Coast",
      "countryCode": "US",
      "stateCode": "FL",
      "latitude": "29.58497000",
      "longitude": "-81.20784000"
   },
   {
      "name": "Palm Harbor",
      "countryCode": "US",
      "stateCode": "FL",
      "latitude": "28.07807000",
      "longitude": "-82.76371000"
   },
   {
      "name": "Palm River-Clair Mel",
      "countryCode": "US",
      "stateCode": "FL",
      "latitude": "27.92386000",
      "longitude": "-82.37939000"
   },
   {
      "name": "Palm Springs",
      "countryCode": "US",
      "stateCode": "FL",
      "latitude": "26.63590000",
      "longitude": "-80.09615000"
   },
   {
      "name": "Palm Springs North",
      "countryCode": "US",
      "stateCode": "FL",
      "latitude": "25.93510000",
      "longitude": "-80.33383000"
   },
   {
      "name": "Palm Valley",
      "countryCode": "US",
      "stateCode": "FL",
      "latitude": "30.17746000",
      "longitude": "-81.38758000"
   },
   {
      "name": "Palmetto",
      "countryCode": "US",
      "stateCode": "FL",
      "latitude": "27.52143000",
      "longitude": "-82.57232000"
   },
   {
      "name": "Palmetto Bay",
      "countryCode": "US",
      "stateCode": "FL",
      "latitude": "25.62177000",
      "longitude": "-80.32477000"
   },
   {
      "name": "Palmetto Estates",
      "countryCode": "US",
      "stateCode": "FL",
      "latitude": "25.62149000",
      "longitude": "-80.36200000"
   },
   {
      "name": "Palmona Park",
      "countryCode": "US",
      "stateCode": "FL",
      "latitude": "26.68646000",
      "longitude": "-81.89648000"
   },
   {
      "name": "Panama City",
      "countryCode": "US",
      "stateCode": "FL",
      "latitude": "30.15946000",
      "longitude": "-85.65983000"
   },
   {
      "name": "Panama City Beach",
      "countryCode": "US",
      "stateCode": "FL",
      "latitude": "30.17659000",
      "longitude": "-85.80549000"
   },
   {
      "name": "Paradise Heights",
      "countryCode": "US",
      "stateCode": "FL",
      "latitude": "28.62361000",
      "longitude": "-81.54396000"
   },
   {
      "name": "Parker",
      "countryCode": "US",
      "stateCode": "FL",
      "latitude": "30.13104000",
      "longitude": "-85.60326000"
   },
   {
      "name": "Parkland",
      "countryCode": "US",
      "stateCode": "FL",
      "latitude": "26.31008000",
      "longitude": "-80.23727000"
   },
   {
      "name": "Pasadena Hills",
      "countryCode": "US",
      "stateCode": "FL",
      "latitude": "28.28001000",
      "longitude": "-82.22438000"
   },
   {
      "name": "Pasco County",
      "countryCode": "US",
      "stateCode": "FL",
      "latitude": "28.30674000",
      "longitude": "-82.43887000"
   },
   {
      "name": "Pebble Creek",
      "countryCode": "US",
      "stateCode": "FL",
      "latitude": "28.14835000",
      "longitude": "-82.34565000"
   },
   {
      "name": "Pelican Bay",
      "countryCode": "US",
      "stateCode": "FL",
      "latitude": "26.23120000",
      "longitude": "-81.80564000"
   },
   {
      "name": "Pembroke Park",
      "countryCode": "US",
      "stateCode": "FL",
      "latitude": "25.98787000",
      "longitude": "-80.17477000"
   },
   {
      "name": "Pembroke Pines",
      "countryCode": "US",
      "stateCode": "FL",
      "latitude": "26.00315000",
      "longitude": "-80.22394000"
   },
   {
      "name": "Pensacola",
      "countryCode": "US",
      "stateCode": "FL",
      "latitude": "30.42131000",
      "longitude": "-87.21691000"
   },
   {
      "name": "Perry",
      "countryCode": "US",
      "stateCode": "FL",
      "latitude": "30.11766000",
      "longitude": "-83.58274000"
   },
   {
      "name": "Pierson",
      "countryCode": "US",
      "stateCode": "FL",
      "latitude": "29.23942000",
      "longitude": "-81.46563000"
   },
   {
      "name": "Pine Castle",
      "countryCode": "US",
      "stateCode": "FL",
      "latitude": "28.47195000",
      "longitude": "-81.36785000"
   },
   {
      "name": "Pine Hills",
      "countryCode": "US",
      "stateCode": "FL",
      "latitude": "28.55778000",
      "longitude": "-81.45340000"
   },
   {
      "name": "Pine Island Center",
      "countryCode": "US",
      "stateCode": "FL",
      "latitude": "26.61369000",
      "longitude": "-82.11815000"
   },
   {
      "name": "Pine Island Ridge",
      "countryCode": "US",
      "stateCode": "FL",
      "latitude": "26.09481000",
      "longitude": "-80.27394000"
   },
   {
      "name": "Pine Manor",
      "countryCode": "US",
      "stateCode": "FL",
      "latitude": "26.57285000",
      "longitude": "-81.87814000"
   },
   {
      "name": "Pine Ridge",
      "countryCode": "US",
      "stateCode": "FL",
      "latitude": "28.93831000",
      "longitude": "-82.47343000"
   },
   {
      "name": "Pinecrest",
      "countryCode": "US",
      "stateCode": "FL",
      "latitude": "25.66705000",
      "longitude": "-80.30811000"
   },
   {
      "name": "Pinellas County",
      "countryCode": "US",
      "stateCode": "FL",
      "latitude": "27.90268000",
      "longitude": "-82.73955000"
   },
   {
      "name": "Pinellas Park",
      "countryCode": "US",
      "stateCode": "FL",
      "latitude": "27.84280000",
      "longitude": "-82.69954000"
   },
   {
      "name": "Pinewood",
      "countryCode": "US",
      "stateCode": "FL",
      "latitude": "25.86898000",
      "longitude": "-80.21699000"
   },
   {
      "name": "Placid Lakes",
      "countryCode": "US",
      "stateCode": "FL",
      "latitude": "27.24144000",
      "longitude": "-81.40702000"
   },
   {
      "name": "Plant City",
      "countryCode": "US",
      "stateCode": "FL",
      "latitude": "28.01888000",
      "longitude": "-82.11469000"
   },
   {
      "name": "Plantation",
      "countryCode": "US",
      "stateCode": "FL",
      "latitude": "26.13421000",
      "longitude": "-80.23184000"
   },
   {
      "name": "Plantation Mobile Home Park",
      "countryCode": "US",
      "stateCode": "FL",
      "latitude": "26.70312000",
      "longitude": "-80.13227000"
   },
   {
      "name": "Poinciana",
      "countryCode": "US",
      "stateCode": "FL",
      "latitude": "28.14029000",
      "longitude": "-81.45841000"
   },
   {
      "name": "Point Baker",
      "countryCode": "US",
      "stateCode": "FL",
      "latitude": "30.69019000",
      "longitude": "-87.05358000"
   },
   {
      "name": "Polk City",
      "countryCode": "US",
      "stateCode": "FL",
      "latitude": "28.18251000",
      "longitude": "-81.82397000"
   },
   {
      "name": "Polk County",
      "countryCode": "US",
      "stateCode": "FL",
      "latitude": "27.94888000",
      "longitude": "-81.69767000"
   },
   {
      "name": "Pompano Beach",
      "countryCode": "US",
      "stateCode": "FL",
      "latitude": "26.23786000",
      "longitude": "-80.12477000"
   },
   {
      "name": "Pompano Beach Highlands",
      "countryCode": "US",
      "stateCode": "FL",
      "latitude": "26.28286000",
      "longitude": "-80.10699000"
   },
   {
      "name": "Ponce Inlet",
      "countryCode": "US",
      "stateCode": "FL",
      "latitude": "29.09637000",
      "longitude": "-80.93700000"
   },
   {
      "name": "Ponte Vedra Beach",
      "countryCode": "US",
      "stateCode": "FL",
      "latitude": "30.23969000",
      "longitude": "-81.38564000"
   },
   {
      "name": "Port Charlotte",
      "countryCode": "US",
      "stateCode": "FL",
      "latitude": "26.97617000",
      "longitude": "-82.09064000"
   },
   {
      "name": "Port LaBelle",
      "countryCode": "US",
      "stateCode": "FL",
      "latitude": "26.75645000",
      "longitude": "-81.40508000"
   },
   {
      "name": "Port Orange",
      "countryCode": "US",
      "stateCode": "FL",
      "latitude": "29.13832000",
      "longitude": "-80.99561000"
   },
   {
      "name": "Port Richey",
      "countryCode": "US",
      "stateCode": "FL",
      "latitude": "28.27168000",
      "longitude": "-82.71955000"
   },
   {
      "name": "Port Saint Joe",
      "countryCode": "US",
      "stateCode": "FL",
      "latitude": "29.81188000",
      "longitude": "-85.30297000"
   },
   {
      "name": "Port Saint John",
      "countryCode": "US",
      "stateCode": "FL",
      "latitude": "28.47695000",
      "longitude": "-80.78867000"
   },
   {
      "name": "Port Saint Lucie",
      "countryCode": "US",
      "stateCode": "FL",
      "latitude": "27.29393000",
      "longitude": "-80.35033000"
   },
   {
      "name": "Port Salerno",
      "countryCode": "US",
      "stateCode": "FL",
      "latitude": "27.14422000",
      "longitude": "-80.20060000"
   },
   {
      "name": "Pretty Bayou",
      "countryCode": "US",
      "stateCode": "FL",
      "latitude": "30.19659000",
      "longitude": "-85.69660000"
   },
   {
      "name": "Princeton",
      "countryCode": "US",
      "stateCode": "FL",
      "latitude": "25.53844000",
      "longitude": "-80.40894000"
   },
   {
      "name": "Progress Village",
      "countryCode": "US",
      "stateCode": "FL",
      "latitude": "27.90030000",
      "longitude": "-82.36454000"
   },
   {
      "name": "Punta Gorda",
      "countryCode": "US",
      "stateCode": "FL",
      "latitude": "26.92978000",
      "longitude": "-82.04537000"
   },
   {
      "name": "Punta Gorda Isles",
      "countryCode": "US",
      "stateCode": "FL",
      "latitude": "26.91756000",
      "longitude": "-82.07842000"
   },
   {
      "name": "Punta Rassa",
      "countryCode": "US",
      "stateCode": "FL",
      "latitude": "26.48786000",
      "longitude": "-82.01231000"
   },
   {
      "name": "Putnam County",
      "countryCode": "US",
      "stateCode": "FL",
      "latitude": "29.60863000",
      "longitude": "-81.74430000"
   },
   {
      "name": "Quail Ridge",
      "countryCode": "US",
      "stateCode": "FL",
      "latitude": "28.34905000",
      "longitude": "-82.55532000"
   },
   {
      "name": "Quincy",
      "countryCode": "US",
      "stateCode": "FL",
      "latitude": "30.58714000",
      "longitude": "-84.58325000"
   },
   {
      "name": "Redington Beach",
      "countryCode": "US",
      "stateCode": "FL",
      "latitude": "27.80864000",
      "longitude": "-82.81121000"
   },
   {
      "name": "Redington Shores",
      "countryCode": "US",
      "stateCode": "FL",
      "latitude": "27.82614000",
      "longitude": "-82.82899000"
   },
   {
      "name": "Richmond Heights",
      "countryCode": "US",
      "stateCode": "FL",
      "latitude": "25.63149000",
      "longitude": "-80.36894000"
   },
   {
      "name": "Richmond West",
      "countryCode": "US",
      "stateCode": "FL",
      "latitude": "25.61050000",
      "longitude": "-80.42971000"
   },
   {
      "name": "Ridge Manor",
      "countryCode": "US",
      "stateCode": "FL",
      "latitude": "28.50750000",
      "longitude": "-82.17036000"
   },