[
   {
      "name": "North Denmark Region",
      "isoCode": "81",
      "countryCode": "DK",
      "latitude": "56.83074160",
      "longitude": "9.49305270"
   },
   {
      "name": "Central Denmark Region",
      "isoCode": "82",
      "countryCode": "DK",
      "latitude": "56.30213900",
      "longitude": "9.30277700"
   },
   {
      "name": "Region of Southern Denmark",
      "isoCode": "83",
      "countryCode": "DK",
      "latitude": "55.33077140",
      "longitude": "9.09249030"
   },
   {
      "name": "Capital Region of Denmark",
      "isoCode": "84",
      "countryCode": "DK",
      "latitude": "55.67518120",
      "longitude": "12.54932610"
   },
   {
      "name": "Region Zealand",
      "isoCode": "85",
      "countryCode": "DK",
      "latitude": "55.46325180",
      "longitude": "11.72149790"
   }
]