[
   {
      "name": "Central District",
      "isoCode": "CE",
      "countryCode": "BW",
      "latitude": null,
      "longitude": null
   },
   {
      "name": "Ghanzi District",
      "isoCode": "GH",
      "countryCode": "BW",
      "latitude": "-21.86523140",
      "longitude": "21.85685860"
   },
   {
      "name": "Kgalagadi District",
      "isoCode": "KG",
      "countryCode": "BW",
      "latitude": "-24.75502850",
      "longitude": "21.85685860"
   },
   {
      "name": "Kgatleng District",
      "isoCode": "KL",
      "countryCode": "BW",
      "latitude": "-24.19704450",
      "longitude": "26.23046160"
   },
   {
      "name": "Kweneng District",
      "isoCode": "KW",
      "countryCode": "BW",
      "latitude": "-23.83672490",
      "longitude": "25.28375850"
   },
   {
      "name": "North-East District",
      "isoCode": "NE",
      "countryCode": "BW",
      "latitude": "37.58844610",
      "longitude": "-94.68637820"
   },
   {
      "name": "Ngamiland",
      "isoCode": "NG",
      "countryCode": "BW",
      "latitude": "-19.19053210",
      "longitude": "23.00119890"
   },
   {
      "name": "North-West District",
      "isoCode": "NW",
      "countryCode": "BW",
      "latitude": "39.34463070",
      "longitude": "-76.68542830"
   },
   {
      "name": "South-East District",
      "isoCode": "SE",
      "countryCode": "BW",
      "latitude": "31.21637980",
      "longitude": "-82.35270440"
   },
   {
      "name": "Southern District",
      "isoCode": "SO",
      "countryCode": "BW",
      "latitude": null,
      "longitude": null
   }
]