[
   {
      "name": "Arawa",
      "countryCode": "PG",
      "stateCode": "NSB",
      "latitude": "-6.22977000",
      "longitude": "155.56598000"
   },
   {
      "name": "Central Bougainville",
      "countryCode": "PG",
      "stateCode": "NSB",
      "latitude": "-6.22806000",
      "longitude": "155.56583000"
   },
   {
      "name": "Kieta",
      "countryCode": "PG",
      "stateCode": "NSB",
      "latitude": "-6.21462000",
      "longitude": "155.63251000"
   },
   {
      "name": "North Bougainville",
      "countryCode": "PG",
      "stateCode": "NSB",
      "latitude": "-5.42194000",
      "longitude": "154.67278000"
   },
   {
      "name": "Panguna",
      "countryCode": "PG",
      "stateCode": "NSB",
      "latitude": "-6.31639000",
      "longitude": "155.48483000"
   },
   {
      "name": "South Bougainville",
      "countryCode": "PG",
      "stateCode": "NSB",
      "latitude": "-6.74593000",
      "longitude": "155.69640000"
   }
]