[
   {
      "name": "Gaborone",
      "countryCode": "BW",
      "stateCode": "SE",
      "latitude": "-24.76234000",
      "longitude": "25.79950000"
   },
   {
      "name": "Janeng",
      "countryCode": "BW",
      "stateCode": "SE",
      "latitude": "-25.41667000",
      "longitude": "25.55000000"
   },
   {
      "name": "Kopong",
      "countryCode": "BW",
      "stateCode": "SE",
      "latitude": "-24.48333000",
      "longitude": "25.88333000"
   },
   {
      "name": "Otse",
      "countryCode": "BW",
      "stateCode": "SE",
      "latitude": "-25.01667000",
      "longitude": "25.73333000"
   },
   {
      "name": "Ramotswa",
      "countryCode": "BW",
      "stateCode": "SE",
      "latitude": "-24.87158000",
      "longitude": "25.86989000"
   }
]