[
   {
      "name": "Bima",
      "countryCode": "ID",
      "stateCode": "NB",
      "latitude": "-8.46006000",
      "longitude": "118.72667000"
   },
   {
      "name": "Dompu",
      "countryCode": "ID",
      "stateCode": "NB",
      "latitude": "-8.53650000",
      "longitude": "118.46340000"
   },
   {
      "name": "Gili Air",
      "countryCode": "ID",
      "stateCode": "NB",
      "latitude": "-8.35783000",
      "longitude": "116.08240000"
   },
   {
      "name": "Kabupaten Bima",
      "countryCode": "ID",
      "stateCode": "NB",
      "latitude": "-8.60000000",
      "longitude": "118.61667000"
   },
   {
      "name": "Kabupaten Dompu",
      "countryCode": "ID",
      "stateCode": "NB",
      "latitude": "-8.50940000",
      "longitude": "118.48160000"
   },
   {
      "name": "Kabupaten Lombok Barat",
      "countryCode": "ID",
      "stateCode": "NB",
      "latitude": "-8.69583000",
      "longitude": "116.11667000"
   },
   {
      "name": "Kabupaten Lombok Tengah",
      "countryCode": "ID",
      "stateCode": "NB",
      "latitude": "-8.70000000",
      "longitude": "116.30000000"
   },
   {
      "name": "Kabupaten Lombok Timur",
      "countryCode": "ID",
      "stateCode": "NB",
      "latitude": "-8.53333000",
      "longitude": "116.53333000"
   },
   {
      "name": "Kabupaten Lombok Utara",
      "countryCode": "ID",
      "stateCode": "NB",
      "latitude": "-8.35214000",
      "longitude": "116.40152000"
   },
   {
      "name": "Kabupaten Sumbawa",
      "countryCode": "ID",
      "stateCode": "NB",
      "latitude": "-8.74390000",
      "longitude": "117.33240000"
   },
   {
      "name": "Kabupaten Sumbawa Barat",
      "countryCode": "ID",
      "stateCode": "NB",
      "latitude": "-8.75159000",
      "longitude": "116.92132000"
   },
   {
      "name": "Kota Bima",
      "countryCode": "ID",
      "stateCode": "NB",
      "latitude": "-8.46728000",
      "longitude": "118.75259000"
   },
   {
      "name": "Kota Mataram",
      "countryCode": "ID",
      "stateCode": "NB",
      "latitude": "-8.58330000",
      "longitude": "116.11670000"
   },
   {
      "name": "Labuan Lombok",
      "countryCode": "ID",
      "stateCode": "NB",
      "latitude": "-8.50000000",
      "longitude": "116.66667000"
   },
   {
      "name": "Lembar",
      "countryCode": "ID",
      "stateCode": "NB",
      "latitude": "-8.72640000",
      "longitude": "116.07440000"
   },
   {
      "name": "Mataram",
      "countryCode": "ID",
      "stateCode": "NB",
      "latitude": "-8.58333000",
      "longitude": "116.11667000"
   },
   {
      "name": "Pemenang",
      "countryCode": "ID",
      "stateCode": "NB",
      "latitude": "-8.40401000",
      "longitude": "116.10255000"
   },
   {
      "name": "Pototano",
      "countryCode": "ID",
      "stateCode": "NB",
      "latitude": "-8.41260000",
      "longitude": "117.48110000"
   },
   {
      "name": "Praya",
      "countryCode": "ID",
      "stateCode": "NB",
      "latitude": "-8.70536000",
      "longitude": "116.27036000"
   },
   {
      "name": "Senggigi",
      "countryCode": "ID",
      "stateCode": "NB",
      "latitude": "-8.49190000",
      "longitude": "116.04240000"
   },
   {
      "name": "Sumbawa Besar",
      "countryCode": "ID",
      "stateCode": "NB",
      "latitude": "-8.49317000",
      "longitude": "117.42024000"
   }
]