[
   {
      "name": "Ad Douiem",
      "countryCode": "SD",
      "stateCode": "NW",
      "latitude": "14.00120000",
      "longitude": "32.31160000"
   },
   {
      "name": "Al Kawa",
      "countryCode": "SD",
      "stateCode": "NW",
      "latitude": "13.74630000",
      "longitude": "32.49960000"
   },
   {
      "name": "Al Qiţena",
      "countryCode": "SD",
      "stateCode": "NW",
      "latitude": "14.86480000",
      "longitude": "32.36680000"
   },
   {
      "name": "Kosti",
      "countryCode": "SD",
      "stateCode": "NW",
      "latitude": "13.16290000",
      "longitude": "32.66347000"
   },
   {
      "name": "Marabba",
      "countryCode": "SD",
      "stateCode": "NW",
      "latitude": "12.35000000",
      "longitude": "32.18333000"
   },
   {
      "name": "Rabak",
      "countryCode": "SD",
      "stateCode": "NW",
      "latitude": "13.18087000",
      "longitude": "32.73999000"
   },
   {
      "name": "Tandaltī",
      "countryCode": "SD",
      "stateCode": "NW",
      "latitude": "13.01667000",
      "longitude": "31.86667000"
   },
   {
      "name": "Um Jar Al Gharbiyya",
      "countryCode": "SD",
      "stateCode": "NW",
      "latitude": "13.80130000",
      "longitude": "32.40780000"
   },
   {
      "name": "Wad az Zāki",
      "countryCode": "SD",
      "stateCode": "NW",
      "latitude": "14.46190000",
      "longitude": "32.20650000"
   }
]