[
   {
      "name": "Amper",
      "countryCode": "NG",
      "stateCode": "PL",
      "latitude": "9.35509000",
      "longitude": "9.70121000"
   },
   {
      "name": "Bukuru",
      "countryCode": "NG",
      "stateCode": "PL",
      "latitude": "9.79399000",
      "longitude": "8.86397000"
   },
   {
      "name": "Dengi",
      "countryCode": "NG",
      "stateCode": "PL",
      "latitude": "9.36872000",
      "longitude": "9.96223000"
   },
   {
      "name": "Jos",
      "countryCode": "NG",
      "stateCode": "PL",
      "latitude": "9.92849000",
      "longitude": "8.89212000"
   },
   {
      "name": "Kwolla",
      "countryCode": "NG",
      "stateCode": "PL",
      "latitude": "8.90361000",
      "longitude": "9.29086000"
   },
   {
      "name": "Langtang",
      "countryCode": "NG",
      "stateCode": "PL",
      "latitude": "9.14164000",
      "longitude": "9.79101000"
   },
   {
      "name": "Pankshin",
      "countryCode": "NG",
      "stateCode": "PL",
      "latitude": "9.32541000",
      "longitude": "9.43520000"
   },
   {
      "name": "Panyam",
      "countryCode": "NG",
      "stateCode": "PL",
      "latitude": "9.40756000",
      "longitude": "9.21481000"
   },
   {
      "name": "Vom",
      "countryCode": "NG",
      "stateCode": "PL",
      "latitude": "9.72910000",
      "longitude": "8.79138000"
   },
   {
      "name": "Yelwa",
      "countryCode": "NG",
      "stateCode": "PL",
      "latitude": "8.83333000",
      "longitude": "9.63333000"
   }
]