[
   {
      "name": "Ask",
      "countryCode": "NO",
      "stateCode": "02",
      "latitude": "60.07131000",
      "longitude": "11.03620000"
   },
   {
      "name": "Asker",
      "countryCode": "NO",
      "stateCode": "02",
      "latitude": "59.83734000",
      "longitude": "10.43595000"
   },
   {
      "name": "Auli",
      "countryCode": "NO",
      "stateCode": "02",
      "latitude": "60.03450000",
      "longitude": "11.36046000"
   },
   {
      "name": "Aurskog-Høland",
      "countryCode": "NO",
      "stateCode": "02",
      "latitude": "59.88321000",
      "longitude": "11.56491000"
   },
   {
      "name": "Aursmoen",
      "countryCode": "NO",
      "stateCode": "02",
      "latitude": "59.92763000",
      "longitude": "11.44275000"
   },
   {
      "name": "Billingstad",
      "countryCode": "NO",
      "stateCode": "02",
      "latitude": "59.87548000",
      "longitude": "10.48230000"
   },
   {
      "name": "Bjørkelangen",
      "countryCode": "NO",
      "stateCode": "02",
      "latitude": "59.88357000",
      "longitude": "11.56396000"
   },
   {
      "name": "Blakstad",
      "countryCode": "NO",
      "stateCode": "02",
      "latitude": "59.81910000",
      "longitude": "10.46450000"
   },
   {
      "name": "Bærum",
      "countryCode": "NO",
      "stateCode": "02",
      "latitude": "59.88996000",
      "longitude": "10.52649000"
   },
   {
      "name": "Drøbak",
      "countryCode": "NO",
      "stateCode": "02",
      "latitude": "59.66333000",
      "longitude": "10.62975000"
   },
   {
      "name": "Eidsvoll",
      "countryCode": "NO",
      "stateCode": "02",
      "latitude": "60.32893000",
      "longitude": "11.26119000"
   },
   {
      "name": "Enebakk",
      "countryCode": "NO",
      "stateCode": "02",
      "latitude": "59.76452000",
      "longitude": "11.14492000"
   },
   {
      "name": "Fagerstrand",
      "countryCode": "NO",
      "stateCode": "02",
      "latitude": "59.73746000",
      "longitude": "10.59404000"
   },
   {
      "name": "Fet",
      "countryCode": "NO",
      "stateCode": "02",
      "latitude": "59.92216000",
      "longitude": "11.16778000"
   },
   {
      "name": "Fetsund",
      "countryCode": "NO",
      "stateCode": "02",
      "latitude": "59.92463000",
      "longitude": "11.15711000"
   },
   {
      "name": "Fjellfoten",
      "countryCode": "NO",
      "stateCode": "02",
      "latitude": "60.08967000",
      "longitude": "11.47222000"
   },
   {
      "name": "Flateby",
      "countryCode": "NO",
      "stateCode": "02",
      "latitude": "59.82951000",
      "longitude": "11.15345000"
   },
   {
      "name": "Frogn",
      "countryCode": "NO",
      "stateCode": "02",
      "latitude": "59.66665000",
      "longitude": "10.63566000"
   },
   {
      "name": "Frogner",
      "countryCode": "NO",
      "stateCode": "02",
      "latitude": "60.02463000",
      "longitude": "11.10284000"
   },
   {
      "name": "Gjerdrum",
      "countryCode": "NO",
      "stateCode": "02",
      "latitude": "60.07159000",
      "longitude": "11.03597000"
   },
   {
      "name": "Hurdal",
      "countryCode": "NO",
      "stateCode": "02",
      "latitude": "60.43518000",
      "longitude": "11.06707000"
   },
   {
      "name": "Jessheim",
      "countryCode": "NO",
      "stateCode": "02",
      "latitude": "60.14151000",
      "longitude": "11.17515000"
   },
   {
      "name": "Kløfta",
      "countryCode": "NO",
      "stateCode": "02",
      "latitude": "60.07407000",
      "longitude": "11.13805000"
   },
   {
      "name": "Leirsund",
      "countryCode": "NO",
      "stateCode": "02",
      "latitude": "59.99682000",
      "longitude": "11.08746000"
   },
   {
      "name": "Lillestrøm",
      "countryCode": "NO",
      "stateCode": "02",
      "latitude": "59.95597000",
      "longitude": "11.04918000"
   },
   {
      "name": "Lysaker",
      "countryCode": "NO",
      "stateCode": "02",
      "latitude": "59.90994000",
      "longitude": "10.63545000"
   },
   {
      "name": "Lørenskog",
      "countryCode": "NO",
      "stateCode": "02",
      "latitude": "59.93209000",
      "longitude": "10.96079000"
   },
   {
      "name": "Maura",
      "countryCode": "NO",
      "stateCode": "02",
      "latitude": "60.25830000",
      "longitude": "11.03192000"
   },
   {
      "name": "Nannestad",
      "countryCode": "NO",
      "stateCode": "02",
      "latitude": "60.21707000",
      "longitude": "11.01200000"
   },
   {
      "name": "Nes",
      "countryCode": "NO",
      "stateCode": "02",
      "latitude": "60.12252000",
      "longitude": "11.46570000"
   },
   {
      "name": "Neskollen",
      "countryCode": "NO",
      "stateCode": "02",
      "latitude": "60.12159000",
      "longitude": "11.33926000"
   },
   {
      "name": "Nesodden",
      "countryCode": "NO",
      "stateCode": "02",
      "latitude": "59.84220000",
      "longitude": "10.64940000"
   },
   {
      "name": "Nesoddtangen",
      "countryCode": "NO",
      "stateCode": "02",
      "latitude": "59.86244000",
      "longitude": "10.66308000"
   },
   {
      "name": "Nittedal",
      "countryCode": "NO",
      "stateCode": "02",
      "latitude": "60.04278000",
      "longitude": "10.88167000"
   },
   {
      "name": "Oppegård",
      "countryCode": "NO",
      "stateCode": "02",
      "latitude": "59.81149000",
      "longitude": "10.79712000"
   },
   {
      "name": "Rotnes",
      "countryCode": "NO",
      "stateCode": "02",
      "latitude": "60.05707000",
      "longitude": "10.86135000"
   },
   {
      "name": "Råholt",
      "countryCode": "NO",
      "stateCode": "02",
      "latitude": "60.27513000",
      "longitude": "11.17901000"
   },
   {
      "name": "Rælingen",
      "countryCode": "NO",
      "stateCode": "02",
      "latitude": "59.92626000",
      "longitude": "11.06527000"
   },
   {
      "name": "Skedsmo",
      "countryCode": "NO",
      "stateCode": "02",
      "latitude": "59.95448000",
      "longitude": "11.03952000"
   },
   {
      "name": "Ski",
      "countryCode": "NO",
      "stateCode": "02",
      "latitude": "59.72049000",
      "longitude": "10.83882000"
   },
   {
      "name": "Skui",
      "countryCode": "NO",
      "stateCode": "02",
      "latitude": "59.92746000",
      "longitude": "10.44750000"
   },
   {
      "name": "Sørum",
      "countryCode": "NO",
      "stateCode": "02",
      "latitude": "59.98709000",
      "longitude": "11.24019000"
   },
   {
      "name": "Sørumsand",
      "countryCode": "NO",
      "stateCode": "02",
      "latitude": "59.98621000",
      "longitude": "11.24154000"
   },
   {
      "name": "Ullensaker",
      "countryCode": "NO",
      "stateCode": "02",
      "latitude": "60.14401000",
      "longitude": "11.17441000"
   },
   {
      "name": "Vestby",
      "countryCode": "NO",
      "stateCode": "02",
      "latitude": "59.60228000",
      "longitude": "10.74807000"
   },
   {
      "name": "Åneby",
      "countryCode": "NO",
      "stateCode": "02",
      "latitude": "60.08926000",
      "longitude": "10.86998000"
   },
   {
      "name": "Årnes",
      "countryCode": "NO",
      "stateCode": "02",
      "latitude": "60.12237000",
      "longitude": "11.47005000"
   },
   {
      "name": "Ås",
      "countryCode": "NO",
      "stateCode": "02",
      "latitude": "59.66366000",
      "longitude": "10.79101000"
   }
]