[
   {
      "name": "Aguas Corrientes",
      "countryCode": "UY",
      "stateCode": "CA",
      "latitude": "-34.52194000",
      "longitude": "-56.39361000"
   },
   {
      "name": "Atlántida",
      "countryCode": "UY",
      "stateCode": "CA",
      "latitude": "-34.77190000",
      "longitude": "-55.75840000"
   },
   {
      "name": "Barra de Carrasco",
      "countryCode": "UY",
      "stateCode": "CA",
      "latitude": "-34.87722000",
      "longitude": "-56.02972000"
   },
   {
      "name": "Barros Blancos",
      "countryCode": "UY",
      "stateCode": "CA",
      "latitude": "-34.75240000",
      "longitude": "-56.00259000"
   },
   {
      "name": "Canelones",
      "countryCode": "UY",
      "stateCode": "CA",
      "latitude": "-34.52278000",
      "longitude": "-56.27778000"
   },
   {
      "name": "Colonia Nicolich",
      "countryCode": "UY",
      "stateCode": "CA",
      "latitude": "-34.81516000",
      "longitude": "-56.02435000"
   },
   {
      "name": "Empalme Olmos",
      "countryCode": "UY",
      "stateCode": "CA",
      "latitude": "-34.69753000",
      "longitude": "-55.89268000"
   },
   {
      "name": "Joaquín Suárez",
      "countryCode": "UY",
      "stateCode": "CA",
      "latitude": "-34.73501000",
      "longitude": "-56.03470000"
   },
   {
      "name": "Juanicó",
      "countryCode": "UY",
      "stateCode": "CA",
      "latitude": "-34.59454000",
      "longitude": "-56.25334000"
   },
   {
      "name": "La Floresta",
      "countryCode": "UY",
      "stateCode": "CA",
      "latitude": "-34.75572000",
      "longitude": "-55.68141000"
   },
   {
      "name": "La Paz",
      "countryCode": "UY",
      "stateCode": "CA",
      "latitude": "-34.76031000",
      "longitude": "-56.22590000"
   },
   {
      "name": "Las Piedras",
      "countryCode": "UY",
      "stateCode": "CA",
      "latitude": "-34.73020000",
      "longitude": "-56.21915000"
   },
   {
      "name": "Las Toscas",
      "countryCode": "UY",
      "stateCode": "CA",
      "latitude": "-34.73333000",
      "longitude": "-55.71667000"
   },
   {
      "name": "Los Cerrillos",
      "countryCode": "UY",
      "stateCode": "CA",
      "latitude": "-34.60500000",
      "longitude": "-56.35639000"
   },
   {
      "name": "Migues",
      "countryCode": "UY",
      "stateCode": "CA",
      "latitude": "-34.48759000",
      "longitude": "-55.62793000"
   },
   {
      "name": "Montes",
      "countryCode": "UY",
      "stateCode": "CA",
      "latitude": "-34.49339000",
      "longitude": "-55.56219000"
   },
   {
      "name": "Pando",
      "countryCode": "UY",
      "stateCode": "CA",
      "latitude": "-34.71716000",
      "longitude": "-55.95840000"
   },
   {
      "name": "Paso de Carrasco",
      "countryCode": "UY",
      "stateCode": "CA",
      "latitude": "-34.86028000",
      "longitude": "-56.05222000"
   },
   {
      "name": "Progreso",
      "countryCode": "UY",
      "stateCode": "CA",
      "latitude": "-34.66737000",
      "longitude": "-56.21758000"
   },
   {
      "name": "San Antonio",
      "countryCode": "UY",
      "stateCode": "CA",
      "latitude": "-34.45130000",
      "longitude": "-56.08036000"
   },
   {
      "name": "San Bautista",
      "countryCode": "UY",
      "stateCode": "CA",
      "latitude": "-34.44016000",
      "longitude": "-55.95861000"
   },
   {
      "name": "San Jacinto",
      "countryCode": "UY",
      "stateCode": "CA",
      "latitude": "-34.54465000",
      "longitude": "-55.87151000"
   },
   {
      "name": "San Ramón",
      "countryCode": "UY",
      "stateCode": "CA",
      "latitude": "-34.29155000",
      "longitude": "-55.95571000"
   },
   {
      "name": "Santa Lucía",
      "countryCode": "UY",
      "stateCode": "CA",
      "latitude": "-34.45333000",
      "longitude": "-56.39056000"
   },
   {
      "name": "Santa Rosa",
      "countryCode": "UY",
      "stateCode": "CA",
      "latitude": "-34.49819000",
      "longitude": "-56.03795000"
   },
   {
      "name": "Sauce",
      "countryCode": "UY",
      "stateCode": "CA",
      "latitude": "-34.65191000",
      "longitude": "-56.06431000"
   },
   {
      "name": "Soca",
      "countryCode": "UY",
      "stateCode": "CA",
      "latitude": "-34.68432000",
      "longitude": "-55.70200000"
   },
   {
      "name": "Tala",
      "countryCode": "UY",
      "stateCode": "CA",
      "latitude": "-34.34349000",
      "longitude": "-55.76375000"
   },
   {
      "name": "Toledo",
      "countryCode": "UY",
      "stateCode": "CA",
      "latitude": "-34.73807000",
      "longitude": "-56.09469000"
   }
]