[
   {
      "name": "Chauk",
      "countryCode": "MM",
      "stateCode": "03",
      "latitude": "20.89921000",
      "longitude": "94.81784000"
   },
   {
      "name": "Magway",
      "countryCode": "MM",
      "stateCode": "03",
      "latitude": "20.14956000",
      "longitude": "94.93246000"
   },
   {
      "name": "Minbu",
      "countryCode": "MM",
      "stateCode": "03",
      "latitude": "20.18059000",
      "longitude": "94.87595000"
   },
   {
      "name": "Myaydo",
      "countryCode": "MM",
      "stateCode": "03",
      "latitude": "19.36838000",
      "longitude": "95.21512000"
   },
   {
      "name": "Pakokku",
      "countryCode": "MM",
      "stateCode": "03",
      "latitude": "21.33489000",
      "longitude": "95.08438000"
   },
   {
      "name": "Taungdwingyi",
      "countryCode": "MM",
      "stateCode": "03",
      "latitude": "20.00650000",
      "longitude": "95.54531000"
   },
   {
      "name": "Thayetmyo",
      "countryCode": "MM",
      "stateCode": "03",
      "latitude": "19.32076000",
      "longitude": "95.18272000"
   },
   {
      "name": "Yenangyaung",
      "countryCode": "MM",
      "stateCode": "03",
      "latitude": "20.46504000",
      "longitude": "94.87120000"
   }
]