[
   {
      "name": "Alcochete",
      "countryCode": "PT",
      "stateCode": "15",
      "latitude": "38.73827000",
      "longitude": "-8.97936000"
   },
   {
      "name": "Alcácer do Sal",
      "countryCode": "PT",
      "stateCode": "15",
      "latitude": "38.37326000",
      "longitude": "-8.51444000"
   },
   {
      "name": "Aldeia de Paio Pires",
      "countryCode": "PT",
      "stateCode": "15",
      "latitude": "38.61667000",
      "longitude": "-9.08333000"
   },
   {
      "name": "Alhos Vedros",
      "countryCode": "PT",
      "stateCode": "15",
      "latitude": "38.65486000",
      "longitude": "-9.02368000"
   },
   {
      "name": "Almada",
      "countryCode": "PT",
      "stateCode": "15",
      "latitude": "38.67902000",
      "longitude": "-9.15690000"
   },
   {
      "name": "Amora",
      "countryCode": "PT",
      "stateCode": "15",
      "latitude": "38.62961000",
      "longitude": "-9.11557000"
   },
   {
      "name": "Arrentela",
      "countryCode": "PT",
      "stateCode": "15",
      "latitude": "38.62500000",
      "longitude": "-9.10151000"
   },
   {
      "name": "Azeitão",
      "countryCode": "PT",
      "stateCode": "15",
      "latitude": "38.51919000",
      "longitude": "-9.01390000"
   },
   {
      "name": "Barreiro",
      "countryCode": "PT",
      "stateCode": "15",
      "latitude": "38.66314000",
      "longitude": "-9.07240000"
   },
   {
      "name": "Cacilhas",
      "countryCode": "PT",
      "stateCode": "15",
      "latitude": "38.68638000",
      "longitude": "-9.14938000"
   },
   {
      "name": "Caparica",
      "countryCode": "PT",
      "stateCode": "15",
      "latitude": "38.66179000",
      "longitude": "-9.20032000"
   },
   {
      "name": "Cercal",
      "countryCode": "PT",
      "stateCode": "15",
      "latitude": "37.80129000",
      "longitude": "-8.67400000"
   },
   {
      "name": "Charneca de Caparica",
      "countryCode": "PT",
      "stateCode": "15",
      "latitude": "38.62032000",
      "longitude": "-9.19426000"
   },
   {
      "name": "Comporta",
      "countryCode": "PT",
      "stateCode": "15",
      "latitude": "38.38059000",
      "longitude": "-8.78608000"
   },
   {
      "name": "Corroios",
      "countryCode": "PT",
      "stateCode": "15",
      "latitude": "38.64004000",
      "longitude": "-9.15080000"
   },
   {
      "name": "Costa de Caparica",
      "countryCode": "PT",
      "stateCode": "15",
      "latitude": "38.64458000",
      "longitude": "-9.23556000"
   },
   {
      "name": "Grândola",
      "countryCode": "PT",
      "stateCode": "15",
      "latitude": "38.18999000",
      "longitude": "-8.61197000"
   },
   {
      "name": "Laranjeira",
      "countryCode": "PT",
      "stateCode": "15",
      "latitude": "38.65599000",
      "longitude": "-9.15376000"
   },
   {
      "name": "Lavradio",
      "countryCode": "PT",
      "stateCode": "15",
      "latitude": "38.66808000",
      "longitude": "-9.05204000"
   },
   {
      "name": "Moita",
      "countryCode": "PT",
      "stateCode": "15",
      "latitude": "38.65854000",
      "longitude": "-9.01040000"
   },
   {
      "name": "Montijo",
      "countryCode": "PT",
      "stateCode": "15",
      "latitude": "38.72990000",
      "longitude": "-8.69364000"
   },
   {
      "name": "Palmela",
      "countryCode": "PT",
      "stateCode": "15",
      "latitude": "38.56902000",
      "longitude": "-8.90126000"
   },
   {
      "name": "Piedade",
      "countryCode": "PT",
      "stateCode": "15",
      "latitude": "38.67005000",
      "longitude": "-9.15852000"
   },
   {
      "name": "Pinhal Novo",
      "countryCode": "PT",
      "stateCode": "15",
      "latitude": "38.63106000",
      "longitude": "-8.91376000"
   },
   {
      "name": "Porto Covo",
      "countryCode": "PT",
      "stateCode": "15",
      "latitude": "37.85256000",
      "longitude": "-8.79018000"
   },
   {
      "name": "Pragal",
      "countryCode": "PT",
      "stateCode": "15",
      "latitude": "38.67459000",
      "longitude": "-9.16981000"
   },
   {
      "name": "Quinta Do Conde",
      "countryCode": "PT",
      "stateCode": "15",
      "latitude": "38.56528000",
      "longitude": "-9.04316000"
   },
   {
      "name": "Quinta do Anjo",
      "countryCode": "PT",
      "stateCode": "15",
      "latitude": "38.56753000",
      "longitude": "-8.94228000"
   },
   {
      "name": "Rosairinho",
      "countryCode": "PT",
      "stateCode": "15",
      "latitude": "38.67734000",
      "longitude": "-9.00836000"
   },
   {
      "name": "Samouco",
      "countryCode": "PT",
      "stateCode": "15",
      "latitude": "38.72035000",
      "longitude": "-9.00471000"
   },
   {
      "name": "Santiago do Cacém",
      "countryCode": "PT",
      "stateCode": "15",
      "latitude": "38.02502000",
      "longitude": "-8.67577000"
   },
   {
      "name": "Santo André",
      "countryCode": "PT",
      "stateCode": "15",
      "latitude": "38.06078000",
      "longitude": "-8.78220000"
   },
   {
      "name": "Santo António da Charneca",
      "countryCode": "PT",
      "stateCode": "15",
      "latitude": "38.62561000",
      "longitude": "-9.03043000"
   },
   {
      "name": "Sarilhos Pequenos",
      "countryCode": "PT",
      "stateCode": "15",
      "latitude": "38.68176000",
      "longitude": "-8.98231000"
   },
   {
      "name": "Seixal",
      "countryCode": "PT",
      "stateCode": "15",
      "latitude": "38.61173000",
      "longitude": "-9.10371000"
   },
   {
      "name": "Sesimbra",
      "countryCode": "PT",
      "stateCode": "15",
      "latitude": "38.49486000",
      "longitude": "-9.12011000"
   },
   {
      "name": "Setúbal",
      "countryCode": "PT",
      "stateCode": "15",
      "latitude": "38.52440000",
      "longitude": "-8.88820000"
   },
   {
      "name": "Sines",
      "countryCode": "PT",
      "stateCode": "15",
      "latitude": "37.95622000",
      "longitude": "-8.86979000"
   },
   {
      "name": "Sobreda",
      "countryCode": "PT",
      "stateCode": "15",
      "latitude": "38.64961000",
      "longitude": "-9.18977000"
   },
   {
      "name": "Trafaria",
      "countryCode": "PT",
      "stateCode": "15",
      "latitude": "38.67222000",
      "longitude": "-9.23268000"
   }
]