[
   {
      "name": "Hokkaidō Prefecture",
      "isoCode": "01",
      "countryCode": "JP",
      "latitude": "43.22032660",
      "longitude": "142.86347370"
   },
   {
      "name": "Aomori Prefecture",
      "isoCode": "02",
      "countryCode": "JP",
      "latitude": "40.76570770",
      "longitude": "140.91758790"
   },
   {
      "name": "Iwate Prefecture",
      "isoCode": "03",
      "countryCode": "JP",
      "latitude": "39.58329890",
      "longitude": "141.25345740"
   },
   {
      "name": "Miyagi Prefecture",
      "isoCode": "04",
      "countryCode": "JP",
      "latitude": "38.63061200",
      "longitude": "141.11930480"
   },
   {
      "name": "Akita Prefecture",
      "isoCode": "05",
      "countryCode": "JP",
      "latitude": "40.13762930",
      "longitude": "140.33434100"
   },
   {
      "name": "Yamagata Prefecture",
      "isoCode": "06",
      "countryCode": "JP",
      "latitude": "38.53705640",
      "longitude": "140.14351980"
   },
   {
      "name": "Fukushima Prefecture",
      "isoCode": "07",
      "countryCode": "JP",
      "latitude": "37.38343730",
      "longitude": "140.18325160"
   },
   {
      "name": "Ibaraki Prefecture",
      "isoCode": "08",
      "countryCode": "JP",
      "latitude": "36.21935710",
      "longitude": "140.18325160"
   },
   {
      "name": "Tochigi Prefecture",
      "isoCode": "09",
      "countryCode": "JP",
      "latitude": "36.67147390",
      "longitude": "139.85472660"
   },
   {
      "name": "Gunma Prefecture",
      "isoCode": "10",
      "countryCode": "JP",
      "latitude": "36.56053880",
      "longitude": "138.87999720"
   },
   {
      "name": "Saitama Prefecture",
      "isoCode": "11",
      "countryCode": "JP",
      "latitude": "35.99625130",
      "longitude": "139.44660050"
   },
   {
      "name": "Chiba Prefecture",
      "isoCode": "12",
      "countryCode": "JP",
      "latitude": "35.33541550",
      "longitude": "140.18325160"
   },
   {
      "name": "Tokyo",
      "isoCode": "13",
      "countryCode": "JP",
      "latitude": "35.67619190",
      "longitude": "139.65031060"
   },
   {
      "name": "Kanagawa Prefecture",
      "isoCode": "14",
      "countryCode": "JP",
      "latitude": "35.49135350",
      "longitude": "139.28414300"
   },
   {
      "name": "Niigata Prefecture",
      "isoCode": "15",
      "countryCode": "JP",
      "latitude": "37.51783860",
      "longitude": "138.92697940"
   },
   {
      "name": "Toyama Prefecture",
      "isoCode": "16",
      "countryCode": "JP",
      "latitude": "36.69582660",
      "longitude": "137.21370710"
   },
   {
      "name": "Ishikawa Prefecture",
      "isoCode": "17",
      "countryCode": "JP",
      "latitude": "36.32603170",
      "longitude": "136.52896530"
   },
   {
      "name": "Fukui Prefecture",
      "isoCode": "18",
      "countryCode": "JP",
      "latitude": "35.89622700",
      "longitude": "136.21115790"
   },
   {
      "name": "Yamanashi Prefecture",
      "isoCode": "19",
      "countryCode": "JP",
      "latitude": "35.66351130",
      "longitude": "138.63888790"
   },
   {
      "name": "Nagano Prefecture",
      "isoCode": "20",
      "countryCode": "JP",
      "latitude": "36.15439410",
      "longitude": "137.92182040"
   },
   {
      "name": "Gifu Prefecture",
      "isoCode": "21",
      "countryCode": "JP",
      "latitude": "35.74374910",
      "longitude": "136.98051030"
   },
   {
      "name": "Shizuoka Prefecture",
      "isoCode": "22",
      "countryCode": "JP",
      "latitude": "35.09293970",
      "longitude": "138.31902760"
   },
   {
      "name": "Aichi Prefecture",
      "isoCode": "23",
      "countryCode": "JP",
      "latitude": "35.01825050",
      "longitude": "137.29238930"
   },
   {
      "name": "Mie Prefecture",
      "isoCode": "24",
      "countryCode": "JP",
      "latitude": "33.81439010",
      "longitude": "136.04870470"
   },
   {
      "name": "Shiga Prefecture",
      "isoCode": "25",
      "countryCode": "JP",
      "latitude": "35.32920140",
      "longitude": "136.05632120"
   },
   {
      "name": "Kyōto Prefecture",
      "isoCode": "26",
      "countryCode": "JP",
      "latitude": "35.15666090",
      "longitude": "135.52519820"
   },
   {
      "name": "Ōsaka Prefecture",
      "isoCode": "27",
      "countryCode": "JP",
      "latitude": "34.64133150",
      "longitude": "135.56293940"
   },
   {
      "name": "Hyōgo Prefecture",
      "isoCode": "28",
      "countryCode": "JP",
      "latitude": "34.85795180",
      "longitude": "134.54537870"
   },
   {
      "name": "Nara Prefecture",
      "isoCode": "29",
      "countryCode": "JP",
      "latitude": "34.29755280",
      "longitude": "135.82797340"
   },
   {
      "name": "Wakayama Prefecture",
      "isoCode": "30",
      "countryCode": "JP",
      "latitude": "33.94809140",
      "longitude": "135.37453580"
   },
   {
      "name": "Tottori Prefecture",
      "isoCode": "31",
      "countryCode": "JP",
      "latitude": "35.35731610",
      "longitude": "133.40666180"
   },
   {
      "name": "Shimane Prefecture",
      "isoCode": "32",
      "countryCode": "JP",
      "latitude": "35.12440940",
      "longitude": "132.62934460"
   },
   {
      "name": "Okayama Prefecture",
      "isoCode": "33",
      "countryCode": "JP",
      "latitude": "34.89634070",
      "longitude": "133.63753140"
   },
   {
      "name": "Hiroshima Prefecture",
      "isoCode": "34",
      "countryCode": "JP",
      "latitude": "34.88234080",
      "longitude": "133.01948970"
   },
   {
      "name": "Yamaguchi Prefecture",
      "isoCode": "35",
      "countryCode": "JP",
      "latitude": "34.27967690",
      "longitude": "131.52127420"
   },
   {
      "name": "Tokushima Prefecture",
      "isoCode": "36",
      "countryCode": "JP",
      "latitude": "33.94196550",
      "longitude": "134.32365570"
   },
   {
      "name": "Kagawa Prefecture",
      "isoCode": "37",
      "countryCode": "JP",
      "latitude": "34.22259150",
      "longitude": "134.01991520"
   },
   {
      "name": "Ehime Prefecture",
      "isoCode": "38",
      "countryCode": "JP",
      "latitude": "33.60253060",
      "longitude": "132.78575830"
   },
   {
      "name": "Kōchi Prefecture",
      "isoCode": "39",
      "countryCode": "JP",
      "latitude": "33.28791610",
      "longitude": "132.27592620"
   },
   {
      "name": "Fukuoka Prefecture",
      "isoCode": "40",
      "countryCode": "JP",
      "latitude": "33.56625590",
      "longitude": "130.71585700"
   },
   {
      "name": "Saga Prefecture",
      "isoCode": "41",
      "countryCode": "JP",
      "latitude": "33.30783710",
      "longitude": "130.22712430"
   },
   {
      "name": "Nagasaki Prefecture",
      "isoCode": "42",
      "countryCode": "JP",
      "latitude": "33.24885250",
      "longitude": "129.69309120"
   },
   {
      "name": "Kumamoto Prefecture",
      "isoCode": "43",
      "countryCode": "JP",
      "latitude": "32.85944270",
      "longitude": "130.79691490"
   },
   {
      "name": "Ōita Prefecture",
      "isoCode": "44",
      "countryCode": "JP",
      "latitude": "33.15892990",
      "longitude": "131.36111210"
   },
   {
      "name": "Miyazaki Prefecture",
      "isoCode": "45",
      "countryCode": "JP",
      "latitude": "32.60360220",
      "longitude": "131.44125100"
   },
   {
      "name": "Kagoshima Prefecture",
      "isoCode": "46",
      "countryCode": "JP",
      "latitude": "31.39119580",
      "longitude": "130.87785860"
   },
   {
      "name": "Okinawa Prefecture",
      "isoCode": "47",
      "countryCode": "JP",
      "latitude": "26.12019110",
      "longitude": "127.70250120"
   }
]