[
   {
      "name": "Akkışla",
      "countryCode": "TR",
      "stateCode": "38",
      "latitude": "39.00222000",
      "longitude": "36.17381000"
   },
   {
      "name": "Bünyan",
      "countryCode": "TR",
      "stateCode": "38",
      "latitude": "38.84630000",
      "longitude": "35.86033000"
   },
   {
      "name": "Develi",
      "countryCode": "TR",
      "stateCode": "38",
      "latitude": "38.26789000",
      "longitude": "35.59161000"
   },
   {
      "name": "Felahiye",
      "countryCode": "TR",
      "stateCode": "38",
      "latitude": "39.09056000",
      "longitude": "35.56722000"
   },
   {
      "name": "Hacılar",
      "countryCode": "TR",
      "stateCode": "38",
      "latitude": "38.64631000",
      "longitude": "35.44937000"
   },
   {
      "name": "Incesu",
      "countryCode": "TR",
      "stateCode": "38",
      "latitude": "38.63789000",
      "longitude": "35.19394000"
   },
   {
      "name": "Kayseri",
      "countryCode": "TR",
      "stateCode": "38",
      "latitude": "38.73222000",
      "longitude": "35.48528000"
   },
   {
      "name": "Kocasinan",
      "countryCode": "TR",
      "stateCode": "38",
      "latitude": "38.87959000",
      "longitude": "35.35540000"
   },
   {
      "name": "Melikgazi",
      "countryCode": "TR",
      "stateCode": "38",
      "latitude": "38.77933000",
      "longitude": "35.66076000"
   },
   {
      "name": "Pınarbaşı",
      "countryCode": "TR",
      "stateCode": "38",
      "latitude": "38.72285000",
      "longitude": "36.39314000"
   },
   {
      "name": "Sarıoğlan",
      "countryCode": "TR",
      "stateCode": "38",
      "latitude": "39.07694000",
      "longitude": "35.96671000"
   },
   {
      "name": "Sarız",
      "countryCode": "TR",
      "stateCode": "38",
      "latitude": "38.47917000",
      "longitude": "36.49898000"
   },
   {
      "name": "Talas",
      "countryCode": "TR",
      "stateCode": "38",
      "latitude": "38.69080000",
      "longitude": "35.55380000"
   },
   {
      "name": "Tomarza",
      "countryCode": "TR",
      "stateCode": "38",
      "latitude": "38.44722000",
      "longitude": "35.79917000"
   },
   {
      "name": "Yahyali",
      "countryCode": "TR",
      "stateCode": "38",
      "latitude": "37.96660000",
      "longitude": "35.44012000"
   },
   {
      "name": "Yahyalı",
      "countryCode": "TR",
      "stateCode": "38",
      "latitude": "38.10228000",
      "longitude": "35.35704000"
   },
   {
      "name": "Yesilhisar",
      "countryCode": "TR",
      "stateCode": "38",
      "latitude": "38.33475000",
      "longitude": "35.11795000"
   },
   {
      "name": "Özvatan İlçesi",
      "countryCode": "TR",
      "stateCode": "38",
      "latitude": "39.11737000",
      "longitude": "35.71149000"
   }
]