[
   {
     "name": "Pago Pago",
     "countryCode": "US",
     "stateCode": "AS",
     "lat": "-14.2740",
     "lng": "-170.7046"
   },
   {
     "name": "Faleniu",
     "countryCode": "US",
     "stateCode": "AS",
     "lat": "-14.3276",
     "lng": "-170.7438"
   },
   {
     "name": "Vailoatai",
     "countryCode": "US",
     "stateCode": "AS",
     "lat": "-14.3523",
     "lng": "-170.7813"
   },
   {
     "name": "Pava'ia'i",
     "countryCode": "US",
     "stateCode": "AS",
     "lat": "-14.3341",
     "lng": "-170.7511"
   },
   {
     "name": "Tafuna",
     "countryCode": "US",
     "stateCode": "AS",
     "lat": "-14.3298",
     "lng": "-170.7239"
   },
   {
     "name": "Puapua",
     "countryCode": "US",
     "stateCode": "AS",
     "lat": "-14.3449",
     "lng": "-170.7723"
   },
   {
     "name": "Mesepa",
     "countryCode": "US",
     "stateCode": "AS",
     "lat": "-14.3227",
     "lng": "-170.7467"
   },
   {
     "name": "Ili'ili",
     "countryCode": "US",
     "stateCode": "AS",
     "lat": "-14.3432",
     "lng": "-170.7400"
   },
   {
     "name": "Fagatogo",
     "countryCode": "US",
     "stateCode": "AS",
     "lat": "-14.2834",
     "lng": "-170.6937"
   },
   {
     "name": "Aua",
     "countryCode": "US",
     "stateCode": "AS",
     "lat": "-14.2724",
     "lng": "-170.6618"
   },
   {
     "name": "Anua",
     "countryCode": "US",
     "stateCode": "AS",
     "lat": "-14.2689",
     "lng": "-170.6881"
   },
   {
     "name": "Atu'u",
     "countryCode": "US",
     "stateCode": "AS",
     "lat": "-14.2676",
     "lng": "-170.6862"
   },
   {
     "name": "Faga'alu",
     "countryCode": "US",
     "stateCode": "AS",
     "lat": "-14.2901",
     "lng": "-170.6860"
   },
   {
     "name": "Utulei",
     "countryCode": "US",
     "stateCode": "AS",
     "lat": "-14.2835",
     "lng": "-170.6836"
   },
   {
     "name": "Amouli",
     "countryCode": "US",
     "stateCode": "AS",
     "lat": "-14.2731",
     "lng": "-170.5884"
   },
   {
     "name": "Aoa",
     "countryCode": "US",
     "stateCode": "AS",
     "lat": "-14.2635",
     "lng": "-170.5869"
   },
   {
     "name": "Vaitogi",
     "countryCode": "US",
     "stateCode": "AS",
     "lat": "-14.3538",
     "lng": "-170.7414"
   },
   {
     "name": "Fatumafuti",
     "countryCode": "US",
     "stateCode": "AS",
     "lat": "-14.2965",
     "lng": "-170.6788"
   },
   {
     "name": "Taputimu",
     "countryCode": "US",
     "stateCode": "AS",
     "lat": "-14.3557",
     "lng": "-170.7723"
   },
   {
     "name": "Lauli'i",
     "countryCode": "US",
     "stateCode": "AS",
     "lat": "-14.2838",
     "lng": "-170.6560"
   },
   {
     "name": "Malaeloa/Ituau",
     "countryCode": "US",
     "stateCode": "AS",
     "lat": "-14.3424",
     "lng": "-170.7658"
   },
   {
     "name": "Alofau",
     "countryCode": "US",
     "stateCode": "AS",
     "lat": "-14.2761",
     "lng": "-170.6010"
   },
   {
     "name": "Satala",
     "countryCode": "US",
     "stateCode": "AS",
     "lat": "-14.2685",
     "lng": "-170.6919"
   },
   {
     "name": "Mapusagafou",
     "countryCode": "US",
     "stateCode": "AS",
     "lat": "-14.3227",
     "lng": "-170.7554"
   },
   {
     "name": "Leone",
     "countryCode": "US",
     "stateCode": "AS",
     "lat": "-14.3314",
     "lng": "-170.7797"
   },
   {
     "name": "Nu'uuli",
     "countryCode": "US",
     "stateCode": "AS",
     "lat": "-14.3081",
     "lng": "-170.7147"
   },
   {
     "name": "Auasi",
     "countryCode": "US",
     "stateCode": "AS",
     "lat": "-14.2681",
     "lng": "-170.5773"
   },
   {
     "name": "Pagai",
     "countryCode": "US",
     "stateCode": "AS",
     "lat": "-14.2682",
     "lng": "-170.6051"
   },
   {
     "name": "Matu'u",
     "countryCode": "US",
     "stateCode": "AS",
     "lat": "-14.2959",
     "lng": "-170.6896"
   },
   {
     "name": "Se'etaga",
     "countryCode": "US",
     "stateCode": "AS",
     "lat": "-14.3213",
     "lng": "-170.8126"
   },
   {
     "name": "Alao",
     "countryCode": "US",
     "stateCode": "AS",
     "lat": "-14.2623",
     "lng": "-170.5687"
   },
   {
     "name": "Malaeimi",
     "countryCode": "US",
     "stateCode": "AS",
     "lat": "-14.3108",
     "lng": "-170.7371"
   },
   {
     "name": "Auma",
     "countryCode": "US",
     "stateCode": "AS",
     "lat": "-14.3330",
     "lng": "-170.7859"
   },
   {
     "name": "Tula",
     "countryCode": "US",
     "stateCode": "AS",
     "lat": "-14.2523",
     "lng": "-170.5692"
   },
   {
     "name": "Faga'itua",
     "countryCode": "US",
     "stateCode": "AS",
     "lat": "-14.2657",
     "lng": "-170.6135"
   },
   {
     "name": "Masausi",
     "countryCode": "US",
     "stateCode": "AS",
     "lat": "-14.2592",
     "lng": "-170.6090"
   },
   {
     "name": "Faganeanea",
     "countryCode": "US",
     "stateCode": "AS",
     "lat": "-14.2995",
     "lng": "-170.6968"
   },
   {
     "name": "Aunu'u",
     "countryCode": "US",
     "stateCode": "AS",
     "lat": "-14.2838",
     "lng": "-170.5535"
   }
 ]
 