[
   {
      "name": "Amphoe Buntharik",
      "countryCode": "TH",
      "stateCode": "34",
      "latitude": "14.70495000",
      "longitude": "105.40444000"
   },
   {
      "name": "Amphoe Det Udom",
      "countryCode": "TH",
      "stateCode": "34",
      "latitude": "14.85153000",
      "longitude": "105.07511000"
   },
   {
      "name": "Amphoe Don Mot Daeng",
      "countryCode": "TH",
      "stateCode": "34",
      "latitude": "15.37694000",
      "longitude": "105.02107000"
   },
   {
      "name": "Amphoe Khemmarat",
      "countryCode": "TH",
      "stateCode": "34",
      "latitude": "15.97114000",
      "longitude": "105.15168000"
   },
   {
      "name": "Amphoe Khong Chiam",
      "countryCode": "TH",
      "stateCode": "34",
      "latitude": "15.45432000",
      "longitude": "105.50363000"
   },
   {
      "name": "Amphoe Khueang Nai",
      "countryCode": "TH",
      "stateCode": "34",
      "latitude": "15.39097000",
      "longitude": "104.54363000"
   },
   {
      "name": "Amphoe Kut Khaopun",
      "countryCode": "TH",
      "stateCode": "34",
      "latitude": "15.81907000",
      "longitude": "105.04066000"
   },
   {
      "name": "Amphoe Lao Suea Kok",
      "countryCode": "TH",
      "stateCode": "34",
      "latitude": "15.43952000",
      "longitude": "104.91662000"
   },
   {
      "name": "Amphoe Muang Sam Sip",
      "countryCode": "TH",
      "stateCode": "34",
      "latitude": "15.52637000",
      "longitude": "104.71661000"
   },
   {
      "name": "Amphoe Mueang Ubon Ratchathani",
      "countryCode": "TH",
      "stateCode": "34",
      "latitude": "15.29662000",
      "longitude": "104.83052000"
   },
   {
      "name": "Amphoe Na Chaluai",
      "countryCode": "TH",
      "stateCode": "34",
      "latitude": "14.56695000",
      "longitude": "105.22367000"
   },
   {
      "name": "Amphoe Na Tan",
      "countryCode": "TH",
      "stateCode": "34",
      "latitude": "15.93485000",
      "longitude": "105.28454000"
   },
   {
      "name": "Amphoe Na Yia",
      "countryCode": "TH",
      "stateCode": "34",
      "latitude": "15.04140000",
      "longitude": "105.05729000"
   },
   {
      "name": "Amphoe Nam Khun",
      "countryCode": "TH",
      "stateCode": "34",
      "latitude": "14.55508000",
      "longitude": "104.89872000"
   },
   {
      "name": "Amphoe Nam Yuen",
      "countryCode": "TH",
      "stateCode": "34",
      "latitude": "14.48671000",
      "longitude": "105.00269000"
   },
   {
      "name": "Amphoe Phibun Mangsahan",
      "countryCode": "TH",
      "stateCode": "34",
      "latitude": "15.14589000",
      "longitude": "105.24094000"
   },
   {
      "name": "Amphoe Pho Sai",
      "countryCode": "TH",
      "stateCode": "34",
      "latitude": "15.76739000",
      "longitude": "105.34339000"
   },
   {
      "name": "Amphoe Samrong",
      "countryCode": "TH",
      "stateCode": "34",
      "latitude": "14.98532000",
      "longitude": "104.79139000"
   },
   {
      "name": "Amphoe Sawang Wirawong",
      "countryCode": "TH",
      "stateCode": "34",
      "latitude": "15.23439000",
      "longitude": "105.07600000"
   },
   {
      "name": "Amphoe Si Mueang Mai",
      "countryCode": "TH",
      "stateCode": "34",
      "latitude": "15.56297000",
      "longitude": "105.34830000"
   },
   {
      "name": "Amphoe Sirindhorn",
      "countryCode": "TH",
      "stateCode": "34",
      "latitude": "15.11249000",
      "longitude": "105.42837000"
   },
   {
      "name": "Amphoe Tan Sum",
      "countryCode": "TH",
      "stateCode": "34",
      "latitude": "15.39035000",
      "longitude": "105.16273000"
   },
   {
      "name": "Amphoe Thung Si Udom",
      "countryCode": "TH",
      "stateCode": "34",
      "latitude": "14.73936000",
      "longitude": "104.91731000"
   },
   {
      "name": "Amphoe Trakan Phuet Phon",
      "countryCode": "TH",
      "stateCode": "34",
      "latitude": "15.61360000",
      "longitude": "105.06444000"
   },
   {
      "name": "Amphoe Warin Chamrap",
      "countryCode": "TH",
      "stateCode": "34",
      "latitude": "15.12394000",
      "longitude": "104.87499000"
   },
   {
      "name": "Det Udom",
      "countryCode": "TH",
      "stateCode": "34",
      "latitude": "14.90598000",
      "longitude": "105.07836000"
   },
   {
      "name": "Phibun Mangsahan",
      "countryCode": "TH",
      "stateCode": "34",
      "latitude": "15.24467000",
      "longitude": "105.22908000"
   },
   {
      "name": "Sawang Wirawong",
      "countryCode": "TH",
      "stateCode": "34",
      "latitude": "15.24158000",
      "longitude": "105.09220000"
   },
   {
      "name": "Ubon Ratchathani",
      "countryCode": "TH",
      "stateCode": "34",
      "latitude": "15.23844000",
      "longitude": "104.84866000"
   },
   {
      "name": "Warin Chamrap",
      "countryCode": "TH",
      "stateCode": "34",
      "latitude": "15.19319000",
      "longitude": "104.86280000"
   }
]