[
   {
      "name": "Altenburg",
      "countryCode": "DE",
      "stateCode": "TH",
      "latitude": "50.98763000",
      "longitude": "12.43684000"
   },
   {
      "name": "Altenfeld",
      "countryCode": "DE",
      "stateCode": "TH",
      "latitude": "50.56667000",
      "longitude": "10.96667000"
   },
   {
      "name": "Altengottern",
      "countryCode": "DE",
      "stateCode": "TH",
      "latitude": "51.16395000",
      "longitude": "10.58093000"
   },
   {
      "name": "Altkirchen",
      "countryCode": "DE",
      "stateCode": "TH",
      "latitude": "50.93333000",
      "longitude": "12.35000000"
   },
   {
      "name": "Anrode",
      "countryCode": "DE",
      "stateCode": "TH",
      "latitude": "51.26667000",
      "longitude": "10.33333000"
   },
   {
      "name": "Apfelstädt",
      "countryCode": "DE",
      "stateCode": "TH",
      "latitude": "50.90157000",
      "longitude": "10.88977000"
   },
   {
      "name": "Apolda",
      "countryCode": "DE",
      "stateCode": "TH",
      "latitude": "51.02624000",
      "longitude": "11.51638000"
   },
   {
      "name": "Arenshausen",
      "countryCode": "DE",
      "stateCode": "TH",
      "latitude": "51.37613000",
      "longitude": "9.96870000"
   },
   {
      "name": "Arnstadt",
      "countryCode": "DE",
      "stateCode": "TH",
      "latitude": "50.84048000",
      "longitude": "10.95198000"
   },
   {
      "name": "Artern",
      "countryCode": "DE",
      "stateCode": "TH",
      "latitude": "51.36431000",
      "longitude": "11.29167000"
   },
   {
      "name": "Auleben",
      "countryCode": "DE",
      "stateCode": "TH",
      "latitude": "51.42640000",
      "longitude": "10.92968000"
   },
   {
      "name": "Auma",
      "countryCode": "DE",
      "stateCode": "TH",
      "latitude": "50.70044000",
      "longitude": "11.89958000"
   },
   {
      "name": "Bad Berka",
      "countryCode": "DE",
      "stateCode": "TH",
      "latitude": "50.89982000",
      "longitude": "11.28245000"
   },
   {
      "name": "Bad Blankenburg",
      "countryCode": "DE",
      "stateCode": "TH",
      "latitude": "50.68189000",
      "longitude": "11.27369000"
   },
   {
      "name": "Bad Frankenhausen",
      "countryCode": "DE",
      "stateCode": "TH",
      "latitude": "51.35609000",
      "longitude": "11.09977000"
   },
   {
      "name": "Bad Klosterlausnitz",
      "countryCode": "DE",
      "stateCode": "TH",
      "latitude": "50.91667000",
      "longitude": "11.86667000"
   },
   {
      "name": "Bad Köstritz",
      "countryCode": "DE",
      "stateCode": "TH",
      "latitude": "50.93032000",
      "longitude": "12.01005000"
   },
   {
      "name": "Bad Langensalza",
      "countryCode": "DE",
      "stateCode": "TH",
      "latitude": "51.10771000",
      "longitude": "10.64600000"
   },
   {
      "name": "Bad Liebenstein",
      "countryCode": "DE",
      "stateCode": "TH",
      "latitude": "50.81569000",
      "longitude": "10.35123000"
   },
   {
      "name": "Bad Lobenstein",
      "countryCode": "DE",
      "stateCode": "TH",
      "latitude": "50.45223000",
      "longitude": "11.63930000"
   },
   {
      "name": "Bad Salzungen",
      "countryCode": "DE",
      "stateCode": "TH",
      "latitude": "50.81342000",
      "longitude": "10.23610000"
   },
   {
      "name": "Bad Sulza",
      "countryCode": "DE",
      "stateCode": "TH",
      "latitude": "51.08929000",
      "longitude": "11.62474000"
   },
   {
      "name": "Bad Tennstedt",
      "countryCode": "DE",
      "stateCode": "TH",
      "latitude": "51.15447000",
      "longitude": "10.83873000"
   },
   {
      "name": "Barchfeld",
      "countryCode": "DE",
      "stateCode": "TH",
      "latitude": "50.82872000",
      "longitude": "11.17955000"
   },
   {
      "name": "Behringen",
      "countryCode": "DE",
      "stateCode": "TH",
      "latitude": "50.77283000",
      "longitude": "11.01403000"
   },
   {
      "name": "Benshausen",
      "countryCode": "DE",
      "stateCode": "TH",
      "latitude": "50.65000000",
      "longitude": "10.60000000"
   },
   {
      "name": "Berga",
      "countryCode": "DE",
      "stateCode": "TH",
      "latitude": "50.75184000",
      "longitude": "12.16445000"
   },
   {
      "name": "Berlingerode",
      "countryCode": "DE",
      "stateCode": "TH",
      "latitude": "51.45775000",
      "longitude": "10.23840000"
   },
   {
      "name": "Berlstedt",
      "countryCode": "DE",
      "stateCode": "TH",
      "latitude": "51.06142000",
      "longitude": "11.24288000"
   },
   {
      "name": "Bischofferode",
      "countryCode": "DE",
      "stateCode": "TH",
      "latitude": "51.49656000",
      "longitude": "10.44396000"
   },
   {
      "name": "Blankenhain",
      "countryCode": "DE",
      "stateCode": "TH",
      "latitude": "50.85993000",
      "longitude": "11.34390000"
   },
   {
      "name": "Bleicherode",
      "countryCode": "DE",
      "stateCode": "TH",
      "latitude": "51.44026000",
      "longitude": "10.57202000"
   },
   {
      "name": "Brahmenau",
      "countryCode": "DE",
      "stateCode": "TH",
      "latitude": "50.92359000",
      "longitude": "12.15886000"
   },
   {
      "name": "Brehme",
      "countryCode": "DE",
      "stateCode": "TH",
      "latitude": "51.49421000",
      "longitude": "10.35908000"
   },
   {
      "name": "Breitenbach",
      "countryCode": "DE",
      "stateCode": "TH",
      "latitude": "50.68895000",
      "longitude": "10.49148000"
   },
   {
      "name": "Breitenworbis",
      "countryCode": "DE",
      "stateCode": "TH",
      "latitude": "51.41267000",
      "longitude": "10.42820000"
   },
   {
      "name": "Breitungen",
      "countryCode": "DE",
      "stateCode": "TH",
      "latitude": "50.76355000",
      "longitude": "10.32724000"
   },
   {
      "name": "Brotterode",
      "countryCode": "DE",
      "stateCode": "TH",
      "latitude": "50.82412000",
      "longitude": "10.44446000"
   },
   {
      "name": "Bucha",
      "countryCode": "DE",
      "stateCode": "TH",
      "latitude": "50.88333000",
      "longitude": "11.51667000"
   },
   {
      "name": "Bufleben",
      "countryCode": "DE",
      "stateCode": "TH",
      "latitude": "51.00000000",
      "longitude": "10.73333000"
   },
   {
      "name": "Buttelstedt",
      "countryCode": "DE",
      "stateCode": "TH",
      "latitude": "51.07650000",
      "longitude": "11.34353000"
   },
   {
      "name": "Buttlar",
      "countryCode": "DE",
      "stateCode": "TH",
      "latitude": "50.75770000",
      "longitude": "9.95277000"
   },
   {
      "name": "Buttstädt",
      "countryCode": "DE",
      "stateCode": "TH",
      "latitude": "51.12227000",
      "longitude": "11.41721000"
   },
   {
      "name": "Bürgel",
      "countryCode": "DE",
      "stateCode": "TH",
      "latitude": "50.94217000",
      "longitude": "11.75635000"
   },
   {
      "name": "Büttstedt",
      "countryCode": "DE",
      "stateCode": "TH",
      "latitude": "51.25972000",
      "longitude": "10.30636000"
   },
   {
      "name": "Camburg",
      "countryCode": "DE",
      "stateCode": "TH",
      "latitude": "51.05524000",
      "longitude": "11.70967000"
   },
   {
      "name": "Clingen",
      "countryCode": "DE",
      "stateCode": "TH",
      "latitude": "51.23206000",
      "longitude": "10.93281000"
   },
   {
      "name": "Crawinkel",
      "countryCode": "DE",
      "stateCode": "TH",
      "latitude": "50.78333000",
      "longitude": "10.78333000"
   },
   {
      "name": "Creuzburg",
      "countryCode": "DE",
      "stateCode": "TH",
      "latitude": "51.05288000",
      "longitude": "10.24750000"
   },
   {
      "name": "Dachwig",
      "countryCode": "DE",
      "stateCode": "TH",
      "latitude": "51.07770000",
      "longitude": "10.85479000"
   },
   {
      "name": "Dankmarshausen",
      "countryCode": "DE",
      "stateCode": "TH",
      "latitude": "50.92527000",
      "longitude": "10.01601000"
   },
   {
      "name": "Dermbach",
      "countryCode": "DE",
      "stateCode": "TH",
      "latitude": "50.71383000",
      "longitude": "10.11839000"
   },
   {
      "name": "Deuna",
      "countryCode": "DE",
      "stateCode": "TH",
      "latitude": "51.35450000",
      "longitude": "10.47439000"
   },
   {
      "name": "Dingelstädt",
      "countryCode": "DE",
      "stateCode": "TH",
      "latitude": "51.31529000",
      "longitude": "10.31740000"
   },
   {
      "name": "Dippach",
      "countryCode": "DE",
      "stateCode": "TH",
      "latitude": "50.91959000",
      "longitude": "10.04236000"
   },
   {
      "name": "Dorndorf",
      "countryCode": "DE",
      "stateCode": "TH",
      "latitude": "50.83472000",
      "longitude": "10.08921000"
   },
   {
      "name": "Döllstädt",
      "countryCode": "DE",
      "stateCode": "TH",
      "latitude": "51.08333000",
      "longitude": "10.81667000"
   },
   {
      "name": "Ebeleben",
      "countryCode": "DE",
      "stateCode": "TH",
      "latitude": "51.28283000",
      "longitude": "10.72999000"
   },
   {
      "name": "Effelder",
      "countryCode": "DE",
      "stateCode": "TH",
      "latitude": "51.23948000",
      "longitude": "10.24778000"
   },
   {
      "name": "Eisenach",
      "countryCode": "DE",
      "stateCode": "TH",
      "latitude": "50.98070000",
      "longitude": "10.31522000"
   },
   {
      "name": "Eisenberg",
      "countryCode": "DE",
      "stateCode": "TH",
      "latitude": "50.96860000",
      "longitude": "11.90207000"
   },
   {
      "name": "Eisfeld",
      "countryCode": "DE",
      "stateCode": "TH",
      "latitude": "50.42648000",
      "longitude": "10.90695000"
   },
   {
      "name": "Elgersburg",
      "countryCode": "DE",
      "stateCode": "TH",
      "latitude": "50.70603000",
      "longitude": "10.85310000"
   },
   {
      "name": "Ellrich",
      "countryCode": "DE",
      "stateCode": "TH",
      "latitude": "51.58656000",
      "longitude": "10.66326000"
   },
   {
      "name": "Elxleben",
      "countryCode": "DE",
      "stateCode": "TH",
      "latitude": "51.05000000",
      "longitude": "10.95000000"
   },
   {
      "name": "Erfurt",
      "countryCode": "DE",
      "stateCode": "TH",
      "latitude": "50.97870000",
      "longitude": "11.03283000"
   },
   {
      "name": "Ernstroda",
      "countryCode": "DE",
      "stateCode": "TH",
      "latitude": "50.86484000",
      "longitude": "10.62056000"
   },
   {
      "name": "Fambach",
      "countryCode": "DE",
      "stateCode": "TH",
      "latitude": "50.73333000",
      "longitude": "10.36667000"
   },
   {
      "name": "Finsterbergen",
      "countryCode": "DE",
      "stateCode": "TH",
      "latitude": "50.83464000",
      "longitude": "10.58916000"
   },
   {
      "name": "Frankenheim",
      "countryCode": "DE",
      "stateCode": "TH",
      "latitude": "50.54452000",
      "longitude": "10.06828000"
   },
   {
      "name": "Frauenprießnitz",
      "countryCode": "DE",
      "stateCode": "TH",
      "latitude": "51.01667000",
      "longitude": "11.73333000"
   },
   {
      "name": "Frauenwald",
      "countryCode": "DE",
      "stateCode": "TH",
      "latitude": "50.58430000",
      "longitude": "10.85841000"
   },
   {
      "name": "Freienbessingen",
      "countryCode": "DE",
      "stateCode": "TH",
      "latitude": "51.23333000",
      "longitude": "10.76667000"
   },
   {
      "name": "Friedrichroda",
      "countryCode": "DE",
      "stateCode": "TH",
      "latitude": "50.85754000",
      "longitude": "10.56507000"
   },
   {
      "name": "Friemar",
      "countryCode": "DE",
      "stateCode": "TH",
      "latitude": "50.97702000",
      "longitude": "10.78851000"
   },
   {
      "name": "Föritz",
      "countryCode": "DE",
      "stateCode": "TH",
      "latitude": "50.34174000",
      "longitude": "11.23180000"
   },
   {
      "name": "Gangloffsömmern",
      "countryCode": "DE",
      "stateCode": "TH",
      "latitude": "51.18940000",
      "longitude": "10.94332000"
   },
   {
      "name": "Gebesee",
      "countryCode": "DE",
      "stateCode": "TH",
      "latitude": "51.11488000",
      "longitude": "10.93455000"
   },
   {
      "name": "Gehren",
      "countryCode": "DE",
      "stateCode": "TH",
      "latitude": "50.64852000",
      "longitude": "11.00471000"
   },
   {
      "name": "Geisa",
      "countryCode": "DE",
      "stateCode": "TH",
      "latitude": "50.71465000",
      "longitude": "9.95075000"
   },
   {
      "name": "Geisleden",
      "countryCode": "DE",
      "stateCode": "TH",
      "latitude": "51.35000000",
      "longitude": "10.20000000"
   },
   {
      "name": "Geismar",
      "countryCode": "DE",
      "stateCode": "TH",
      "latitude": "51.23169000",
      "longitude": "10.16548000"
   },
   {
      "name": "Georgenthal",
      "countryCode": "DE",
      "stateCode": "TH",
      "latitude": "50.83205000",
      "longitude": "10.66266000"
   },
   {
      "name": "Gera",
      "countryCode": "DE",
      "stateCode": "TH",
      "latitude": "50.88029000",
      "longitude": "12.08187000"
   },
   {
      "name": "Geraberg",
      "countryCode": "DE",
      "stateCode": "TH",
      "latitude": "50.71594000",
      "longitude": "10.83737000"
   },
   {
      "name": "Gernrode",
      "countryCode": "DE",
      "stateCode": "TH",
      "latitude": "51.40000000",
      "longitude": "10.40000000"
   },
   {
      "name": "Gerstungen",
      "countryCode": "DE",
      "stateCode": "TH",
      "latitude": "50.96667000",
      "longitude": "10.06667000"
   },
   {
      "name": "Geschwenda",
      "countryCode": "DE",
      "stateCode": "TH",
      "latitude": "50.73178000",
      "longitude": "10.82540000"
   },
   {
      "name": "Gleichamberg",
      "countryCode": "DE",
      "stateCode": "TH",
      "latitude": "50.37068000",
      "longitude": "10.59822000"
   },
   {
      "name": "Goldbach",
      "countryCode": "DE",
      "stateCode": "TH",
      "latitude": "51.04566000",
      "longitude": "11.43289000"
   },
   {
      "name": "Gotha",
      "countryCode": "DE",
      "stateCode": "TH",
      "latitude": "50.94823000",
      "longitude": "10.70193000"
   },
   {
      "name": "Goßwitz",
      "countryCode": "DE",
      "stateCode": "TH",
      "latitude": "50.63536000",
      "longitude": "11.47737000"
   },
   {
      "name": "Grabsleben",
      "countryCode": "DE",
      "stateCode": "TH",
      "latitude": "50.93633000",
      "longitude": "10.83508000"
   },
   {
      "name": "Greiz",
      "countryCode": "DE",
      "stateCode": "TH",
      "latitude": "50.65778000",
      "longitude": "12.19918000"
   },
   {
      "name": "Greußen",
      "countryCode": "DE",
      "stateCode": "TH",
      "latitude": "51.22964000",
      "longitude": "10.94422000"
   },
   {
      "name": "Großbartloff",
      "countryCode": "DE",
      "stateCode": "TH",
      "latitude": "51.25000000",
      "longitude": "10.21667000"
   },
   {
      "name": "Großbodungen",
      "countryCode": "DE",
      "stateCode": "TH",
      "latitude": "51.47572000",
      "longitude": "10.48104000"
   },
   {
      "name": "Großbreitenbach",
      "countryCode": "DE",
      "stateCode": "TH",
      "latitude": "50.58335000",
      "longitude": "11.00955000"
   },
   {
      "name": "Großenehrich",
      "countryCode": "DE",
      "stateCode": "TH",
      "latitude": "51.24838000",
      "longitude": "10.83458000"
   },
   {
      "name": "Großengottern",
      "countryCode": "DE",
      "stateCode": "TH",
      "latitude": "51.14821000",
      "longitude": "10.56232000"
   },
   {
      "name": "Großenstein",
      "countryCode": "DE",
      "stateCode": "TH",
      "latitude": "50.90000000",
      "longitude": "12.20000000"
   },
   {
      "name": "Großmonra",
      "countryCode": "DE",
      "stateCode": "TH",
      "latitude": "51.21299000",
      "longitude": "11.29578000"
   },
   {
      "name": "Großrudestedt",
      "countryCode": "DE",
      "stateCode": "TH",
      "latitude": "51.09305000",
      "longitude": "11.09977000"
   },
   {
      "name": "Gräfenhain",
      "countryCode": "DE",
      "stateCode": "TH",
      "latitude": "50.81667000",
      "longitude": "10.70000000"
   },
   {
      "name": "Gräfenroda",
      "countryCode": "DE",
      "stateCode": "TH",
      "latitude": "50.74781000",
      "longitude": "10.81063000"
   },
   {
      "name": "Görsbach",
      "countryCode": "DE",
      "stateCode": "TH",
      "latitude": "51.46224000",
      "longitude": "10.93706000"
   },
   {
      "name": "Gößnitz",
      "countryCode": "DE",
      "stateCode": "TH",
      "latitude": "50.88902000",
      "longitude": "12.43292000"
   },
   {
      "name": "Haina",
      "countryCode": "DE",
      "stateCode": "TH",
      "latitude": "50.98971000",
      "longitude": "10.51774000"
   },
   {
      "name": "Haßleben",
      "countryCode": "DE",
      "stateCode": "TH",
      "latitude": "51.10878000",
      "longitude": "10.99637000"
   },
   {
      "name": "Heilbad Heiligenstadt",
      "countryCode": "DE",
      "stateCode": "TH",
      "latitude": "51.37819000",
      "longitude": "10.13744000"
   },
   {
      "name": "Heldrungen",
      "countryCode": "DE",
      "stateCode": "TH",
      "latitude": "51.30208000",
      "longitude": "11.21816000"
   },
   {
      "name": "Hellingen",
      "countryCode": "DE",
      "stateCode": "TH",
      "latitude": "50.25000000",
      "longitude": "10.68333000"
   },
   {
      "name": "Herbsleben",
      "countryCode": "DE",
      "stateCode": "TH",
      "latitude": "51.11667000",
      "longitude": "10.83333000"
   },
   {
      "name": "Heringen",
      "countryCode": "DE",
      "stateCode": "TH",
      "latitude": "51.44705000",
      "longitude": "10.87612000"
   },
   {
      "name": "Hermsdorf",
      "countryCode": "DE",
      "stateCode": "TH",
      "latitude": "50.89694000",
      "longitude": "11.85549000"
   },
   {
      "name": "Herschdorf",
      "countryCode": "DE",
      "stateCode": "TH",
      "latitude": "50.71168000",
      "longitude": "11.53736000"
   },
   {
      "name": "Heyerode",
      "countryCode": "DE",
      "stateCode": "TH",
      "latitude": "51.16439000",
      "longitude": "10.32009000"
   },
   {
      "name": "Hildburghausen",
      "countryCode": "DE",
      "stateCode": "TH",
      "latitude": "50.42553000",
      "longitude": "10.73184000"
   },
   {
      "name": "Hohenleuben",
      "countryCode": "DE",
      "stateCode": "TH",
      "latitude": "50.71128000",
      "longitude": "12.05427000"
   },
   {
      "name": "Hundeshagen",
      "countryCode": "DE",
      "stateCode": "TH",
      "latitude": "51.43333000",
      "longitude": "10.28333000"
   },
   {
      "name": "Hörselgau",
      "countryCode": "DE",
      "stateCode": "TH",
      "latitude": "50.91988000",
      "longitude": "10.58444000"
   },
   {
      "name": "Ichtershausen",
      "countryCode": "DE",
      "stateCode": "TH",
      "latitude": "50.87602000",
      "longitude": "10.97028000"
   },
   {
      "name": "Ifta",
      "countryCode": "DE",
      "stateCode": "TH",
      "latitude": "51.06667000",
      "longitude": "10.18333000"
   },
   {
      "name": "Ilfeld",
      "countryCode": "DE",
      "stateCode": "TH",
      "latitude": "51.57570000",
      "longitude": "10.78469000"
   },
   {
      "name": "Ilmenau",
      "countryCode": "DE",
      "stateCode": "TH",
      "latitude": "50.68322000",
      "longitude": "10.91858000"
   },
   {
      "name": "Immelborn",
      "countryCode": "DE",
      "stateCode": "TH",
      "latitude": "50.79229000",
      "longitude": "10.27812000"
   },
   {
      "name": "Ingersleben",
      "countryCode": "DE",
      "stateCode": "TH",
      "latitude": "50.92167000",
      "longitude": "10.93646000"
   },
   {
      "name": "Jena",
      "countryCode": "DE",
      "stateCode": "TH",
      "latitude": "50.92878000",
      "longitude": "11.58990000"
   },
   {
      "name": "Judenbach",
      "countryCode": "DE",
      "stateCode": "TH",
      "latitude": "50.39591000",
      "longitude": "11.22099000"
   },
   {
      "name": "Jüchsen",
      "countryCode": "DE",
      "stateCode": "TH",
      "latitude": "50.47993000",
      "longitude": "10.50183000"
   },
   {
      "name": "Kahla",
      "countryCode": "DE",
      "stateCode": "TH",
      "latitude": "50.80651000",
      "longitude": "11.58516000"
   },
   {
      "name": "Kaltennordheim",
      "countryCode": "DE",
      "stateCode": "TH",
      "latitude": "50.62649000",
      "longitude": "10.15915000"
   },
   {
      "name": "Kaltenwestheim",
      "countryCode": "DE",
      "stateCode": "TH",
      "latitude": "50.60991000",
      "longitude": "10.11692000"
   },
   {
      "name": "Kamsdorf",
      "countryCode": "DE",
      "stateCode": "TH",
      "latitude": "50.64312000",
      "longitude": "11.45401000"
   },
   {
      "name": "Kannawurf",
      "countryCode": "DE",
      "stateCode": "TH",
      "latitude": "51.26667000",
      "longitude": "11.13333000"
   },
   {
      "name": "Katharinenberg",
      "countryCode": "DE",
      "stateCode": "TH",
      "latitude": "51.18137000",
      "longitude": "10.26084000"
   },
   {
      "name": "Katzhütte",
      "countryCode": "DE",
      "stateCode": "TH",
      "latitude": "50.55191000",
      "longitude": "11.05293000"
   },
   {
      "name": "Kaulsdorf",
      "countryCode": "DE",
      "stateCode": "TH",
      "latitude": "50.61670000",
      "longitude": "11.43295000"
   },
   {
      "name": "Kindelbrück",
      "countryCode": "DE",
      "stateCode": "TH",
      "latitude": "51.26171000",
      "longitude": "11.08999000"
   },
   {
      "name": "Kirchheim",
      "countryCode": "DE",
      "stateCode": "TH",
      "latitude": "50.88333000",
      "longitude": "11.01667000"
   },
   {
      "name": "Kirchworbis",
      "countryCode": "DE",
      "stateCode": "TH",
      "latitude": "51.41122000",
      "longitude": "10.39625000"
   },
   {
      "name": "Kleinfurra",
      "countryCode": "DE",
      "stateCode": "TH",
      "latitude": "51.41556000",
      "longitude": "10.76454000"
   },
   {
      "name": "Kleinwenden",
      "countryCode": "DE",
      "stateCode": "TH",
      "latitude": "51.41611000",
      "longitude": "10.65902000"
   },
   {
      "name": "Klettbach",
      "countryCode": "DE",
      "stateCode": "TH",
      "latitude": "50.91667000",
      "longitude": "11.15000000"
   },
   {
      "name": "Kraftsdorf",
      "countryCode": "DE",
      "stateCode": "TH",
      "latitude": "50.87574000",
      "longitude": "11.92944000"
   },
   {
      "name": "Kranichfeld",
      "countryCode": "DE",
      "stateCode": "TH",
      "latitude": "50.85446000",
      "longitude": "11.20057000"
   },
   {
      "name": "Krauthausen",
      "countryCode": "DE",
      "stateCode": "TH",
      "latitude": "51.01667000",
      "longitude": "10.26667000"
   },
   {
      "name": "Kriebitzsch",
      "countryCode": "DE",
      "stateCode": "TH",
      "latitude": "51.02347000",
      "longitude": "12.33318000"
   },
   {
      "name": "Kromsdorf",
      "countryCode": "DE",
      "stateCode": "TH",
      "latitude": "51.00000000",
      "longitude": "11.36667000"
   },
   {
      "name": "Krölpa",
      "countryCode": "DE",
      "stateCode": "TH",
      "latitude": "50.67743000",
      "longitude": "11.53848000"
   },
   {
      "name": "Kölleda",
      "countryCode": "DE",
      "stateCode": "TH",
      "latitude": "51.18745000",
      "longitude": "11.24488000"
   },
   {
      "name": "Königsee",
      "countryCode": "DE",
      "stateCode": "TH",
      "latitude": "50.66143000",
      "longitude": "11.09748000"
   },
   {
      "name": "Könitz",
      "countryCode": "DE",
      "stateCode": "TH",
      "latitude": "50.64979000",
      "longitude": "11.48809000"
   },
   {
      "name": "Körner",
      "countryCode": "DE",
      "stateCode": "TH",
      "latitude": "51.23126000",
      "longitude": "10.58878000"
   },
   {
      "name": "Kühndorf",
      "countryCode": "DE",
      "stateCode": "TH",
      "latitude": "50.60860000",
      "longitude": "10.48940000"
   },
   {
      "name": "Küllstedt",
      "countryCode": "DE",
      "stateCode": "TH",
      "latitude": "51.27582000",
      "longitude": "10.28040000"
   },
   {
      "name": "Langenorla",
      "countryCode": "DE",
      "stateCode": "TH",
      "latitude": "50.74067000",
      "longitude": "11.58023000"
   },
   {
      "name": "Langenwetzendorf",
      "countryCode": "DE",
      "stateCode": "TH",
      "latitude": "50.67884000",
      "longitude": "12.09407000"
   },
   {
      "name": "Langewiesen",
      "countryCode": "DE",
      "stateCode": "TH",
      "latitude": "50.67252000",
      "longitude": "10.97102000"
   },
   {
      "name": "Langula",
      "countryCode": "DE",
      "stateCode": "TH",
      "latitude": "51.15001000",
      "longitude": "10.41670000"
   },
   {
      "name": "Lauchröden",
      "countryCode": "DE",
      "stateCode": "TH",
      "latitude": "50.99371000",
      "longitude": "10.15694000"
   },
   {
      "name": "Lauscha",
      "countryCode": "DE",
      "stateCode": "TH",
      "latitude": "50.47687000",
      "longitude": "11.15962000"
   },
   {
      "name": "Lehesten",
      "countryCode": "DE",
      "stateCode": "TH",
      "latitude": "50.98333000",
      "longitude": "11.58333000"
   },
   {
      "name": "Leimbach",
      "countryCode": "DE",
      "stateCode": "TH",
      "latitude": "50.81667000",
      "longitude": "10.20000000"
   },
   {
      "name": "Leinefelde-Worbis",
      "countryCode": "DE",
      "stateCode": "TH",
      "latitude": "51.38796000",
      "longitude": "10.32620000"
   },
   {
      "name": "Leutenberg",
      "countryCode": "DE",
      "stateCode": "TH",
      "latitude": "50.56354000",
      "longitude": "11.45619000"
   },
   {
      "name": "Lichte",
      "countryCode": "DE",
      "stateCode": "TH",
      "latitude": "50.51667000",
      "longitude": "11.18333000"
   },
   {
      "name": "Lucka",
      "countryCode": "DE",
      "stateCode": "TH",
      "latitude": "51.09727000",
      "longitude": "12.33336000"
   },
   {
      "name": "Luisenthal",
      "countryCode": "DE",
      "stateCode": "TH",
      "latitude": "50.78333000",
      "longitude": "10.73333000"
   },
   {
      "name": "Löbichau",
      "countryCode": "DE",
      "stateCode": "TH",
      "latitude": "50.89383000",
      "longitude": "12.26366000"
   },
   {
      "name": "Magdala",
      "countryCode": "DE",
      "stateCode": "TH",
      "latitude": "50.90698000",
      "longitude": "11.44801000"
   },
   {
      "name": "Marksuhl",
      "countryCode": "DE",
      "stateCode": "TH",
      "latitude": "50.91667000",
      "longitude": "10.20000000"
   },
   {
      "name": "Masserberg",
      "countryCode": "DE",
      "stateCode": "TH",
      "latitude": "50.51981000",
      "longitude": "10.97087000"
   },
   {
      "name": "Mechterstädt",
      "countryCode": "DE",
      "stateCode": "TH",
      "latitude": "50.94201000",
      "longitude": "10.52380000"
   },
   {
      "name": "Meiningen",
      "countryCode": "DE",
      "stateCode": "TH",
      "latitude": "50.56787000",
      "longitude": "10.41521000"
   },
   {
      "name": "Mellenbach-Glasbach",
      "countryCode": "DE",
      "stateCode": "TH",
      "latitude": "50.61667000",
      "longitude": "11.10000000"
   },
   {
      "name": "Mellingen",
      "countryCode": "DE",
      "stateCode": "TH",
      "latitude": "50.94123000",
      "longitude": "11.39640000"
   },
   {
      "name": "Mengersgereuth-Hämmern",
      "countryCode": "DE",
      "stateCode": "TH",
      "latitude": "50.39730000",
      "longitude": "11.11649000"
   },
   {
      "name": "Menteroda",
      "countryCode": "DE",
      "stateCode": "TH",
      "latitude": "51.30763000",
      "longitude": "10.56323000"
   },
   {
      "name": "Meuselbach",
      "countryCode": "DE",
      "stateCode": "TH",
      "latitude": "50.57152000",
      "longitude": "11.09143000"
   },
   {
      "name": "Meuselwitz",
      "countryCode": "DE",
      "stateCode": "TH",
      "latitude": "51.04315000",
      "longitude": "12.29935000"
   },
   {
      "name": "Mihla",
      "countryCode": "DE",
      "stateCode": "TH",
      "latitude": "51.07617000",
      "longitude": "10.33175000"
   },
   {
      "name": "Milz",
      "countryCode": "DE",
      "stateCode": "TH",
      "latitude": "50.37760000",
      "longitude": "10.53757000"
   },
   {
      "name": "Mohlsdorf",
      "countryCode": "DE",
      "stateCode": "TH",
      "latitude": "50.66974000",
      "longitude": "12.26519000"
   },
   {
      "name": "Molschleben",
      "countryCode": "DE",
      "stateCode": "TH",
      "latitude": "51.00000000",
      "longitude": "10.78333000"
   },
   {
      "name": "Mönchenholzhausen",
      "countryCode": "DE",
      "stateCode": "TH",
      "latitude": "50.96667000",
      "longitude": "11.15000000"
   },
   {
      "name": "Mühlhausen",
      "countryCode": "DE",
      "stateCode": "TH",
      "latitude": "51.20896000",
      "longitude": "10.45275000"
   },
   {
      "name": "Münchenbernsdorf",
      "countryCode": "DE",
      "stateCode": "TH",
      "latitude": "50.82114000",
      "longitude": "11.93226000"
   },
   {
      "name": "Neudietendorf",
      "countryCode": "DE",
      "stateCode": "TH",
      "latitude": "50.91250000",
      "longitude": "10.91346000"
   },
   {
      "name": "Neuhaus",
      "countryCode": "DE",
      "stateCode": "TH",
      "latitude": "50.68333000",
      "longitude": "10.93333000"
   },
   {
      "name": "Neuhaus am Rennweg",
      "countryCode": "DE",
      "stateCode": "TH",
      "latitude": "50.51006000",
      "longitude": "11.13787000"
   },
   {
      "name": "Neuhaus-Schierschnitz",
      "countryCode": "DE",
      "stateCode": "TH",
      "latitude": "50.31237000",
      "longitude": "11.24019000"
   },
   {
      "name": "Neustadt am Rennsteig",
      "countryCode": "DE",
      "stateCode": "TH",
      "latitude": "50.58333000",
      "longitude": "10.93333000"
   },
   {
      "name": "Neustadt an der Orla",
      "countryCode": "DE",
      "stateCode": "TH",
      "latitude": "50.73640000",
      "longitude": "11.74619000"
   },
   {
      "name": "Niederdorla",
      "countryCode": "DE",
      "stateCode": "TH",
      "latitude": "51.16025000",
      "longitude": "10.44820000"
   },
   {
      "name": "Niederorschel",
      "countryCode": "DE",
      "stateCode": "TH",
      "latitude": "51.37222000",
      "longitude": "10.42372000"
   },
   {
      "name": "Niederroßla",
      "countryCode": "DE",
      "stateCode": "TH",
      "latitude": "51.03333000",
      "longitude": "11.48333000"
   },
   {
      "name": "Niedersachswerfen",
      "countryCode": "DE",
      "stateCode": "TH",
      "latitude": "51.55062000",
      "longitude": "10.76594000"
   },
   {
      "name": "Niederzimmern",
      "countryCode": "DE",
      "stateCode": "TH",
      "latitude": "51.00476000",
      "longitude": "11.19028000"
   },
   {
      "name": "Nobitz",
      "countryCode": "DE",
      "stateCode": "TH",
      "latitude": "50.97621000",
      "longitude": "12.48605000"
   },
   {
      "name": "Nohra",
      "countryCode": "DE",
      "stateCode": "TH",
      "latitude": "50.96136000",
      "longitude": "11.25971000"
   },
   {
      "name": "Nordhausen",
      "countryCode": "DE",
      "stateCode": "TH",
      "latitude": "51.50180000",
      "longitude": "10.79570000"
   },
   {
      "name": "Nöbdenitz",
      "countryCode": "DE",
      "stateCode": "TH",
      "latitude": "50.86667000",
      "longitude": "12.28333000"
   },
   {
      "name": "Oberdorla",
      "countryCode": "DE",
      "stateCode": "TH",
      "latitude": "51.16585000",
      "longitude": "10.42163000"
   },
   {
      "name": "Oberhof",
      "countryCode": "DE",
      "stateCode": "TH",
      "latitude": "50.70435000",
      "longitude": "10.72716000"
   },
   {
      "name": "Obermaßfeld-Grimmenthal",
      "countryCode": "DE",
      "stateCode": "TH",
      "latitude": "50.52898000",
      "longitude": "10.43963000"
   },
   {
      "name": "Obermehler",
      "countryCode": "DE",
      "stateCode": "TH",
      "latitude": "51.26996000",
      "longitude": "10.59754000"
   },
   {
      "name": "Oberweißbach",
      "countryCode": "DE",
      "stateCode": "TH",
      "latitude": "50.58231000",
      "longitude": "11.14382000"
   },
   {
      "name": "Oldisleben",
      "countryCode": "DE",
      "stateCode": "TH",
      "latitude": "51.30975000",
      "longitude": "11.17112000"
   },
   {
      "name": "Oppurg",
      "countryCode": "DE",
      "stateCode": "TH",
      "latitude": "50.71065000",
      "longitude": "11.65289000"
   },
   {
      "name": "Orlamünde",
      "countryCode": "DE",
      "stateCode": "TH",
      "latitude": "50.77486000",
      "longitude": "11.51929000"
   },
   {
      "name": "Oßmanstedt",
      "countryCode": "DE",
      "stateCode": "TH",
      "latitude": "51.01815000",
      "longitude": "11.42746000"
   },
   {
      "name": "Pappenheim",
      "countryCode": "DE",
      "stateCode": "TH",
      "latitude": "50.79631000",
      "longitude": "10.47489000"
   },
   {
      "name": "Plaue",
      "countryCode": "DE",
      "stateCode": "TH",
      "latitude": "50.77835000",
      "longitude": "10.89969000"
   },
   {
      "name": "Ponitz",
      "countryCode": "DE",
      "stateCode": "TH",
      "latitude": "50.85762000",
      "longitude": "12.42309000"
   },
   {
      "name": "Probstzella",
      "countryCode": "DE",
      "stateCode": "TH",
      "latitude": "50.53333000",
      "longitude": "11.38333000"
   },
   {
      "name": "Pölzig",
      "countryCode": "DE",
      "stateCode": "TH",
      "latitude": "50.95000000",
      "longitude": "12.20000000"
   },
   {
      "name": "Pößneck",
      "countryCode": "DE",
      "stateCode": "TH",
      "latitude": "50.69358000",
      "longitude": "11.59229000"
   },
   {
      "name": "Ranis",
      "countryCode": "DE",
      "stateCode": "TH",
      "latitude": "50.66132000",
      "longitude": "11.56912000"
   },
   {
      "name": "Rastenberg",
      "countryCode": "DE",
      "stateCode": "TH",
      "latitude": "51.17496000",
      "longitude": "11.42029000"
   },
   {
      "name": "Remptendorf",
      "countryCode": "DE",
      "stateCode": "TH",
      "latitude": "50.53333000",
      "longitude": "11.65000000"
   },
   {
      "name": "Riethnordhausen",
      "countryCode": "DE",
      "stateCode": "TH",
      "latitude": "51.08333000",
      "longitude": "11.00000000"
   },
   {
      "name": "Ringleben",
      "countryCode": "DE",
      "stateCode": "TH",
      "latitude": "51.36667000",
      "longitude": "11.21667000"
   },
   {
      "name": "Rohr",
      "countryCode": "DE",
      "stateCode": "TH",
      "latitude": "50.57644000",
      "longitude": "10.49725000"
   },
   {
      "name": "Ronneburg",
      "countryCode": "DE",
      "stateCode": "TH",
      "latitude": "50.86340000",
      "longitude": "12.18666000"
   },
   {
      "name": "Rositz",
      "countryCode": "DE",
      "stateCode": "TH",
      "latitude": "51.01728000",
      "longitude": "12.36354000"
   },
   {
      "name": "Rothenstein",
      "countryCode": "DE",
      "stateCode": "TH",
      "latitude": "50.85000000",
      "longitude": "11.60000000"
   },
   {
      "name": "Rottenbach",
      "countryCode": "DE",
      "stateCode": "TH",
      "latitude": "50.68782000",
      "longitude": "11.16674000"
   },
   {
      "name": "Roßleben",
      "countryCode": "DE",
      "stateCode": "TH",
      "latitude": "51.29886000",
      "longitude": "11.43435000"
   },
   {
      "name": "Rudolstadt",
      "countryCode": "DE",
      "stateCode": "TH",
      "latitude": "50.72043000",
      "longitude": "11.34046000"
   },
   {
      "name": "Ruhla",
      "countryCode": "DE",
      "stateCode": "TH",
      "latitude": "50.89296000",
      "longitude": "10.36573000"
   },
   {
      "name": "Römhild",
      "countryCode": "DE",
      "stateCode": "TH",
      "latitude": "50.39639000",
      "longitude": "10.53889000"
   },
   {
      "name": "Saalfeld",
      "countryCode": "DE",
      "stateCode": "TH",
      "latitude": "50.64826000",
      "longitude": "11.36536000"
   },
   {
      "name": "Saara",
      "countryCode": "DE",
      "stateCode": "TH",
      "latitude": "50.93284000",
      "longitude": "12.42096000"
   },
   {
      "name": "Sankt Gangloff",
      "countryCode": "DE",
      "stateCode": "TH",
      "latitude": "50.85522000",
      "longitude": "11.89446000"
   },
   {
      "name": "Sankt Kilian",
      "countryCode": "DE",
      "stateCode": "TH",
      "latitude": "50.52749000",
      "longitude": "10.76301000"
   },
   {
      "name": "Schalkau",
      "countryCode": "DE",
      "stateCode": "TH",
      "latitude": "50.39536000",
      "longitude": "11.00732000"
   },
   {
      "name": "Schernberg",
      "countryCode": "DE",
      "stateCode": "TH",
      "latitude": "51.32774000",
      "longitude": "10.76928000"
   },
   {
      "name": "Schkölen",
      "countryCode": "DE",
      "stateCode": "TH",
      "latitude": "51.04166000",
      "longitude": "11.82141000"
   },
   {
      "name": "Schleid",
      "countryCode": "DE",
      "stateCode": "TH",
      "latitude": "50.70000000",
      "longitude": "9.96667000"
   },
   {
      "name": "Schleiz",
      "countryCode": "DE",
      "stateCode": "TH",
      "latitude": "50.57866000",
      "longitude": "11.81024000"
   },
   {
      "name": "Schleusingen",
      "countryCode": "DE",
      "stateCode": "TH",
      "latitude": "50.51076000",
      "longitude": "10.75658000"
   },
   {
      "name": "Schlotheim",
      "countryCode": "DE",
      "stateCode": "TH",
      "latitude": "51.24643000",
      "longitude": "10.65842000"
   },
   {
      "name": "Schloßvippach",
      "countryCode": "DE",
      "stateCode": "TH",
      "latitude": "51.10499000",
      "longitude": "11.14512000"
   },
   {
      "name": "Schmalkalden",
      "countryCode": "DE",
      "stateCode": "TH",
      "latitude": "50.72136000",
      "longitude": "10.44386000"
   },
   {
      "name": "Schmiedefeld",
      "countryCode": "DE",
      "stateCode": "TH",
      "latitude": "50.53333000",
      "longitude": "11.21667000"
   },
   {
      "name": "Schmiedefeld am Rennsteig",
      "countryCode": "DE",
      "stateCode": "TH",
      "latitude": "50.60863000",
      "longitude": "10.81284000"
   },
   {
      "name": "Schmölln",
      "countryCode": "DE",
      "stateCode": "TH",
      "latitude": "50.89678000",
      "longitude": "12.35339000"
   },
   {
      "name": "Schwallungen",
      "countryCode": "DE",
      "stateCode": "TH",
      "latitude": "50.69260000",
      "longitude": "10.35706000"
   },
   {
      "name": "Schwarza",
      "countryCode": "DE",
      "stateCode": "TH",
      "latitude": "50.85386000",
      "longitude": "11.32433000"
   },
   {
      "name": "Schweina",
      "countryCode": "DE",
      "stateCode": "TH",
      "latitude": "50.82502000",
      "longitude": "10.33788000"
   },
   {
      "name": "Schönstedt",
      "countryCode": "DE",
      "stateCode": "TH",
      "latitude": "51.12000000",
      "longitude": "10.57743000"
   },
   {
      "name": "Seebach",
      "countryCode": "DE",
      "stateCode": "TH",
      "latitude": "51.16506000",
      "longitude": "10.51428000"
   },
   {
      "name": "Seebergen",
      "countryCode": "DE",
      "stateCode": "TH",
      "latitude": "50.92077000",
      "longitude": "10.79920000"
   },
   {
      "name": "Seelingstädt",
      "countryCode": "DE",
      "stateCode": "TH",
      "latitude": "50.77266000",
      "longitude": "12.24361000"
   },
   {
      "name": "Sitzendorf",
      "countryCode": "DE",
      "stateCode": "TH",
      "latitude": "50.63182000",
      "longitude": "11.17215000"
   },
   {
      "name": "Sollstedt",
      "countryCode": "DE",
      "stateCode": "TH",
      "latitude": "51.30976000",
      "longitude": "10.48810000"
   },
   {
      "name": "Sondershausen",
      "countryCode": "DE",
      "stateCode": "TH",
      "latitude": "51.36973000",
      "longitude": "10.87011000"
   },
   {
      "name": "Sonneberg",
      "countryCode": "DE",
      "stateCode": "TH",
      "latitude": "50.35920000",
      "longitude": "11.17463000"
   },
   {
      "name": "Sonneborn",
      "countryCode": "DE",
      "stateCode": "TH",
      "latitude": "50.99270000",
      "longitude": "10.59173000"
   },
   {
      "name": "Stadtilm",
      "countryCode": "DE",
      "stateCode": "TH",
      "latitude": "50.77596000",
      "longitude": "11.08262000"
   },
   {
      "name": "Stadtlengsfeld",
      "countryCode": "DE",
      "stateCode": "TH",
      "latitude": "50.78329000",
      "longitude": "10.12918000"
   },
   {
      "name": "Stadtroda",
      "countryCode": "DE",
      "stateCode": "TH",
      "latitude": "50.85684000",
      "longitude": "11.72677000"
   },
   {
      "name": "Steinach",
      "countryCode": "DE",
      "stateCode": "TH",
      "latitude": "50.43129000",
      "longitude": "11.15909000"
   },
   {
      "name": "Steinbach",
      "countryCode": "DE",
      "stateCode": "TH",
      "latitude": "50.83321000",
      "longitude": "10.36393000"
   },
   {
      "name": "Steinbach-Hallenberg",
      "countryCode": "DE",
      "stateCode": "TH",
      "latitude": "50.69624000",
      "longitude": "10.56541000"
   },
   {
      "name": "Steinheid",
      "countryCode": "DE",
      "stateCode": "TH",
      "latitude": "50.46538000",
      "longitude": "11.08265000"
   },
   {
      "name": "Straußfurt",
      "countryCode": "DE",
      "stateCode": "TH",
      "latitude": "51.16667000",
      "longitude": "10.98333000"
   },
   {
      "name": "Stützerbach",
      "countryCode": "DE",
      "stateCode": "TH",
      "latitude": "50.63333000",
      "longitude": "10.86667000"
   },
   {
      "name": "Suhl",
      "countryCode": "DE",
      "stateCode": "TH",
      "latitude": "50.60911000",
      "longitude": "10.69401000"
   },
   {
      "name": "Sömmerda",
      "countryCode": "DE",
      "stateCode": "TH",
      "latitude": "51.15914000",
      "longitude": "11.11524000"
   },
   {
      "name": "Tabarz",
      "countryCode": "DE",
      "stateCode": "TH",
      "latitude": "50.87529000",
      "longitude": "10.51607000"
   },
   {
      "name": "Tambach-Dietharz",
      "countryCode": "DE",
      "stateCode": "TH",
      "latitude": "50.79245000",
      "longitude": "10.61568000"
   },
   {
      "name": "Tanna",
      "countryCode": "DE",
      "stateCode": "TH",
      "latitude": "50.49460000",
      "longitude": "11.85725000"
   },
   {
      "name": "Tautenhain",
      "countryCode": "DE",
      "stateCode": "TH",
      "latitude": "50.92470000",
      "longitude": "11.91945000"
   },
   {
      "name": "Teichwolframsdorf",
      "countryCode": "DE",
      "stateCode": "TH",
      "latitude": "50.72093000",
      "longitude": "12.24689000"
   },
   {
      "name": "Teistungen",
      "countryCode": "DE",
      "stateCode": "TH",
      "latitude": "51.46667000",
      "longitude": "10.26667000"
   },
   {
      "name": "Thal",
      "countryCode": "DE",
      "stateCode": "TH",
      "latitude": "50.91684000",
      "longitude": "10.39209000"
   },
   {
      "name": "Themar",
      "countryCode": "DE",
      "stateCode": "TH",
      "latitude": "50.50465000",
      "longitude": "10.61536000"
   },
   {
      "name": "Tiefenort",
      "countryCode": "DE",
      "stateCode": "TH",
      "latitude": "50.83946000",
      "longitude": "10.16604000"
   },
   {
      "name": "Treffurt",
      "countryCode": "DE",
      "stateCode": "TH",
      "latitude": "51.13691000",
      "longitude": "10.23361000"
   },
   {
      "name": "Triebes",
      "countryCode": "DE",
      "stateCode": "TH",
      "latitude": "50.68489000",
      "longitude": "12.02042000"
   },
   {
      "name": "Triptis",
      "countryCode": "DE",
      "stateCode": "TH",
      "latitude": "50.73567000",
      "longitude": "11.87015000"
   },
   {
      "name": "Trusetal",
      "countryCode": "DE",
      "stateCode": "TH",
      "latitude": "50.78333000",
      "longitude": "10.41667000"
   },
   {
      "name": "Uder",
      "countryCode": "DE",
      "stateCode": "TH",
      "latitude": "51.36243000",
      "longitude": "10.07210000"
   },
   {
      "name": "Unterbreizbach",
      "countryCode": "DE",
      "stateCode": "TH",
      "latitude": "50.81667000",
      "longitude": "9.98333000"
   },
   {
      "name": "Untermaßfeld",
      "countryCode": "DE",
      "stateCode": "TH",
      "latitude": "50.53333000",
      "longitude": "10.41667000"
   },
   {
      "name": "Unterwellenborn",
      "countryCode": "DE",
      "stateCode": "TH",
      "latitude": "50.65000000",
      "longitude": "11.43333000"
   },
   {
      "name": "Urbach",
      "countryCode": "DE",
      "stateCode": "TH",
      "latitude": "51.29468000",
      "longitude": "10.60540000"
   },
   {
      "name": "Uthleben",
      "countryCode": "DE",
      "stateCode": "TH",
      "latitude": "51.44912000",
      "longitude": "10.83800000"
   },
   {
      "name": "Vacha",
      "countryCode": "DE",
      "stateCode": "TH",
      "latitude": "50.82790000",
      "longitude": "10.02185000"
   },
   {
      "name": "Veilsdorf",
      "countryCode": "DE",
      "stateCode": "TH",
      "latitude": "50.40876000",
      "longitude": "10.80947000"
   },
   {
      "name": "Viernau",
      "countryCode": "DE",
      "stateCode": "TH",
      "latitude": "50.66225000",
      "longitude": "10.55778000"
   },
   {
      "name": "Voigtstedt",
      "countryCode": "DE",
      "stateCode": "TH",
      "latitude": "51.39169000",
      "longitude": "11.30888000"
   },
   {
      "name": "Völkershausen",
      "countryCode": "DE",
      "stateCode": "TH",
      "latitude": "50.80000000",
      "longitude": "10.05000000"
   },
   {
      "name": "Walldorf",
      "countryCode": "DE",
      "stateCode": "TH",
      "latitude": "50.61667000",
      "longitude": "10.38333000"
   },
   {
      "name": "Walschleben",
      "countryCode": "DE",
      "stateCode": "TH",
      "latitude": "51.06667000",
      "longitude": "10.93333000"
   },
   {
      "name": "Waltershausen",
      "countryCode": "DE",
      "stateCode": "TH",
      "latitude": "50.89827000",
      "longitude": "10.55791000"
   },
   {
      "name": "Wandersleben",
      "countryCode": "DE",
      "stateCode": "TH",
      "latitude": "50.89946000",
      "longitude": "10.84959000"
   },
   {
      "name": "Wasungen",
      "countryCode": "DE",
      "stateCode": "TH",
      "latitude": "50.66190000",
      "longitude": "10.36947000"
   },
   {
      "name": "Weida",
      "countryCode": "DE",
      "stateCode": "TH",
      "latitude": "50.77449000",
      "longitude": "12.06028000"
   },
   {
      "name": "Weimar",
      "countryCode": "DE",
      "stateCode": "TH",
      "latitude": "50.98030000",
      "longitude": "11.32903000"
   },
   {
      "name": "Weißenborn",
      "countryCode": "DE",
      "stateCode": "TH",
      "latitude": "50.92393000",
      "longitude": "11.87947000"
   },
   {
      "name": "Weißenborn-Lüderode",
      "countryCode": "DE",
      "stateCode": "TH",
      "latitude": "51.53190000",
      "longitude": "10.41889000"
   },
   {
      "name": "Weißensee",
      "countryCode": "DE",
      "stateCode": "TH",
      "latitude": "51.19989000",
      "longitude": "11.06914000"
   },
   {
      "name": "Wernshausen",
      "countryCode": "DE",
      "stateCode": "TH",
      "latitude": "50.72404000",
      "longitude": "10.35086000"
   },
   {
      "name": "Wiehe",
      "countryCode": "DE",
      "stateCode": "TH",
      "latitude": "51.26586000",
      "longitude": "11.41282000"
   },
   {
      "name": "Windischleuba",
      "countryCode": "DE",
      "stateCode": "TH",
      "latitude": "51.01556000",
      "longitude": "12.46914000"
   },
   {
      "name": "Wingerode",
      "countryCode": "DE",
      "stateCode": "TH",
      "latitude": "51.39032000",
      "longitude": "10.23954000"
   },
   {
      "name": "Wintersdorf",
      "countryCode": "DE",
      "stateCode": "TH",
      "latitude": "51.05320000",
      "longitude": "12.35445000"
   },
   {
      "name": "Wipperdorf",
      "countryCode": "DE",
      "stateCode": "TH",
      "latitude": "51.45560000",
      "longitude": "10.64388000"
   },
   {
      "name": "Witterda",
      "countryCode": "DE",
      "stateCode": "TH",
      "latitude": "51.03615000",
      "longitude": "10.89028000"
   },
   {
      "name": "Wolkramshausen",
      "countryCode": "DE",
      "stateCode": "TH",
      "latitude": "51.42185000",
      "longitude": "10.73815000"
   },
   {
      "name": "Worbis",
      "countryCode": "DE",
      "stateCode": "TH",
      "latitude": "51.41997000",
      "longitude": "10.36330000"
   },
   {
      "name": "Wurzbach",
      "countryCode": "DE",
      "stateCode": "TH",
      "latitude": "50.46357000",
      "longitude": "11.53779000"
   },
   {
      "name": "Wölfis",
      "countryCode": "DE",
      "stateCode": "TH",
      "latitude": "50.80825000",
      "longitude": "10.77905000"
   },
   {
      "name": "Wünschendorf",
      "countryCode": "DE",
      "stateCode": "TH",
      "latitude": "50.79662000",
      "longitude": "12.09824000"
   },
   {
      "name": "Zella-Mehlis",
      "countryCode": "DE",
      "stateCode": "TH",
      "latitude": "50.65642000",
      "longitude": "10.66046000"
   },
   {
      "name": "Zeulenroda",
      "countryCode": "DE",
      "stateCode": "TH",
      "latitude": "50.65278000",
      "longitude": "11.98377000"
   }
]