[
   {
      "name": "Akasztó",
      "countryCode": "HU",
      "stateCode": "BK",
      "latitude": "46.69167000",
      "longitude": "19.20423000"
   },
   {
      "name": "Apostag",
      "countryCode": "HU",
      "stateCode": "BK",
      "latitude": "46.88208000",
      "longitude": "18.96210000"
   },
   {
      "name": "Baja",
      "countryCode": "HU",
      "stateCode": "BK",
      "latitude": "46.18299000",
      "longitude": "18.95307000"
   },
   {
      "name": "Bajai Járás",
      "countryCode": "HU",
      "stateCode": "BK",
      "latitude": "46.14507000",
      "longitude": "19.01359000"
   },
   {
      "name": "Ballószög",
      "countryCode": "HU",
      "stateCode": "BK",
      "latitude": "46.86216000",
      "longitude": "19.57092000"
   },
   {
      "name": "Bugac",
      "countryCode": "HU",
      "stateCode": "BK",
      "latitude": "46.68704000",
      "longitude": "19.68074000"
   },
   {
      "name": "Bácsalmás",
      "countryCode": "HU",
      "stateCode": "BK",
      "latitude": "46.12648000",
      "longitude": "19.33260000"
   },
   {
      "name": "Bácsalmási Járás",
      "countryCode": "HU",
      "stateCode": "BK",
      "latitude": "46.10167000",
      "longitude": "19.33063000"
   },
   {
      "name": "Bácsbokod",
      "countryCode": "HU",
      "stateCode": "BK",
      "latitude": "46.12500000",
      "longitude": "19.15621000"
   },
   {
      "name": "Bátya",
      "countryCode": "HU",
      "stateCode": "BK",
      "latitude": "46.48800000",
      "longitude": "18.95419000"
   },
   {
      "name": "Csengőd",
      "countryCode": "HU",
      "stateCode": "BK",
      "latitude": "46.71543000",
      "longitude": "19.26802000"
   },
   {
      "name": "Császártöltés",
      "countryCode": "HU",
      "stateCode": "BK",
      "latitude": "46.42194000",
      "longitude": "19.18361000"
   },
   {
      "name": "Csávoly",
      "countryCode": "HU",
      "stateCode": "BK",
      "latitude": "46.18917000",
      "longitude": "19.14667000"
   },
   {
      "name": "Dunapataj",
      "countryCode": "HU",
      "stateCode": "BK",
      "latitude": "46.64400000",
      "longitude": "18.99632000"
   },
   {
      "name": "Dunavecse",
      "countryCode": "HU",
      "stateCode": "BK",
      "latitude": "46.91478000",
      "longitude": "18.97127000"
   },
   {
      "name": "Dusnok",
      "countryCode": "HU",
      "stateCode": "BK",
      "latitude": "46.39085000",
      "longitude": "18.96296000"
   },
   {
      "name": "Dávod",
      "countryCode": "HU",
      "stateCode": "BK",
      "latitude": "45.99500000",
      "longitude": "18.91722000"
   },
   {
      "name": "Felsőszentiván",
      "countryCode": "HU",
      "stateCode": "BK",
      "latitude": "46.19713000",
      "longitude": "19.18686000"
   },
   {
      "name": "Fülöpjakab",
      "countryCode": "HU",
      "stateCode": "BK",
      "latitude": "46.74221000",
      "longitude": "19.72132000"
   },
   {
      "name": "Fülöpszállás",
      "countryCode": "HU",
      "stateCode": "BK",
      "latitude": "46.82075000",
      "longitude": "19.23748000"
   },
   {
      "name": "Gara",
      "countryCode": "HU",
      "stateCode": "BK",
      "latitude": "46.03194000",
      "longitude": "19.04278000"
   },
   {
      "name": "Hajós",
      "countryCode": "HU",
      "stateCode": "BK",
      "latitude": "46.39861000",
      "longitude": "19.12056000"
   },
   {
      "name": "Harta",
      "countryCode": "HU",
      "stateCode": "BK",
      "latitude": "46.69758000",
      "longitude": "19.03110000"
   },
   {
      "name": "Helvécia",
      "countryCode": "HU",
      "stateCode": "BK",
      "latitude": "46.83661000",
      "longitude": "19.62251000"
   },
   {
      "name": "Hercegszántó",
      "countryCode": "HU",
      "stateCode": "BK",
      "latitude": "45.95000000",
      "longitude": "18.93917000"
   },
   {
      "name": "Izsák",
      "countryCode": "HU",
      "stateCode": "BK",
      "latitude": "46.80454000",
      "longitude": "19.35172000"
   },
   {
      "name": "Jánoshalma",
      "countryCode": "HU",
      "stateCode": "BK",
      "latitude": "46.29861000",
      "longitude": "19.32583000"
   },
   {
      "name": "Jánoshalmai Járás",
      "countryCode": "HU",
      "stateCode": "BK",
      "latitude": "46.28283000",
      "longitude": "19.31742000"
   },
   {
      "name": "Jászszentlászló",
      "countryCode": "HU",
      "stateCode": "BK",
      "latitude": "46.56685000",
      "longitude": "19.76065000"
   },
   {
      "name": "Kalocsa",
      "countryCode": "HU",
      "stateCode": "BK",
      "latitude": "46.52981000",
      "longitude": "18.97283000"
   },
   {
      "name": "Kalocsai Járás",
      "countryCode": "HU",
      "stateCode": "BK",
      "latitude": "46.55646000",
      "longitude": "19.04211000"
   },
   {
      "name": "Katymár",
      "countryCode": "HU",
      "stateCode": "BK",
      "latitude": "46.03398000",
      "longitude": "19.20935000"
   },
   {
      "name": "Kecel",
      "countryCode": "HU",
      "stateCode": "BK",
      "latitude": "46.52528000",
      "longitude": "19.25194000"
   },
   {
      "name": "Kecskemét",
      "countryCode": "HU",
      "stateCode": "BK",
      "latitude": "46.90618000",
      "longitude": "19.69128000"
   },
   {
      "name": "Kecskeméti Járás",
      "countryCode": "HU",
      "stateCode": "BK",
      "latitude": "46.88283000",
      "longitude": "19.58701000"
   },
   {
      "name": "Kelebia",
      "countryCode": "HU",
      "stateCode": "BK",
      "latitude": "46.19680000",
      "longitude": "19.61659000"
   },
   {
      "name": "Kerekegyháza",
      "countryCode": "HU",
      "stateCode": "BK",
      "latitude": "46.93722000",
      "longitude": "19.47806000"
   },
   {
      "name": "Kiskunfélegyháza",
      "countryCode": "HU",
      "stateCode": "BK",
      "latitude": "46.71213000",
      "longitude": "19.84458000"
   },
   {
      "name": "Kiskunfélegyházi Járás",
      "countryCode": "HU",
      "stateCode": "BK",
      "latitude": "46.65721000",
      "longitude": "19.77006000"
   },
   {
      "name": "Kiskunhalas",
      "countryCode": "HU",
      "stateCode": "BK",
      "latitude": "46.43402000",
      "longitude": "19.48479000"
   },
   {
      "name": "Kiskunhalasi Járás",
      "countryCode": "HU",
      "stateCode": "BK",
      "latitude": "46.35832000",
      "longitude": "19.53067000"
   },
   {
      "name": "Kiskunmajsa",
      "countryCode": "HU",
      "stateCode": "BK",
      "latitude": "46.49028000",
      "longitude": "19.74000000"
   },
   {
      "name": "Kiskunmajsai Járás",
      "countryCode": "HU",
      "stateCode": "BK",
      "latitude": "46.49608000",
      "longitude": "19.72316000"
   },
   {
      "name": "Kiskőrös",
      "countryCode": "HU",
      "stateCode": "BK",
      "latitude": "46.62139000",
      "longitude": "19.28528000"
   },
   {
      "name": "Kiskőrösi Járás",
      "countryCode": "HU",
      "stateCode": "BK",
      "latitude": "46.63309000",
      "longitude": "19.33726000"
   },
   {
      "name": "Kisszállás",
      "countryCode": "HU",
      "stateCode": "BK",
      "latitude": "46.28009000",
      "longitude": "19.48954000"
   },
   {
      "name": "Kunfehértó",
      "countryCode": "HU",
      "stateCode": "BK",
      "latitude": "46.36091000",
      "longitude": "19.41454000"
   },
   {
      "name": "Kunszentmiklós",
      "countryCode": "HU",
      "stateCode": "BK",
      "latitude": "47.02699000",
      "longitude": "19.12575000"
   },
   {
      "name": "Kunszentmiklósi Járás",
      "countryCode": "HU",
      "stateCode": "BK",
      "latitude": "46.94810000",
      "longitude": "19.15563000"
   },
   {
      "name": "Lajosmizse",
      "countryCode": "HU",
      "stateCode": "BK",
      "latitude": "47.02133000",
      "longitude": "19.56171000"
   },
   {
      "name": "Lakitelek",
      "countryCode": "HU",
      "stateCode": "BK",
      "latitude": "46.87601000",
      "longitude": "19.99504000"
   },
   {
      "name": "Madaras",
      "countryCode": "HU",
      "stateCode": "BK",
      "latitude": "46.05870000",
      "longitude": "19.26121000"
   },
   {
      "name": "Mélykút",
      "countryCode": "HU",
      "stateCode": "BK",
      "latitude": "46.21509000",
      "longitude": "19.38102000"
   },
   {
      "name": "Nagybaracska",
      "countryCode": "HU",
      "stateCode": "BK",
      "latitude": "46.04248000",
      "longitude": "18.90590000"
   },
   {
      "name": "Nemesnádudvar",
      "countryCode": "HU",
      "stateCode": "BK",
      "latitude": "46.34051000",
      "longitude": "19.05115000"
   },
   {
      "name": "Nyárlőrinc",
      "countryCode": "HU",
      "stateCode": "BK",
      "latitude": "46.86017000",
      "longitude": "19.87836000"
   },
   {
      "name": "Orgovány",
      "countryCode": "HU",
      "stateCode": "BK",
      "latitude": "46.75087000",
      "longitude": "19.47259000"
   },
   {
      "name": "Pálmonostora",
      "countryCode": "HU",
      "stateCode": "BK",
      "latitude": "46.62417000",
      "longitude": "19.95156000"
   },
   {
      "name": "Solt",
      "countryCode": "HU",
      "stateCode": "BK",
      "latitude": "46.80101000",
      "longitude": "19.00098000"
   },
   {
      "name": "Soltvadkert",
      "countryCode": "HU",
      "stateCode": "BK",
      "latitude": "46.57889000",
      "longitude": "19.39389000"
   },
   {
      "name": "Szabadszállás",
      "countryCode": "HU",
      "stateCode": "BK",
      "latitude": "46.87575000",
      "longitude": "19.22324000"
   },
   {
      "name": "Szalkszentmárton",
      "countryCode": "HU",
      "stateCode": "BK",
      "latitude": "46.97565000",
      "longitude": "19.01178000"
   },
   {
      "name": "Szank",
      "countryCode": "HU",
      "stateCode": "BK",
      "latitude": "46.55713000",
      "longitude": "19.66103000"
   },
   {
      "name": "Szentkirály",
      "countryCode": "HU",
      "stateCode": "BK",
      "latitude": "46.91892000",
      "longitude": "19.91846000"
   },
   {
      "name": "Sükösd",
      "countryCode": "HU",
      "stateCode": "BK",
      "latitude": "46.28181000",
      "longitude": "18.99524000"
   },
   {
      "name": "Tass",
      "countryCode": "HU",
      "stateCode": "BK",
      "latitude": "47.02095000",
      "longitude": "19.02988000"
   },
   {
      "name": "Tiszaalpár",
      "countryCode": "HU",
      "stateCode": "BK",
      "latitude": "46.81279000",
      "longitude": "19.99841000"
   },
   {
      "name": "Tiszakécske",
      "countryCode": "HU",
      "stateCode": "BK",
      "latitude": "46.93261000",
      "longitude": "20.10349000"
   },
   {
      "name": "Tiszakécskei Járás",
      "countryCode": "HU",
      "stateCode": "BK",
      "latitude": "46.86013000",
      "longitude": "19.97298000"
   },
   {
      "name": "Tompa",
      "countryCode": "HU",
      "stateCode": "BK",
      "latitude": "46.20605000",
      "longitude": "19.53910000"
   },
   {
      "name": "Tázlár",
      "countryCode": "HU",
      "stateCode": "BK",
      "latitude": "46.54824000",
      "longitude": "19.51436000"
   },
   {
      "name": "Vaskút",
      "countryCode": "HU",
      "stateCode": "BK",
      "latitude": "46.10782000",
      "longitude": "18.98514000"
   },
   {
      "name": "Városföld",
      "countryCode": "HU",
      "stateCode": "BK",
      "latitude": "46.81674000",
      "longitude": "19.75668000"
   },
   {
      "name": "Ágasegyháza",
      "countryCode": "HU",
      "stateCode": "BK",
      "latitude": "46.84025000",
      "longitude": "19.45208000"
   },
   {
      "name": "Érsekcsanád",
      "countryCode": "HU",
      "stateCode": "BK",
      "latitude": "46.25352000",
      "longitude": "18.98457000"
   }
]