[
   {
      "name": "'s-Heerenberg",
      "countryCode": "NL",
      "stateCode": "GE",
      "latitude": "51.87670000",
      "longitude": "6.25877000"
   },
   {
      "name": "Aalst",
      "countryCode": "NL",
      "stateCode": "GE",
      "latitude": "51.78250000",
      "longitude": "5.12778000"
   },
   {
      "name": "Aalten",
      "countryCode": "NL",
      "stateCode": "GE",
      "latitude": "51.92500000",
      "longitude": "6.58056000"
   },
   {
      "name": "Afferden",
      "countryCode": "NL",
      "stateCode": "GE",
      "latitude": "51.88000000",
      "longitude": "5.63472000"
   },
   {
      "name": "Alverna",
      "countryCode": "NL",
      "stateCode": "GE",
      "latitude": "51.80417000",
      "longitude": "5.75972000"
   },
   {
      "name": "Ammerzoden",
      "countryCode": "NL",
      "stateCode": "GE",
      "latitude": "51.74917000",
      "longitude": "5.22083000"
   },
   {
      "name": "Andelst",
      "countryCode": "NL",
      "stateCode": "GE",
      "latitude": "51.90833000",
      "longitude": "5.72917000"
   },
   {
      "name": "Angeren",
      "countryCode": "NL",
      "stateCode": "GE",
      "latitude": "51.91583000",
      "longitude": "5.95833000"
   },
   {
      "name": "Angerlo",
      "countryCode": "NL",
      "stateCode": "GE",
      "latitude": "51.99583000",
      "longitude": "6.13472000"
   },
   {
      "name": "Anklaar",
      "countryCode": "NL",
      "stateCode": "GE",
      "latitude": "52.23111000",
      "longitude": "5.98497000"
   },
   {
      "name": "Apeldoorn",
      "countryCode": "NL",
      "stateCode": "GE",
      "latitude": "52.21000000",
      "longitude": "5.96944000"
   },
   {
      "name": "Arnhem",
      "countryCode": "NL",
      "stateCode": "GE",
      "latitude": "51.98000000",
      "longitude": "5.91111000"
   },
   {
      "name": "Babberich",
      "countryCode": "NL",
      "stateCode": "GE",
      "latitude": "51.90750000",
      "longitude": "6.11111000"
   },
   {
      "name": "Bakenberg",
      "countryCode": "NL",
      "stateCode": "GE",
      "latitude": "52.00511000",
      "longitude": "5.87710000"
   },
   {
      "name": "Barneveld",
      "countryCode": "NL",
      "stateCode": "GE",
      "latitude": "52.14000000",
      "longitude": "5.58472000"
   },
   {
      "name": "Beek gem Montferland",
      "countryCode": "NL",
      "stateCode": "GE",
      "latitude": "51.90667000",
      "longitude": "6.18750000"
   },
   {
      "name": "Beekbergen",
      "countryCode": "NL",
      "stateCode": "GE",
      "latitude": "52.16000000",
      "longitude": "5.96389000"
   },
   {
      "name": "Beesd",
      "countryCode": "NL",
      "stateCode": "GE",
      "latitude": "51.88750000",
      "longitude": "5.19167000"
   },
   {
      "name": "Beltrum",
      "countryCode": "NL",
      "stateCode": "GE",
      "latitude": "52.06667000",
      "longitude": "6.56389000"
   },
   {
      "name": "Bemmel",
      "countryCode": "NL",
      "stateCode": "GE",
      "latitude": "51.89167000",
      "longitude": "5.89861000"
   },
   {
      "name": "Bennekom",
      "countryCode": "NL",
      "stateCode": "GE",
      "latitude": "51.99833000",
      "longitude": "5.67639000"
   },
   {
      "name": "Berg en Bos",
      "countryCode": "NL",
      "stateCode": "GE",
      "latitude": "52.22009000",
      "longitude": "5.93340000"
   },
   {
      "name": "Berg en Dal",
      "countryCode": "NL",
      "stateCode": "GE",
      "latitude": "51.82167000",
      "longitude": "5.91667000"
   },
   {
      "name": "Bergharen",
      "countryCode": "NL",
      "stateCode": "GE",
      "latitude": "51.85083000",
      "longitude": "5.66944000"
   },
   {
      "name": "Berkelland",
      "countryCode": "NL",
      "stateCode": "GE",
      "latitude": "52.10606000",
      "longitude": "6.56748000"
   },
   {
      "name": "Beuningen",
      "countryCode": "NL",
      "stateCode": "GE",
      "latitude": "51.86083000",
      "longitude": "5.76667000"
   },
   {
      "name": "Beusichem",
      "countryCode": "NL",
      "stateCode": "GE",
      "latitude": "51.95000000",
      "longitude": "5.29167000"
   },
   {
      "name": "Binnenstad",
      "countryCode": "NL",
      "stateCode": "GE",
      "latitude": "52.21304000",
      "longitude": "5.95957000"
   },
   {
      "name": "Borculo",
      "countryCode": "NL",
      "stateCode": "GE",
      "latitude": "52.11583000",
      "longitude": "6.52222000"
   },
   {
      "name": "Brakel",
      "countryCode": "NL",
      "stateCode": "GE",
      "latitude": "51.81750000",
      "longitude": "5.09028000"
   },
   {
      "name": "Brakkenstein",
      "countryCode": "NL",
      "stateCode": "GE",
      "latitude": "51.81324000",
      "longitude": "5.86539000"
   },
   {
      "name": "Bredevoort",
      "countryCode": "NL",
      "stateCode": "GE",
      "latitude": "51.94167000",
      "longitude": "6.62083000"
   },
   {
      "name": "Bredeweg",
      "countryCode": "NL",
      "stateCode": "GE",
      "latitude": "51.76019000",
      "longitude": "5.94189000"
   },
   {
      "name": "Brinkhorst",
      "countryCode": "NL",
      "stateCode": "GE",
      "latitude": "52.21302000",
      "longitude": "5.95167000"
   },
   {
      "name": "Bruchem",
      "countryCode": "NL",
      "stateCode": "GE",
      "latitude": "51.78667000",
      "longitude": "5.23611000"
   },
   {
      "name": "Brummelhof",
      "countryCode": "NL",
      "stateCode": "GE",
      "latitude": "52.20503000",
      "longitude": "5.96789000"
   },
   {
      "name": "Brummen",
      "countryCode": "NL",
      "stateCode": "GE",
      "latitude": "52.09000000",
      "longitude": "6.15556000"
   },
   {
      "name": "Burgemeesterswijk",
      "countryCode": "NL",
      "stateCode": "GE",
      "latitude": "51.98943000",
      "longitude": "5.89597000"
   },
   {
      "name": "Componistenkwartier",
      "countryCode": "NL",
      "stateCode": "GE",
      "latitude": "52.18977000",
      "longitude": "5.96609000"
   },
   {
      "name": "Corlaer",
      "countryCode": "NL",
      "stateCode": "GE",
      "latitude": "52.21639000",
      "longitude": "5.46535000"
   },
   {
      "name": "Culemborg",
      "countryCode": "NL",
      "stateCode": "GE",
      "latitude": "51.95500000",
      "longitude": "5.22778000"
   },
   {
      "name": "De Bouwhof",
      "countryCode": "NL",
      "stateCode": "GE",
      "latitude": "52.18546000",
      "longitude": "5.94704000"
   },
   {
      "name": "De Haven",
      "countryCode": "NL",
      "stateCode": "GE",
      "latitude": "52.21045000",
      "longitude": "5.97407000"
   },
   {
      "name": "De Heeze",
      "countryCode": "NL",
      "stateCode": "GE",
      "latitude": "52.20061000",
      "longitude": "5.95365000"
   },
   {
      "name": "De Mheen",
      "countryCode": "NL",
      "stateCode": "GE",
      "latitude": "52.21954000",
      "longitude": "5.99141000"
   },
   {
      "name": "Deest",
      "countryCode": "NL",
      "stateCode": "GE",
      "latitude": "51.89000000",
      "longitude": "5.66667000"
   },
   {
      "name": "Deil",
      "countryCode": "NL",
      "stateCode": "GE",
      "latitude": "51.88417000",
      "longitude": "5.24306000"
   },
   {
      "name": "Dieren",
      "countryCode": "NL",
      "stateCode": "GE",
      "latitude": "52.05250000",
      "longitude": "6.10000000"
   },
   {
      "name": "Doesburg",
      "countryCode": "NL",
      "stateCode": "GE",
      "latitude": "52.01250000",
      "longitude": "6.13889000"
   },
   {
      "name": "Doetinchem",
      "countryCode": "NL",
      "stateCode": "GE",
      "latitude": "51.96500000",
      "longitude": "6.28889000"
   },
   {
      "name": "Doornenburg",
      "countryCode": "NL",
      "stateCode": "GE",
      "latitude": "51.89000000",
      "longitude": "6.00000000"
   },
   {
      "name": "Doornspijk",
      "countryCode": "NL",
      "stateCode": "GE",
      "latitude": "52.41833000",
      "longitude": "5.81806000"
   },
   {
      "name": "Doornsteeg",
      "countryCode": "NL",
      "stateCode": "GE",
      "latitude": "52.23000000",
      "longitude": "5.45417000"
   },
   {
      "name": "Doorwerth",
      "countryCode": "NL",
      "stateCode": "GE",
      "latitude": "51.97917000",
      "longitude": "5.79722000"
   },
   {
      "name": "Driehuizen",
      "countryCode": "NL",
      "stateCode": "GE",
      "latitude": "52.20879000",
      "longitude": "5.94442000"
   },
   {
      "name": "Driel",
      "countryCode": "NL",
      "stateCode": "GE",
      "latitude": "51.95917000",
      "longitude": "5.81389000"
   },
   {
      "name": "Drumpt",
      "countryCode": "NL",
      "stateCode": "GE",
      "latitude": "51.89700000",
      "longitude": "5.41043000"
   },
   {
      "name": "Druten",
      "countryCode": "NL",
      "stateCode": "GE",
      "latitude": "51.88833000",
      "longitude": "5.60556000"
   },
   {
      "name": "Duiven",
      "countryCode": "NL",
      "stateCode": "GE",
      "latitude": "51.94667000",
      "longitude": "6.01389000"
   },
   {
      "name": "Ede",
      "countryCode": "NL",
      "stateCode": "GE",
      "latitude": "52.03333000",
      "longitude": "5.65833000"
   },
   {
      "name": "Ederveen",
      "countryCode": "NL",
      "stateCode": "GE",
      "latitude": "52.06333000",
      "longitude": "5.57778000"
   },
   {
      "name": "Eefde",
      "countryCode": "NL",
      "stateCode": "GE",
      "latitude": "52.16667000",
      "longitude": "6.22500000"
   },
   {
      "name": "Eerbeek",
      "countryCode": "NL",
      "stateCode": "GE",
      "latitude": "52.10500000",
      "longitude": "6.05833000"
   },
   {
      "name": "Eibergen",
      "countryCode": "NL",
      "stateCode": "GE",
      "latitude": "52.10000000",
      "longitude": "6.64861000"
   },
   {
      "name": "Elburg",
      "countryCode": "NL",
      "stateCode": "GE",
      "latitude": "52.44750000",
      "longitude": "5.84306000"
   },
   {
      "name": "Elden",
      "countryCode": "NL",
      "stateCode": "GE",
      "latitude": "51.95833000",
      "longitude": "5.88194000"
   },
   {
      "name": "Ellecom",
      "countryCode": "NL",
      "stateCode": "GE",
      "latitude": "52.03250000",
      "longitude": "6.08750000"
   },
   {
      "name": "Elspeet",
      "countryCode": "NL",
      "stateCode": "GE",
      "latitude": "52.29167000",
      "longitude": "5.78889000"
   },
   {
      "name": "Elst",
      "countryCode": "NL",
      "stateCode": "GE",
      "latitude": "51.91917000",
      "longitude": "5.84167000"
   },
   {
      "name": "Emst",
      "countryCode": "NL",
      "stateCode": "GE",
      "latitude": "52.31583000",
      "longitude": "5.97361000"
   },
   {
      "name": "Epe",
      "countryCode": "NL",
      "stateCode": "GE",
      "latitude": "52.34750000",
      "longitude": "5.98333000"
   },
   {
      "name": "Epse",
      "countryCode": "NL",
      "stateCode": "GE",
      "latitude": "52.22500000",
      "longitude": "6.20000000"
   },
   {
      "name": "Ermelo",
      "countryCode": "NL",
      "stateCode": "GE",
      "latitude": "52.29833000",
      "longitude": "5.62222000"
   },
   {
      "name": "Etten",
      "countryCode": "NL",
      "stateCode": "GE",
      "latitude": "51.91667000",
      "longitude": "6.33611000"
   },
   {
      "name": "Gameren",
      "countryCode": "NL",
      "stateCode": "GE",
      "latitude": "51.80083000",
      "longitude": "5.20417000"
   },
   {
      "name": "Garderen",
      "countryCode": "NL",
      "stateCode": "GE",
      "latitude": "52.23083000",
      "longitude": "5.71389000"
   },
   {
      "name": "Geitenkamp",
      "countryCode": "NL",
      "stateCode": "GE",
      "latitude": "52.00379000",
      "longitude": "5.93862000"
   },
   {
      "name": "Geldermalsen",
      "countryCode": "NL",
      "stateCode": "GE",
      "latitude": "51.88083000",
      "longitude": "5.28889000"
   },
   {
      "name": "Geldermalsen-West",
      "countryCode": "NL",
      "stateCode": "GE",
      "latitude": "51.87968000",
      "longitude": "5.28015000"
   },
   {
      "name": "Gemeente Aalten",
      "countryCode": "NL",
      "stateCode": "GE",
      "latitude": "51.92420000",
      "longitude": "6.56574000"
   },
   {
      "name": "Gemeente Apeldoorn",
      "countryCode": "NL",
      "stateCode": "GE",
      "latitude": "52.18722000",
      "longitude": "5.91969000"
   },
   {
      "name": "Gemeente Arnhem",
      "countryCode": "NL",
      "stateCode": "GE",
      "latitude": "52.00113000",
      "longitude": "5.89641000"
   },
   {
      "name": "Gemeente Barneveld",
      "countryCode": "NL",
      "stateCode": "GE",
      "latitude": "52.16880000",
      "longitude": "5.63985000"
   },
   {
      "name": "Gemeente Berg en Dal",
      "countryCode": "NL",
      "stateCode": "GE",
      "latitude": "51.78412000",
      "longitude": "5.92968000"
   },
   {
      "name": "Gemeente Beuningen",
      "countryCode": "NL",
      "stateCode": "GE",
      "latitude": "51.85950000",
      "longitude": "5.74362000"
   },
   {
      "name": "Gemeente Bronckhorst",
      "countryCode": "NL",
      "stateCode": "GE",
      "latitude": "52.04401000",
      "longitude": "6.30378000"
   },
   {
      "name": "Gemeente Brummen",
      "countryCode": "NL",
      "stateCode": "GE",
      "latitude": "52.11063000",
      "longitude": "6.11791000"
   },
   {
      "name": "Gemeente Buren",
      "countryCode": "NL",
      "stateCode": "GE",
      "latitude": "51.90901000",
      "longitude": "5.33403000"
   },
   {
      "name": "Gemeente Culemborg",
      "countryCode": "NL",
      "stateCode": "GE",
      "latitude": "51.94465000",
      "longitude": "5.20946000"
   },
   {
      "name": "Gemeente Doesburg",
      "countryCode": "NL",
      "stateCode": "GE",
      "latitude": "52.01935000",
      "longitude": "6.14855000"
   },
   {
      "name": "Gemeente Doetinchem",
      "countryCode": "NL",
      "stateCode": "GE",
      "latitude": "51.96216000",
      "longitude": "6.27955000"
   },
   {
      "name": "Gemeente Druten",
      "countryCode": "NL",
      "stateCode": "GE",
      "latitude": "51.87184000",
      "longitude": "5.61322000"
   },
   {
      "name": "Gemeente Duiven",
      "countryCode": "NL",
      "stateCode": "GE",
      "latitude": "51.94740000",
      "longitude": "6.01720000"
   },
   {
      "name": "Gemeente Ede",
      "countryCode": "NL",
      "stateCode": "GE",
      "latitude": "52.08118000",
      "longitude": "5.74490000"
   },
   {
      "name": "Gemeente Elburg",
      "countryCode": "NL",
      "stateCode": "GE",
      "latitude": "52.41487000",
      "longitude": "5.84868000"
   },
   {
      "name": "Gemeente Epe",
      "countryCode": "NL",
      "stateCode": "GE",
      "latitude": "52.33394000",
      "longitude": "5.96175000"
   },
   {
      "name": "Gemeente Ermelo",
      "countryCode": "NL",
      "stateCode": "GE",
      "latitude": "52.28826000",
      "longitude": "5.65538000"
   },
   {
      "name": "Gemeente Harderwijk",
      "countryCode": "NL",
      "stateCode": "GE",
      "latitude": "52.34540000",
      "longitude": "5.63948000"
   },
   {
      "name": "Gemeente Hattem",
      "countryCode": "NL",
      "stateCode": "GE",
      "latitude": "52.47566000",
      "longitude": "6.05195000"
   },
   {
      "name": "Gemeente Heerde",
      "countryCode": "NL",
      "stateCode": "GE",
      "latitude": "52.38833000",
      "longitude": "6.03889000"
   },
   {
      "name": "Gemeente Heumen",
      "countryCode": "NL",
      "stateCode": "GE",
      "latitude": "51.77438000",
      "longitude": "5.81312000"
   },
   {
      "name": "Gemeente Lingewaard",
      "countryCode": "NL",
      "stateCode": "GE",
      "latitude": "51.89558000",
      "longitude": "5.94577000"
   },
   {
      "name": "Gemeente Lochem",
      "countryCode": "NL",
      "stateCode": "GE",
      "latitude": "52.18478000",
      "longitude": "6.33700000"
   },
   {
      "name": "Gemeente Maasdriel",
      "countryCode": "NL",
      "stateCode": "GE",
      "latitude": "51.77337000",
      "longitude": "5.29711000"
   },
   {
      "name": "Gemeente Montferland",
      "countryCode": "NL",
      "stateCode": "GE",
      "latitude": "51.91925000",
      "longitude": "6.21333000"
   },
   {
      "name": "Gemeente Neder-Betuwe",
      "countryCode": "NL",
      "stateCode": "GE",
      "latitude": "51.91442000",
      "longitude": "5.57147000"
   },
   {
      "name": "Gemeente Nijkerk",
      "countryCode": "NL",
      "stateCode": "GE",
      "latitude": "52.21700000",
      "longitude": "5.48300000"
   },
   {
      "name": "Gemeente Nijmegen",
      "countryCode": "NL",
      "stateCode": "GE",
      "latitude": "51.84168000",
      "longitude": "5.83813000"
   },
   {
      "name": "Gemeente Nunspeet",
      "countryCode": "NL",
      "stateCode": "GE",
      "latitude": "52.33524000",
      "longitude": "5.78771000"
   },
   {
      "name": "Gemeente Oldebroek",
      "countryCode": "NL",
      "stateCode": "GE",
      "latitude": "52.44502000",
      "longitude": "5.90086000"
   },
   {
      "name": "Gemeente Overbetuwe",
      "countryCode": "NL",
      "stateCode": "GE",
      "latitude": "51.91843000",
      "longitude": "5.78686000"
   },
   {
      "name": "Gemeente Putten",
      "countryCode": "NL",
      "stateCode": "GE",
      "latitude": "52.24438000",
      "longitude": "5.57827000"
   },
   {
      "name": "Gemeente Renkum",
      "countryCode": "NL",
      "stateCode": "GE",
      "latitude": "51.99036000",
      "longitude": "5.78723000"
   },
   {
      "name": "Gemeente Rheden",
      "countryCode": "NL",
      "stateCode": "GE",
      "latitude": "52.03386000",
      "longitude": "6.04547000"
   },
   {
      "name": "Gemeente Rozendaal",
      "countryCode": "NL",
      "stateCode": "GE",
      "latitude": "52.03913000",
      "longitude": "5.97268000"
   },
   {
      "name": "Gemeente Scherpenzeel",
      "countryCode": "NL",
      "stateCode": "GE",
      "latitude": "52.08773000",
      "longitude": "5.48698000"
   },
   {
      "name": "Gemeente Tiel",
      "countryCode": "NL",
      "stateCode": "GE",
      "latitude": "51.88463000",
      "longitude": "5.40429000"
   },
   {
      "name": "Gemeente Voorst",
      "countryCode": "NL",
      "stateCode": "GE",
      "latitude": "52.22965000",
      "longitude": "6.09992000"
   },
   {
      "name": "Gemeente Wageningen",
      "countryCode": "NL",
      "stateCode": "GE",
      "latitude": "51.96876000",
      "longitude": "5.66675000"
   },
   {
      "name": "Gemeente West Maas en Waal",
      "countryCode": "NL",
      "stateCode": "GE",
      "latitude": "51.84494000",
      "longitude": "5.51074000"
   },
   {
      "name": "Gemeente Westervoort",
      "countryCode": "NL",
      "stateCode": "GE",
      "latitude": "51.95949000",
      "longitude": "5.97435000"
   },
   {
      "name": "Gemeente Wijchen",
      "countryCode": "NL",
      "stateCode": "GE",
      "latitude": "51.81884000",
      "longitude": "5.69862000"
   },
   {
      "name": "Gemeente Winterswijk",
      "countryCode": "NL",
      "stateCode": "GE",
      "latitude": "51.97226000",
      "longitude": "6.72544000"
   },
   {
      "name": "Gemeente Zaltbommel",
      "countryCode": "NL",
      "stateCode": "GE",
      "latitude": "51.78680000",
      "longitude": "5.15254000"
   },
   {
      "name": "Gemeente Zevenaar",
      "countryCode": "NL",
      "stateCode": "GE",
      "latitude": "51.95376000",
      "longitude": "6.07727000"
   },
   {
      "name": "Gemeente Zutphen",
      "countryCode": "NL",
      "stateCode": "GE",
      "latitude": "52.13145000",
      "longitude": "6.23132000"
   },
   {
      "name": "Gendringen",
      "countryCode": "NL",
      "stateCode": "GE",
      "latitude": "51.87333000",
      "longitude": "6.37639000"
   },
   {
      "name": "Gendt",
      "countryCode": "NL",
      "stateCode": "GE",
      "latitude": "51.87750000",
      "longitude": "5.97083000"
   },
   {
      "name": "Giesbeek",
      "countryCode": "NL",
      "stateCode": "GE",
      "latitude": "51.99333000",
      "longitude": "6.06667000"
   },
   {
      "name": "Gorssel",
      "countryCode": "NL",
      "stateCode": "GE",
      "latitude": "52.20167000",
      "longitude": "6.20139000"
   },
   {
      "name": "Groesbeek",
      "countryCode": "NL",
      "stateCode": "GE",
      "latitude": "51.77667000",
      "longitude": "5.93611000"
   },
   {
      "name": "Groessen",
      "countryCode": "NL",
      "stateCode": "GE",
      "latitude": "51.93167000",
      "longitude": "6.02639000"
   },
   {
      "name": "Gulden Bodem",
      "countryCode": "NL",
      "stateCode": "GE",
      "latitude": "51.99428000",
      "longitude": "5.89080000"
   },
   {
      "name": "Haaften",
      "countryCode": "NL",
      "stateCode": "GE",
      "latitude": "51.81583000",
      "longitude": "5.21111000"
   },
   {
      "name": "Haalderen",
      "countryCode": "NL",
      "stateCode": "GE",
      "latitude": "51.88750000",
      "longitude": "5.92917000"
   },
   {
      "name": "Harderwijk",
      "countryCode": "NL",
      "stateCode": "GE",
      "latitude": "52.34167000",
      "longitude": "5.62083000"
   },
   {
      "name": "Harskamp",
      "countryCode": "NL",
      "stateCode": "GE",
      "latitude": "52.13000000",
      "longitude": "5.75278000"
   },
   {
      "name": "Hatert",
      "countryCode": "NL",
      "stateCode": "GE",
      "latitude": "51.80635000",
      "longitude": "5.83057000"
   },
   {
      "name": "Hattem",
      "countryCode": "NL",
      "stateCode": "GE",
      "latitude": "52.47500000",
      "longitude": "6.06389000"
   },
   {
      "name": "Hattemerbroek",
      "countryCode": "NL",
      "stateCode": "GE",
      "latitude": "52.47417000",
      "longitude": "6.02222000"
   },
   {
      "name": "Hedel",
      "countryCode": "NL",
      "stateCode": "GE",
      "latitude": "51.74802000",
      "longitude": "5.26134000"
   },
   {
      "name": "Heelsum",
      "countryCode": "NL",
      "stateCode": "GE",
      "latitude": "51.98417000",
      "longitude": "5.75833000"
   },
   {
      "name": "Heerde",
      "countryCode": "NL",
      "stateCode": "GE",
      "latitude": "52.38723000",
      "longitude": "6.04016000"
   },
   {
      "name": "Heerewaarden",
      "countryCode": "NL",
      "stateCode": "GE",
      "latitude": "51.81769000",
      "longitude": "5.39300000"
   },
   {
      "name": "Hees",
      "countryCode": "NL",
      "stateCode": "GE",
      "latitude": "51.84136000",
      "longitude": "5.82846000"
   },
   {
      "name": "Hengelo",
      "countryCode": "NL",
      "stateCode": "GE",
      "latitude": "52.05083000",
      "longitude": "6.30972000"
   },
   {
      "name": "Hengstdal",
      "countryCode": "NL",
      "stateCode": "GE",
      "latitude": "51.83333000",
      "longitude": "5.88333000"
   },
   {
      "name": "Herwijnen",
      "countryCode": "NL",
      "stateCode": "GE",
      "latitude": "51.82667000",
      "longitude": "5.12917000"
   },
   {
      "name": "Het Loo",
      "countryCode": "NL",
      "stateCode": "GE",
      "latitude": "52.23390000",
      "longitude": "5.95275000"
   },
   {
      "name": "Heteren",
      "countryCode": "NL",
      "stateCode": "GE",
      "latitude": "51.95667000",
      "longitude": "5.75556000"
   },
   {
      "name": "Heumen",
      "countryCode": "NL",
      "stateCode": "GE",
      "latitude": "51.76500000",
      "longitude": "5.84444000"
   },
   {
      "name": "Hoogkamp",
      "countryCode": "NL",
      "stateCode": "GE",
      "latitude": "51.99630000",
      "longitude": "5.88026000"
   },
   {
      "name": "Horssen",
      "countryCode": "NL",
      "stateCode": "GE",
      "latitude": "51.85583000",
      "longitude": "5.60972000"
   },
   {
      "name": "Hummelo",
      "countryCode": "NL",
      "stateCode": "GE",
      "latitude": "52.00417000",
      "longitude": "6.23333000"
   },
   {
      "name": "Hunnerberg",
      "countryCode": "NL",
      "stateCode": "GE",
      "latitude": "51.84209000",
      "longitude": "5.87876000"
   },
   {
      "name": "Ingen",
      "countryCode": "NL",
      "stateCode": "GE",
      "latitude": "51.95917000",
      "longitude": "5.48472000"
   },
   {
      "name": "Keijenborg",
      "countryCode": "NL",
      "stateCode": "GE",
      "latitude": "52.02917000",
      "longitude": "6.29444000"
   },
   {
      "name": "Kerkdriel",
      "countryCode": "NL",
      "stateCode": "GE",
      "latitude": "51.77167000",
      "longitude": "5.33472000"
   },
   {
      "name": "Kerschoten",
      "countryCode": "NL",
      "stateCode": "GE",
      "latitude": "52.23333000",
      "longitude": "5.96667000"
   },
   {
      "name": "Kesteren",
      "countryCode": "NL",
      "stateCode": "GE",
      "latitude": "51.93500000",
      "longitude": "5.56944000"
   },
   {
      "name": "Kootwijkerbroek",
      "countryCode": "NL",
      "stateCode": "GE",
      "latitude": "52.15083000",
      "longitude": "5.66944000"
   },
   {
      "name": "Laren",
      "countryCode": "NL",
      "stateCode": "GE",
      "latitude": "52.19417000",
      "longitude": "6.36528000"
   },
   {
      "name": "Leesten",
      "countryCode": "NL",
      "stateCode": "GE",
      "latitude": "52.12790000",
      "longitude": "6.23217000"
   },
   {
      "name": "Lent",
      "countryCode": "NL",
      "stateCode": "GE",
      "latitude": "51.86167000",
      "longitude": "5.86667000"
   },
   {
      "name": "Leuth",
      "countryCode": "NL",
      "stateCode": "GE",
      "latitude": "51.83917000",
      "longitude": "5.99167000"
   },
   {
      "name": "Lichtenvoorde",
      "countryCode": "NL",
      "stateCode": "GE",
      "latitude": "51.98667000",
      "longitude": "6.56667000"
   },
   {
      "name": "Lienden",
      "countryCode": "NL",
      "stateCode": "GE",
      "latitude": "51.94833000",
      "longitude": "5.51806000"
   },
   {
      "name": "Lindenholt",
      "countryCode": "NL",
      "stateCode": "GE",
      "latitude": "51.83270000",
      "longitude": "5.79340000"
   },
   {
      "name": "Lobith",
      "countryCode": "NL",
      "stateCode": "GE",
      "latitude": "51.86250000",
      "longitude": "6.11806000"
   },
   {
      "name": "Lochem",
      "countryCode": "NL",
      "stateCode": "GE",
      "latitude": "52.15917000",
      "longitude": "6.41111000"
   },
   {
      "name": "Loenen",
      "countryCode": "NL",
      "stateCode": "GE",
      "latitude": "52.11750000",
      "longitude": "6.01944000"
   },
   {
      "name": "Lunteren",
      "countryCode": "NL",
      "stateCode": "GE",
      "latitude": "52.08500000",
      "longitude": "5.62222000"
   },
   {
      "name": "Malburgen West",
      "countryCode": "NL",
      "stateCode": "GE",
      "latitude": "51.96811000",
      "longitude": "5.89743000"
   },
   {
      "name": "Matendonk",
      "countryCode": "NL",
      "stateCode": "GE",
      "latitude": "52.19766000",
      "longitude": "6.01115000"
   },
   {
      "name": "Matendreef",
      "countryCode": "NL",
      "stateCode": "GE",
      "latitude": "52.19993000",
      "longitude": "5.98592000"
   },
   {
      "name": "Matengaarde",
      "countryCode": "NL",
      "stateCode": "GE",
      "latitude": "52.19793000",
      "longitude": "5.99570000"
   },
   {
      "name": "Matenhoeve",
      "countryCode": "NL",
      "stateCode": "GE",
      "latitude": "52.19056000",
      "longitude": "6.01338000"
   },
   {
      "name": "Matenhorst",
      "countryCode": "NL",
      "stateCode": "GE",
      "latitude": "52.20482000",
      "longitude": "5.99304000"
   },
   {
      "name": "Matenveld",
      "countryCode": "NL",
      "stateCode": "GE",
      "latitude": "52.18767000",
      "longitude": "5.99879000"
   },
   {
      "name": "Maurik",
      "countryCode": "NL",
      "stateCode": "GE",
      "latitude": "51.96083000",
      "longitude": "5.42222000"
   },
   {
      "name": "Meteren",
      "countryCode": "NL",
      "stateCode": "GE",
      "latitude": "51.86500000",
      "longitude": "5.28333000"
   },
   {
      "name": "Nederhemert",
      "countryCode": "NL",
      "stateCode": "GE",
      "latitude": "51.76518000",
      "longitude": "5.16817000"
   },
   {
      "name": "Nederhemert-Noord",
      "countryCode": "NL",
      "stateCode": "GE",
      "latitude": "51.76322000",
      "longitude": "5.17305000"
   },
   {
      "name": "Nederwoud",
      "countryCode": "NL",
      "stateCode": "GE",
      "latitude": "52.10083000",
      "longitude": "5.57083000"
   },
   {
      "name": "Neede",
      "countryCode": "NL",
      "stateCode": "GE",
      "latitude": "52.13417000",
      "longitude": "6.61389000"
   },
   {
      "name": "Nijkerk",
      "countryCode": "NL",
      "stateCode": "GE",
      "latitude": "52.22000000",
      "longitude": "5.48611000"
   },
   {
      "name": "Nijkerkerveen",
      "countryCode": "NL",
      "stateCode": "GE",
      "latitude": "52.19500000",
      "longitude": "5.46667000"
   },
   {
      "name": "Nijmegen",
      "countryCode": "NL",
      "stateCode": "GE",
      "latitude": "51.84250000",
      "longitude": "5.85278000"
   },
   {
      "name": "Nunspeet",
      "countryCode": "NL",
      "stateCode": "GE",
      "latitude": "52.37917000",
      "longitude": "5.78611000"
   },
   {
      "name": "Ochten",
      "countryCode": "NL",
      "stateCode": "GE",
      "latitude": "51.91000000",
      "longitude": "5.56944000"
   },
   {
      "name": "Oldebroek",
      "countryCode": "NL",
      "stateCode": "GE",
      "latitude": "52.44500000",
      "longitude": "5.90139000"
   },
   {
      "name": "Ooij",
      "countryCode": "NL",
      "stateCode": "GE",
      "latitude": "51.85465000",
      "longitude": "5.93915000"
   },
   {
      "name": "Oost Gelre",
      "countryCode": "NL",
      "stateCode": "GE",
      "latitude": "52.00425000",
      "longitude": "6.54958000"
   },
   {
      "name": "Oostendorp",
      "countryCode": "NL",
      "stateCode": "GE",
      "latitude": "52.44722000",
      "longitude": "5.85443000"
   },
   {
      "name": "Oosterbeek",
      "countryCode": "NL",
      "stateCode": "GE",
      "latitude": "51.98583000",
      "longitude": "5.84583000"
   },
   {
      "name": "Oosterhout",
      "countryCode": "NL",
      "stateCode": "GE",
      "latitude": "51.88000000",
      "longitude": "5.82639000"
   },
   {
      "name": "Ooy",
      "countryCode": "NL",
      "stateCode": "GE",
      "latitude": "51.91917000",
      "longitude": "6.05833000"
   },
   {
      "name": "Ooyerhoek",
      "countryCode": "NL",
      "stateCode": "GE",
      "latitude": "52.12838000",
      "longitude": "6.22307000"
   },
   {
      "name": "Ophemert",
      "countryCode": "NL",
      "stateCode": "GE",
      "latitude": "51.84500000",
      "longitude": "5.38750000"
   },
   {
      "name": "Opheusden",
      "countryCode": "NL",
      "stateCode": "GE",
      "latitude": "51.93167000",
      "longitude": "5.63194000"
   },
   {
      "name": "Opijnen",
      "countryCode": "NL",
      "stateCode": "GE",
      "latitude": "51.82917000",
      "longitude": "5.29861000"
   },
   {
      "name": "Orden",
      "countryCode": "NL",
      "stateCode": "GE",
      "latitude": "52.20113000",
      "longitude": "5.93417000"
   },
   {
      "name": "Otterlo",
      "countryCode": "NL",
      "stateCode": "GE",
      "latitude": "52.10000000",
      "longitude": "5.77222000"
   },
   {
      "name": "Oude IJsselstreek",
      "countryCode": "NL",
      "stateCode": "GE",
      "latitude": "51.89963000",
      "longitude": "6.38078000"
   },
   {
      "name": "Overasselt",
      "countryCode": "NL",
      "stateCode": "GE",
      "latitude": "51.76000000",
      "longitude": "5.78889000"
   },
   {
      "name": "Pannerden",
      "countryCode": "NL",
      "stateCode": "GE",
      "latitude": "51.89083000",
      "longitude": "6.03889000"
   },
   {
      "name": "Puiflijk",
      "countryCode": "NL",
      "stateCode": "GE",
      "latitude": "51.87833000",
      "longitude": "5.59028000"
   },
   {
      "name": "Putten",
      "countryCode": "NL",
      "stateCode": "GE",
      "latitude": "52.25917000",
      "longitude": "5.60694000"
   },
   {
      "name": "Renkum",
      "countryCode": "NL",
      "stateCode": "GE",
      "latitude": "51.97667000",
      "longitude": "5.73333000"
   },
   {
      "name": "Rheden",
      "countryCode": "NL",
      "stateCode": "GE",
      "latitude": "52.00500000",
      "longitude": "6.02917000"
   },
   {
      "name": "Rivierenkwartier",
      "countryCode": "NL",
      "stateCode": "GE",
      "latitude": "52.18914000",
      "longitude": "5.97665000"
   },
   {
      "name": "Rossum",
      "countryCode": "NL",
      "stateCode": "GE",
      "latitude": "51.80083000",
      "longitude": "5.33333000"
   },
   {
      "name": "Rozendaal",
      "countryCode": "NL",
      "stateCode": "GE",
      "latitude": "52.00583000",
      "longitude": "5.96250000"
   },
   {
      "name": "Ruurlo",
      "countryCode": "NL",
      "stateCode": "GE",
      "latitude": "52.08833000",
      "longitude": "6.45000000"
   },
   {
      "name": "Scherpenzeel",
      "countryCode": "NL",
      "stateCode": "GE",
      "latitude": "52.08000000",
      "longitude": "5.48889000"
   },
   {
      "name": "Silvolde",
      "countryCode": "NL",
      "stateCode": "GE",
      "latitude": "51.90917000",
      "longitude": "6.38750000"
   },
   {
      "name": "Sluisoord",
      "countryCode": "NL",
      "stateCode": "GE",
      "latitude": "52.22291000",
      "longitude": "5.98145000"
   },
   {
      "name": "Spainkbos",
      "countryCode": "NL",
      "stateCode": "GE",
      "latitude": "52.22228000",
      "longitude": "5.94738000"
   },
   {
      "name": "Sprengenbos",
      "countryCode": "NL",
      "stateCode": "GE",
      "latitude": "52.21902000",
      "longitude": "5.94163000"
   },
   {
      "name": "Sprengenweg-Noord",
      "countryCode": "NL",
      "stateCode": "GE",
      "latitude": "52.21839000",
      "longitude": "5.95068000"
   },
   {
      "name": "Sprenkelaar",
      "countryCode": "NL",
      "stateCode": "GE",
      "latitude": "52.22512000",
      "longitude": "5.99922000"
   },
   {
      "name": "Staatsliedenkwartier",
      "countryCode": "NL",
      "stateCode": "GE",
      "latitude": "52.19951000",
      "longitude": "5.97691000"
   },
   {
      "name": "Steenderen",
      "countryCode": "NL",
      "stateCode": "GE",
      "latitude": "52.06417000",
      "longitude": "6.18750000"
   },
   {
      "name": "Stegeslag",
      "countryCode": "NL",
      "stateCode": "GE",
      "latitude": "51.94151000",
      "longitude": "6.06194000"
   },
   {
      "name": "Sterrenberg",
      "countryCode": "NL",
      "stateCode": "GE",
      "latitude": "51.99350000",
      "longitude": "5.88387000"
   },
   {
      "name": "Terborg",
      "countryCode": "NL",
      "stateCode": "GE",
      "latitude": "51.92000000",
      "longitude": "6.35417000"
   },
   {
      "name": "Terschuur",
      "countryCode": "NL",
      "stateCode": "GE",
      "latitude": "52.16500000",
      "longitude": "5.51667000"
   },
   {
      "name": "Terwolde",
      "countryCode": "NL",
      "stateCode": "GE",
      "latitude": "52.28333000",
      "longitude": "6.10000000"
   },
   {
      "name": "Tiel",
      "countryCode": "NL",
      "stateCode": "GE",
      "latitude": "51.88667000",
      "longitude": "5.42917000"
   },
   {
      "name": "Tolkamer",
      "countryCode": "NL",
      "stateCode": "GE",
      "latitude": "51.85500000",
      "longitude": "6.10278000"
   },
   {
      "name": "Tricht",
      "countryCode": "NL",
      "stateCode": "GE",
      "latitude": "51.89083000",
      "longitude": "5.26806000"
   },
   {
      "name": "Twello",
      "countryCode": "NL",
      "stateCode": "GE",
      "latitude": "52.23667000",
      "longitude": "6.10278000"
   },
   {
      "name": "Uddel",
      "countryCode": "NL",
      "stateCode": "GE",
      "latitude": "52.25917000",
      "longitude": "5.78056000"
   },
   {
      "name": "Ugchelen",
      "countryCode": "NL",
      "stateCode": "GE",
      "latitude": "52.18464000",
      "longitude": "5.93177000"
   },
   {
      "name": "Vaassen",
      "countryCode": "NL",
      "stateCode": "GE",
      "latitude": "52.28583000",
      "longitude": "5.96667000"
   },
   {
      "name": "Valburg",
      "countryCode": "NL",
      "stateCode": "GE",
      "latitude": "51.91167000",
      "longitude": "5.79028000"
   },
   {
      "name": "Valendries",
      "countryCode": "NL",
      "stateCode": "GE",
      "latitude": "51.80658000",
      "longitude": "5.73445000"
   },
   {
      "name": "Varsseveld",
      "countryCode": "NL",
      "stateCode": "GE",
      "latitude": "51.94333000",
      "longitude": "6.45833000"
   },
   {
      "name": "Velp",
      "countryCode": "NL",
      "stateCode": "GE",
      "latitude": "51.99500000",
      "longitude": "5.97361000"
   },
   {
      "name": "Vogelkwartier",
      "countryCode": "NL",
      "stateCode": "GE",
      "latitude": "52.19777000",
      "longitude": "5.96721000"
   },
   {
      "name": "Voorst",
      "countryCode": "NL",
      "stateCode": "GE",
      "latitude": "52.17000000",
      "longitude": "6.14167000"
   },
   {
      "name": "Voorthuizen",
      "countryCode": "NL",
      "stateCode": "GE",
      "latitude": "52.18667000",
      "longitude": "5.60556000"
   },
   {
      "name": "Vorden",
      "countryCode": "NL",
      "stateCode": "GE",
      "latitude": "52.10500000",
      "longitude": "6.30972000"
   },
   {
      "name": "Vredenburg",
      "countryCode": "NL",
      "stateCode": "GE",
      "latitude": "51.95355000",
      "longitude": "5.90284000"
   },
   {
      "name": "Vuren",
      "countryCode": "NL",
      "stateCode": "GE",
      "latitude": "51.82500000",
      "longitude": "5.04583000"
   },
   {
      "name": "Waardenburg",
      "countryCode": "NL",
      "stateCode": "GE",
      "latitude": "51.83250000",
      "longitude": "5.25694000"
   },
   {
      "name": "Wageningen",
      "countryCode": "NL",
      "stateCode": "GE",
      "latitude": "51.97000000",
      "longitude": "5.66667000"
   },
   {
      "name": "Wapenveld",
      "countryCode": "NL",
      "stateCode": "GE",
      "latitude": "52.42917000",
      "longitude": "6.07361000"
   },
   {
      "name": "Warnsveld",
      "countryCode": "NL",
      "stateCode": "GE",
      "latitude": "52.13750000",
      "longitude": "6.23056000"
   },
   {
      "name": "Wekerom",
      "countryCode": "NL",
      "stateCode": "GE",
      "latitude": "52.11250000",
      "longitude": "5.71389000"
   },
   {
      "name": "Welgelegen",
      "countryCode": "NL",
      "stateCode": "GE",
      "latitude": "52.21397000",
      "longitude": "5.97643000"
   },
   {
      "name": "West Betuwe",
      "countryCode": "NL",
      "stateCode": "GE",
      "latitude": "51.86158000",
      "longitude": "5.20935000"
   },
   {
      "name": "Westeneng",
      "countryCode": "NL",
      "stateCode": "GE",
      "latitude": "52.12750000",
      "longitude": "5.71528000"
   },
   {
      "name": "Westenenk",
      "countryCode": "NL",
      "stateCode": "GE",
      "latitude": "52.19624000",
      "longitude": "5.95656000"
   },
   {
      "name": "Westervoort",
      "countryCode": "NL",
      "stateCode": "GE",
      "latitude": "51.95583000",
      "longitude": "5.97222000"
   },
   {
      "name": "Wijchen",
      "countryCode": "NL",
      "stateCode": "GE",
      "latitude": "51.80917000",
      "longitude": "5.72500000"
   },
   {
      "name": "Winkewijert",
      "countryCode": "NL",
      "stateCode": "GE",
      "latitude": "52.19082000",
      "longitude": "5.95794000"
   },
   {
      "name": "Winterswijk",
      "countryCode": "NL",
      "stateCode": "GE",
      "latitude": "51.97250000",
      "longitude": "6.71944000"
   },
   {
      "name": "Wisch",
      "countryCode": "NL",
      "stateCode": "GE",
      "latitude": "51.92648000",
      "longitude": "6.41705000"
   },
   {
      "name": "Wolfheze",
      "countryCode": "NL",
      "stateCode": "GE",
      "latitude": "52.00333000",
      "longitude": "5.79028000"
   },
   {
      "name": "Woudhuis",
      "countryCode": "NL",
      "stateCode": "GE",
      "latitude": "52.21323000",
      "longitude": "6.01124000"
   },
   {
      "name": "Zaltbommel",
      "countryCode": "NL",
      "stateCode": "GE",
      "latitude": "51.81000000",
      "longitude": "5.24444000"
   },
   {
      "name": "Zeddam",
      "countryCode": "NL",
      "stateCode": "GE",
      "latitude": "51.90333000",
      "longitude": "6.25972000"
   },
   {
      "name": "Zelhem",
      "countryCode": "NL",
      "stateCode": "GE",
      "latitude": "52.00667000",
      "longitude": "6.34861000"
   },
   {
      "name": "Zetten",
      "countryCode": "NL",
      "stateCode": "GE",
      "latitude": "51.92833000",
      "longitude": "5.71389000"
   },
   {
      "name": "Zevenaar",
      "countryCode": "NL",
      "stateCode": "GE",
      "latitude": "51.93000000",
      "longitude": "6.07083000"
   },
   {
      "name": "Zevenhuizen",
      "countryCode": "NL",
      "stateCode": "GE",
      "latitude": "52.21816000",
      "longitude": "5.97841000"
   },
   {
      "name": "Zoelen",
      "countryCode": "NL",
      "stateCode": "GE",
      "latitude": "51.91250000",
      "longitude": "5.40278000"
   },
   {
      "name": "Zonnemaat",
      "countryCode": "NL",
      "stateCode": "GE",
      "latitude": "51.93115000",
      "longitude": "6.06235000"
   },
   {
      "name": "Zuilichem",
      "countryCode": "NL",
      "stateCode": "GE",
      "latitude": "51.80917000",
      "longitude": "5.13611000"
   },
   {
      "name": "Zutphen",
      "countryCode": "NL",
      "stateCode": "GE",
      "latitude": "52.13833000",
      "longitude": "6.20139000"
   }
]