[
   {
      "name": "Armstrong",
      "countryCode": "AR",
      "stateCode": "S",
      "latitude": "-32.78215000",
      "longitude": "-61.60222000"
   },
   {
      "name": "Arroyo Seco",
      "countryCode": "AR",
      "stateCode": "S",
      "latitude": "-33.15489000",
      "longitude": "-60.50863000"
   },
   {
      "name": "Arrufó",
      "countryCode": "AR",
      "stateCode": "S",
      "latitude": "-30.23281000",
      "longitude": "-61.72862000"
   },
   {
      "name": "Avellaneda",
      "countryCode": "AR",
      "stateCode": "S",
      "latitude": "-29.11761000",
      "longitude": "-59.65834000"
   },
   {
      "name": "Bella Italia",
      "countryCode": "AR",
      "stateCode": "S",
      "latitude": "-31.28182000",
      "longitude": "-61.41092000"
   },
   {
      "name": "Calchaquí",
      "countryCode": "AR",
      "stateCode": "S",
      "latitude": "-29.88767000",
      "longitude": "-60.28697000"
   },
   {
      "name": "Capitán Bermúdez",
      "countryCode": "AR",
      "stateCode": "S",
      "latitude": "-32.82262000",
      "longitude": "-60.71852000"
   },
   {
      "name": "Carcarañá",
      "countryCode": "AR",
      "stateCode": "S",
      "latitude": "-32.85679000",
      "longitude": "-61.15331000"
   },
   {
      "name": "Casilda",
      "countryCode": "AR",
      "stateCode": "S",
      "latitude": "-33.04417000",
      "longitude": "-61.16806000"
   },
   {
      "name": "Cañada de Gómez",
      "countryCode": "AR",
      "stateCode": "S",
      "latitude": "-32.81636000",
      "longitude": "-61.39493000"
   },
   {
      "name": "Ceres",
      "countryCode": "AR",
      "stateCode": "S",
      "latitude": "-29.88100000",
      "longitude": "-61.94504000"
   },
   {
      "name": "Chañar Ladeado",
      "countryCode": "AR",
      "stateCode": "S",
      "latitude": "-33.32524000",
      "longitude": "-62.03831000"
   },
   {
      "name": "Coronda",
      "countryCode": "AR",
      "stateCode": "S",
      "latitude": "-31.97263000",
      "longitude": "-60.91983000"
   },
   {
      "name": "Departamento de Belgrano",
      "countryCode": "AR",
      "stateCode": "S",
      "latitude": "-32.50000000",
      "longitude": "-61.75000000"
   },
   {
      "name": "Departamento de Caseros",
      "countryCode": "AR",
      "stateCode": "S",
      "latitude": "-33.25000000",
      "longitude": "-61.66667000"
   },
   {
      "name": "Departamento de Castellanos",
      "countryCode": "AR",
      "stateCode": "S",
      "latitude": "-31.16667000",
      "longitude": "-61.66667000"
   },
   {
      "name": "Departamento de Constitución",
      "countryCode": "AR",
      "stateCode": "S",
      "latitude": "-33.50000000",
      "longitude": "-60.91667000"
   },
   {
      "name": "Departamento de La Capital",
      "countryCode": "AR",
      "stateCode": "S",
      "latitude": "-31.50000000",
      "longitude": "-60.66667000"
   },
   {
      "name": "Departamento de Nueve de Julio",
      "countryCode": "AR",
      "stateCode": "S",
      "latitude": "-28.83333000",
      "longitude": "-61.33333000"
   },
   {
      "name": "Departamento de San Cristóbal",
      "countryCode": "AR",
      "stateCode": "S",
      "latitude": "-30.33333000",
      "longitude": "-61.33333000"
   },
   {
      "name": "Departamento de San Javier",
      "countryCode": "AR",
      "stateCode": "S",
      "latitude": "-30.33333000",
      "longitude": "-59.91667000"
   },
   {
      "name": "Departamento de San Justo",
      "countryCode": "AR",
      "stateCode": "S",
      "latitude": "-30.66667000",
      "longitude": "-60.50000000"
   },
   {
      "name": "Departamento de San Lorenzo",
      "countryCode": "AR",
      "stateCode": "S",
      "latitude": "-33.00000000",
      "longitude": "-61.00000000"
   },
   {
      "name": "Departamento de San Martín",
      "countryCode": "AR",
      "stateCode": "S",
      "latitude": "-32.00000000",
      "longitude": "-61.83333000"
   },
   {
      "name": "Departamento de Vera",
      "countryCode": "AR",
      "stateCode": "S",
      "latitude": "-29.00000000",
      "longitude": "-60.50000000"
   },
   {
      "name": "El Trébol",
      "countryCode": "AR",
      "stateCode": "S",
      "latitude": "-32.20080000",
      "longitude": "-61.70140000"
   },
   {
      "name": "Esperanza",
      "countryCode": "AR",
      "stateCode": "S",
      "latitude": "-31.44880000",
      "longitude": "-60.93173000"
   },
   {
      "name": "Firmat",
      "countryCode": "AR",
      "stateCode": "S",
      "latitude": "-33.45937000",
      "longitude": "-61.48320000"
   },
   {
      "name": "Fray Luis A. Beltrán",
      "countryCode": "AR",
      "stateCode": "S",
      "latitude": "-32.79122000",
      "longitude": "-60.72819000"
   },
   {
      "name": "Funes",
      "countryCode": "AR",
      "stateCode": "S",
      "latitude": "-32.91568000",
      "longitude": "-60.80995000"
   },
   {
      "name": "Gato Colorado",
      "countryCode": "AR",
      "stateCode": "S",
      "latitude": "-28.02219000",
      "longitude": "-61.18663000"
   },
   {
      "name": "Gobernador Gálvez",
      "countryCode": "AR",
      "stateCode": "S",
      "latitude": "-33.03016000",
      "longitude": "-60.64045000"
   },
   {
      "name": "Granadero Baigorria",
      "countryCode": "AR",
      "stateCode": "S",
      "latitude": "-32.85683000",
      "longitude": "-60.71754000"
   },
   {
      "name": "Gálvez",
      "countryCode": "AR",
      "stateCode": "S",
      "latitude": "-32.02927000",
      "longitude": "-61.22103000"
   },
   {
      "name": "Helvecia",
      "countryCode": "AR",
      "stateCode": "S",
      "latitude": "-31.09834000",
      "longitude": "-60.08830000"
   },
   {
      "name": "Hersilia",
      "countryCode": "AR",
      "stateCode": "S",
      "latitude": "-30.00447000",
      "longitude": "-61.84080000"
   },
   {
      "name": "Iriondo Department",
      "countryCode": "AR",
      "stateCode": "S",
      "latitude": "-32.63333000",
      "longitude": "-61.33333000"
   },
   {
      "name": "Laguna Paiva",
      "countryCode": "AR",
      "stateCode": "S",
      "latitude": "-31.30391000",
      "longitude": "-60.65894000"
   },
   {
      "name": "Las Parejas",
      "countryCode": "AR",
      "stateCode": "S",
      "latitude": "-32.68478000",
      "longitude": "-61.51637000"
   },
   {
      "name": "Las Rosas",
      "countryCode": "AR",
      "stateCode": "S",
      "latitude": "-32.47661000",
      "longitude": "-61.58041000"
   },
   {
      "name": "Las Toscas",
      "countryCode": "AR",
      "stateCode": "S",
      "latitude": "-28.35290000",
      "longitude": "-59.25795000"
   },
   {
      "name": "Los Laureles",
      "countryCode": "AR",
      "stateCode": "S",
      "latitude": "-29.36847000",
      "longitude": "-59.73634000"
   },
   {
      "name": "Malabrigo",
      "countryCode": "AR",
      "stateCode": "S",
      "latitude": "-29.34636000",
      "longitude": "-59.96957000"
   },
   {
      "name": "Melincué",
      "countryCode": "AR",
      "stateCode": "S",
      "latitude": "-33.65847000",
      "longitude": "-61.45459000"
   },
   {
      "name": "Pérez",
      "countryCode": "AR",
      "stateCode": "S",
      "latitude": "-32.99835000",
      "longitude": "-60.76791000"
   },
   {
      "name": "Rafaela",
      "countryCode": "AR",
      "stateCode": "S",
      "latitude": "-31.25033000",
      "longitude": "-61.48670000"
   },
   {
      "name": "Reconquista",
      "countryCode": "AR",
      "stateCode": "S",
      "latitude": "-29.15000000",
      "longitude": "-59.65000000"
   },
   {
      "name": "Recreo",
      "countryCode": "AR",
      "stateCode": "S",
      "latitude": "-31.49076000",
      "longitude": "-60.73299000"
   },
   {
      "name": "Roldán",
      "countryCode": "AR",
      "stateCode": "S",
      "latitude": "-32.89846000",
      "longitude": "-60.90681000"
   },
   {
      "name": "Rosario",
      "countryCode": "AR",
      "stateCode": "S",
      "latitude": "-32.94682000",
      "longitude": "-60.63932000"
   },
   {
      "name": "Rufino",
      "countryCode": "AR",
      "stateCode": "S",
      "latitude": "-34.26827000",
      "longitude": "-62.71262000"
   },
   {
      "name": "San Carlos Centro",
      "countryCode": "AR",
      "stateCode": "S",
      "latitude": "-31.72864000",
      "longitude": "-61.09192000"
   },
   {
      "name": "San Cristóbal",
      "countryCode": "AR",
      "stateCode": "S",
      "latitude": "-30.31053000",
      "longitude": "-61.23724000"
   },
   {
      "name": "San Javier",
      "countryCode": "AR",
      "stateCode": "S",
      "latitude": "-30.57781000",
      "longitude": "-59.93170000"
   },
   {
      "name": "San Jorge",
      "countryCode": "AR",
      "stateCode": "S",
      "latitude": "-31.89618000",
      "longitude": "-61.85984000"
   },
   {
      "name": "San Justo",
      "countryCode": "AR",
      "stateCode": "S",
      "latitude": "-30.78913000",
      "longitude": "-60.59189000"
   },
   {
      "name": "Santa Fe",
      "countryCode": "AR",
      "stateCode": "S",
      "latitude": "-31.64881000",
      "longitude": "-60.70868000"
   },
   {
      "name": "Santo Tomé",
      "countryCode": "AR",
      "stateCode": "S",
      "latitude": "-31.66274000",
      "longitude": "-60.76530000"
   },
   {
      "name": "Sastre",
      "countryCode": "AR",
      "stateCode": "S",
      "latitude": "-31.76762000",
      "longitude": "-61.82887000"
   },
   {
      "name": "Sunchales",
      "countryCode": "AR",
      "stateCode": "S",
      "latitude": "-30.94404000",
      "longitude": "-61.56148000"
   },
   {
      "name": "Tacuarendí",
      "countryCode": "AR",
      "stateCode": "S",
      "latitude": "-28.41265000",
      "longitude": "-59.26000000"
   },
   {
      "name": "Tostado",
      "countryCode": "AR",
      "stateCode": "S",
      "latitude": "-29.23202000",
      "longitude": "-61.76917000"
   },
   {
      "name": "Totoras",
      "countryCode": "AR",
      "stateCode": "S",
      "latitude": "-32.58440000",
      "longitude": "-61.16852000"
   },
   {
      "name": "Venado Tuerto",
      "countryCode": "AR",
      "stateCode": "S",
      "latitude": "-33.74556000",
      "longitude": "-61.96885000"
   },
   {
      "name": "Vera",
      "countryCode": "AR",
      "stateCode": "S",
      "latitude": "-29.45930000",
      "longitude": "-60.21261000"
   },
   {
      "name": "Villa Cañás",
      "countryCode": "AR",
      "stateCode": "S",
      "latitude": "-34.00565000",
      "longitude": "-61.60757000"
   },
   {
      "name": "Villa Constitución",
      "countryCode": "AR",
      "stateCode": "S",
      "latitude": "-33.22778000",
      "longitude": "-60.32970000"
   },
   {
      "name": "Villa Mugueta",
      "countryCode": "AR",
      "stateCode": "S",
      "latitude": "-33.31129000",
      "longitude": "-61.05515000"
   },
   {
      "name": "Villa Ocampo",
      "countryCode": "AR",
      "stateCode": "S",
      "latitude": "-28.48752000",
      "longitude": "-59.35515000"
   },
   {
      "name": "Villa Trinidad",
      "countryCode": "AR",
      "stateCode": "S",
      "latitude": "-30.21329000",
      "longitude": "-61.87597000"
   }
]