[
   {
      "name": "Ebino-shi",
      "countryCode": "JP",
      "stateCode": "45",
      "latitude": "32.01667000",
      "longitude": "130.80000000"
   },
   {
      "name": "Hyūga-shi",
      "countryCode": "JP",
      "stateCode": "45",
      "latitude": "32.37710000",
      "longitude": "131.52275000"
   },
   {
      "name": "Kobayashi",
      "countryCode": "JP",
      "stateCode": "45",
      "latitude": "31.98333000",
      "longitude": "130.98333000"
   },
   {
      "name": "Kobayashi Shi",
      "countryCode": "JP",
      "stateCode": "45",
      "latitude": "32.04556000",
      "longitude": "131.02762000"
   },
   {
      "name": "Kushima",
      "countryCode": "JP",
      "stateCode": "45",
      "latitude": "31.48621000",
      "longitude": "131.24210000"
   },
   {
      "name": "Kushima Shi",
      "countryCode": "JP",
      "stateCode": "45",
      "latitude": "31.48571000",
      "longitude": "131.26485000"
   },
   {
      "name": "Miyakonojō",
      "countryCode": "JP",
      "stateCode": "45",
      "latitude": "31.73333000",
      "longitude": "131.06667000"
   },
   {
      "name": "Miyakonojō Shi",
      "countryCode": "JP",
      "stateCode": "45",
      "latitude": "31.80920000",
      "longitude": "131.07904000"
   },
   {
      "name": "Miyazaki",
      "countryCode": "JP",
      "stateCode": "45",
      "latitude": "31.91667000",
      "longitude": "131.41667000"
   },
   {
      "name": "Miyazaki-shi",
      "countryCode": "JP",
      "stateCode": "45",
      "latitude": "31.96192000",
      "longitude": "131.38455000"
   },
   {
      "name": "Nichinan",
      "countryCode": "JP",
      "stateCode": "45",
      "latitude": "31.60000000",
      "longitude": "131.36667000"
   },
   {
      "name": "Nichinan Shi",
      "countryCode": "JP",
      "stateCode": "45",
      "latitude": "31.63737000",
      "longitude": "131.33409000"
   },
   {
      "name": "Nobeoka",
      "countryCode": "JP",
      "stateCode": "45",
      "latitude": "32.58333000",
      "longitude": "131.66667000"
   },
   {
      "name": "Nobeoka-shi",
      "countryCode": "JP",
      "stateCode": "45",
      "latitude": "32.67238000",
      "longitude": "131.64311000"
   },
   {
      "name": "Saito-shi",
      "countryCode": "JP",
      "stateCode": "45",
      "latitude": "32.17288000",
      "longitude": "131.31543000"
   },
   {
      "name": "Takanabe",
      "countryCode": "JP",
      "stateCode": "45",
      "latitude": "32.13333000",
      "longitude": "131.50000000"
   },
   {
      "name": "Tsuma",
      "countryCode": "JP",
      "stateCode": "45",
      "latitude": "32.10000000",
      "longitude": "131.40000000"
   }
]