[
   {
      "name": "Amphoe Den Chai",
      "countryCode": "TH",
      "stateCode": "54",
      "latitude": "17.91667000",
      "longitude": "100.03333000"
   },
   {
      "name": "Amphoe Long",
      "countryCode": "TH",
      "stateCode": "54",
      "latitude": "18.14262000",
      "longitude": "99.90901000"
   },
   {
      "name": "Amphoe Mueang Phrae",
      "countryCode": "TH",
      "stateCode": "54",
      "latitude": "18.12258000",
      "longitude": "100.25620000"
   },
   {
      "name": "Amphoe Nong Muang Khai",
      "countryCode": "TH",
      "stateCode": "54",
      "latitude": "18.28845000",
      "longitude": "100.15231000"
   },
   {
      "name": "Amphoe Rong Kwang",
      "countryCode": "TH",
      "stateCode": "54",
      "latitude": "18.32614000",
      "longitude": "100.39418000"
   },
   {
      "name": "Amphoe Song",
      "countryCode": "TH",
      "stateCode": "54",
      "latitude": "18.57006000",
      "longitude": "100.22911000"
   },
   {
      "name": "Amphoe Sung Men",
      "countryCode": "TH",
      "stateCode": "54",
      "latitude": "18.03542000",
      "longitude": "100.12538000"
   },
   {
      "name": "Amphoe Wang Chin",
      "countryCode": "TH",
      "stateCode": "54",
      "latitude": "17.86667000",
      "longitude": "99.64990000"
   },
   {
      "name": "Den Chai",
      "countryCode": "TH",
      "stateCode": "54",
      "latitude": "17.98372000",
      "longitude": "100.05217000"
   },
   {
      "name": "Long",
      "countryCode": "TH",
      "stateCode": "54",
      "latitude": "18.07422000",
      "longitude": "99.83073000"
   },
   {
      "name": "Phrae",
      "countryCode": "TH",
      "stateCode": "54",
      "latitude": "18.14589000",
      "longitude": "100.14103000"
   },
   {
      "name": "Rong Kwang",
      "countryCode": "TH",
      "stateCode": "54",
      "latitude": "18.33903000",
      "longitude": "100.31736000"
   }
]