[
   {
      "name": "Budaševo",
      "countryCode": "HR",
      "stateCode": "03",
      "latitude": "45.47472000",
      "longitude": "16.43667000"
   },
   {
      "name": "Dvor",
      "countryCode": "HR",
      "stateCode": "03",
      "latitude": "45.07306000",
      "longitude": "16.37083000"
   },
   {
      "name": "Glina",
      "countryCode": "HR",
      "stateCode": "03",
      "latitude": "45.33806000",
      "longitude": "16.08806000"
   },
   {
      "name": "Grad Glina",
      "countryCode": "HR",
      "stateCode": "03",
      "latitude": "45.33333000",
      "longitude": "16.10000000"
   },
   {
      "name": "Grad Hrvatska Kostajnica",
      "countryCode": "HR",
      "stateCode": "03",
      "latitude": "45.25000000",
      "longitude": "16.56667000"
   },
   {
      "name": "Grad Kutina",
      "countryCode": "HR",
      "stateCode": "03",
      "latitude": "45.50000000",
      "longitude": "16.75000000"
   },
   {
      "name": "Grad Novska",
      "countryCode": "HR",
      "stateCode": "03",
      "latitude": "45.33333000",
      "longitude": "17.00000000"
   },
   {
      "name": "Grad Petrinja",
      "countryCode": "HR",
      "stateCode": "03",
      "latitude": "45.43333000",
      "longitude": "16.26667000"
   },
   {
      "name": "Grad Sisak",
      "countryCode": "HR",
      "stateCode": "03",
      "latitude": "45.50000000",
      "longitude": "16.36667000"
   },
   {
      "name": "Gvozd",
      "countryCode": "HR",
      "stateCode": "03",
      "latitude": "45.35305000",
      "longitude": "15.86563000"
   },
   {
      "name": "Hrvatska Kostajnica",
      "countryCode": "HR",
      "stateCode": "03",
      "latitude": "45.23167000",
      "longitude": "16.53917000"
   },
   {
      "name": "Kutina",
      "countryCode": "HR",
      "stateCode": "03",
      "latitude": "45.47500000",
      "longitude": "16.78194000"
   },
   {
      "name": "Lekenik",
      "countryCode": "HR",
      "stateCode": "03",
      "latitude": "45.58556000",
      "longitude": "16.21139000"
   },
   {
      "name": "Lipovljani",
      "countryCode": "HR",
      "stateCode": "03",
      "latitude": "45.39667000",
      "longitude": "16.88972000"
   },
   {
      "name": "Martinska Ves",
      "countryCode": "HR",
      "stateCode": "03",
      "latitude": "45.58670000",
      "longitude": "16.37465000"
   },
   {
      "name": "Novska",
      "countryCode": "HR",
      "stateCode": "03",
      "latitude": "45.34056000",
      "longitude": "16.97694000"
   },
   {
      "name": "Općina Dvor",
      "countryCode": "HR",
      "stateCode": "03",
      "latitude": "45.10000000",
      "longitude": "16.30000000"
   },
   {
      "name": "Općina Gvozd",
      "countryCode": "HR",
      "stateCode": "03",
      "latitude": "45.33333000",
      "longitude": "15.90000000"
   },
   {
      "name": "Petrinja",
      "countryCode": "HR",
      "stateCode": "03",
      "latitude": "45.43750000",
      "longitude": "16.29000000"
   },
   {
      "name": "Popovača",
      "countryCode": "HR",
      "stateCode": "03",
      "latitude": "45.56972000",
      "longitude": "16.62500000"
   },
   {
      "name": "Repušnica",
      "countryCode": "HR",
      "stateCode": "03",
      "latitude": "45.49278000",
      "longitude": "16.73083000"
   },
   {
      "name": "Sisak",
      "countryCode": "HR",
      "stateCode": "03",
      "latitude": "45.46611000",
      "longitude": "16.37833000"
   },
   {
      "name": "Sunja",
      "countryCode": "HR",
      "stateCode": "03",
      "latitude": "45.36850000",
      "longitude": "16.56702000"
   },
   {
      "name": "Voloder",
      "countryCode": "HR",
      "stateCode": "03",
      "latitude": "45.54806000",
      "longitude": "16.67889000"
   }
]