[
   {
      "name": "Huyện Hoa Lư",
      "countryCode": "VN",
      "stateCode": "18",
      "latitude": "20.25391000",
      "longitude": "105.90789000"
   },
   {
      "name": "Huyện Kim Sơn",
      "countryCode": "VN",
      "stateCode": "18",
      "latitude": "20.06034000",
      "longitude": "106.09863000"
   },
   {
      "name": "Huyện Nho Quan",
      "countryCode": "VN",
      "stateCode": "18",
      "latitude": "20.27606000",
      "longitude": "105.75442000"
   },
   {
      "name": "Huyện Yên Khánh",
      "countryCode": "VN",
      "stateCode": "18",
      "latitude": "20.19017000",
      "longitude": "106.09605000"
   },
   {
      "name": "Huyện Yên Mô",
      "countryCode": "VN",
      "stateCode": "18",
      "latitude": "20.12984000",
      "longitude": "106.00199000"
   },
   {
      "name": "Ninh Bình",
      "countryCode": "VN",
      "stateCode": "18",
      "latitude": "20.25809000",
      "longitude": "105.97965000"
   }
]