[
   {
      "name": "Chicacao",
      "countryCode": "GT",
      "stateCode": "SU",
      "latitude": "14.54295000",
      "longitude": "-91.32636000"
   },
   {
      "name": "Cuyotenango",
      "countryCode": "GT",
      "stateCode": "SU",
      "latitude": "14.54006000",
      "longitude": "-91.57179000"
   },
   {
      "name": "Mazatenango",
      "countryCode": "GT",
      "stateCode": "SU",
      "latitude": "14.53417000",
      "longitude": "-91.50333000"
   },
   {
      "name": "Municipio de San Antonio Suchitepéquez",
      "countryCode": "GT",
      "stateCode": "SU",
      "latitude": "14.51839000",
      "longitude": "-91.40438000"
   },
   {
      "name": "Municipio de San Miguel Panán",
      "countryCode": "GT",
      "stateCode": "SU",
      "latitude": "14.50525000",
      "longitude": "-91.35956000"
   },
   {
      "name": "Municipio de Santa Bárbara",
      "countryCode": "GT",
      "stateCode": "SU",
      "latitude": "14.47317000",
      "longitude": "-91.24688000"
   },
   {
      "name": "Patulul",
      "countryCode": "GT",
      "stateCode": "SU",
      "latitude": "14.42321000",
      "longitude": "-91.16049000"
   },
   {
      "name": "Pueblo Nuevo",
      "countryCode": "GT",
      "stateCode": "SU",
      "latitude": "14.64709000",
      "longitude": "-91.53946000"
   },
   {
      "name": "Río Bravo",
      "countryCode": "GT",
      "stateCode": "SU",
      "latitude": "14.40042000",
      "longitude": "-91.31713000"
   },
   {
      "name": "San Antonio Suchitepéquez",
      "countryCode": "GT",
      "stateCode": "SU",
      "latitude": "14.53938000",
      "longitude": "-91.41442000"
   },
   {
      "name": "San Bernardino",
      "countryCode": "GT",
      "stateCode": "SU",
      "latitude": "14.54240000",
      "longitude": "-91.45811000"
   },
   {
      "name": "San Francisco Zapotitlán",
      "countryCode": "GT",
      "stateCode": "SU",
      "latitude": "14.58939000",
      "longitude": "-91.52144000"
   },
   {
      "name": "San Gabriel",
      "countryCode": "GT",
      "stateCode": "SU",
      "latitude": "14.51076000",
      "longitude": "-91.50745000"
   },
   {
      "name": "San José El Ídolo",
      "countryCode": "GT",
      "stateCode": "SU",
      "latitude": "14.45016000",
      "longitude": "-91.42222000"
   },
   {
      "name": "San Juan Bautista",
      "countryCode": "GT",
      "stateCode": "SU",
      "latitude": "14.42274000",
      "longitude": "-91.17904000"
   },
   {
      "name": "San Lorenzo",
      "countryCode": "GT",
      "stateCode": "SU",
      "latitude": "14.48606000",
      "longitude": "-91.51263000"
   },
   {
      "name": "San Miguel Panán",
      "countryCode": "GT",
      "stateCode": "SU",
      "latitude": "14.52865000",
      "longitude": "-91.36733000"
   },
   {
      "name": "San Pablo Jocopilas",
      "countryCode": "GT",
      "stateCode": "SU",
      "latitude": "14.58882000",
      "longitude": "-91.45188000"
   },
   {
      "name": "Santa Bárbara",
      "countryCode": "GT",
      "stateCode": "SU",
      "latitude": "14.43563000",
      "longitude": "-91.22685000"
   },
   {
      "name": "Santo Domingo Suchitepéquez",
      "countryCode": "GT",
      "stateCode": "SU",
      "latitude": "14.47901000",
      "longitude": "-91.48327000"
   },
   {
      "name": "Santo Tomás La Unión",
      "countryCode": "GT",
      "stateCode": "SU",
      "latitude": "14.63219000",
      "longitude": "-91.41075000"
   },
   {
      "name": "Zunilito",
      "countryCode": "GT",
      "stateCode": "SU",
      "latitude": "14.61264000",
      "longitude": "-91.50980000"
   }
]