[
   {
      "name": "Abbeyleix",
      "countryCode": "IE",
      "stateCode": "L",
      "latitude": "52.91331000",
      "longitude": "-7.34456000"
   },
   {
      "name": "An Iarmhí",
      "countryCode": "IE",
      "stateCode": "L",
      "latitude": "53.50000000",
      "longitude": "-7.50000000"
   },
   {
      "name": "An Longfort",
      "countryCode": "IE",
      "stateCode": "L",
      "latitude": "53.66667000",
      "longitude": "-7.75000000"
   },
   {
      "name": "An Mhí",
      "countryCode": "IE",
      "stateCode": "L",
      "latitude": "53.66667000",
      "longitude": "-6.66667000"
   },
   {
      "name": "An Muileann gCearr",
      "countryCode": "IE",
      "stateCode": "L",
      "latitude": "53.53333000",
      "longitude": "-7.35000000"
   },
   {
      "name": "An Ros",
      "countryCode": "IE",
      "stateCode": "L",
      "latitude": "53.52424000",
      "longitude": "-6.10497000"
   },
   {
      "name": "Ardee",
      "countryCode": "IE",
      "stateCode": "L",
      "latitude": "53.85972000",
      "longitude": "-6.54056000"
   },
   {
      "name": "Arklow",
      "countryCode": "IE",
      "stateCode": "L",
      "latitude": "52.79306000",
      "longitude": "-6.14139000"
   },
   {
      "name": "Artane",
      "countryCode": "IE",
      "stateCode": "L",
      "latitude": "53.38712000",
      "longitude": "-6.21380000"
   },
   {
      "name": "Ashbourne",
      "countryCode": "IE",
      "stateCode": "L",
      "latitude": "53.51163000",
      "longitude": "-6.39821000"
   },
   {
      "name": "Ashford",
      "countryCode": "IE",
      "stateCode": "L",
      "latitude": "53.00833000",
      "longitude": "-6.11139000"
   },
   {
      "name": "Athboy",
      "countryCode": "IE",
      "stateCode": "L",
      "latitude": "53.62327000",
      "longitude": "-6.91434000"
   },
   {
      "name": "Athgarvan",
      "countryCode": "IE",
      "stateCode": "L",
      "latitude": "53.15229000",
      "longitude": "-6.78173000"
   },
   {
      "name": "Athlone",
      "countryCode": "IE",
      "stateCode": "L",
      "latitude": "53.43333000",
      "longitude": "-7.95000000"
   },
   {
      "name": "Athy",
      "countryCode": "IE",
      "stateCode": "L",
      "latitude": "52.99139000",
      "longitude": "-6.98028000"
   },
   {
      "name": "Aughrim",
      "countryCode": "IE",
      "stateCode": "L",
      "latitude": "52.85333000",
      "longitude": "-6.32750000"
   },
   {
      "name": "Bagenalstown",
      "countryCode": "IE",
      "stateCode": "L",
      "latitude": "52.70031000",
      "longitude": "-6.96181000"
   },
   {
      "name": "Balally",
      "countryCode": "IE",
      "stateCode": "L",
      "latitude": "53.27504000",
      "longitude": "-6.23594000"
   },
   {
      "name": "Balbriggan",
      "countryCode": "IE",
      "stateCode": "L",
      "latitude": "53.60846000",
      "longitude": "-6.18310000"
   },
   {
      "name": "Baldoyle",
      "countryCode": "IE",
      "stateCode": "L",
      "latitude": "53.39972000",
      "longitude": "-6.12583000"
   },
   {
      "name": "Ballinroad",
      "countryCode": "IE",
      "stateCode": "L",
      "latitude": "52.51789000",
      "longitude": "-6.40619000"
   },
   {
      "name": "Ballinteer",
      "countryCode": "IE",
      "stateCode": "L",
      "latitude": "53.27409000",
      "longitude": "-6.25397000"
   },
   {
      "name": "Ballivor",
      "countryCode": "IE",
      "stateCode": "L",
      "latitude": "53.53167000",
      "longitude": "-6.96111000"
   },
   {
      "name": "Ballyboden",
      "countryCode": "IE",
      "stateCode": "L",
      "latitude": "53.28056000",
      "longitude": "-6.31639000"
   },
   {
      "name": "Ballyfermot",
      "countryCode": "IE",
      "stateCode": "L",
      "latitude": "53.34283000",
      "longitude": "-6.35480000"
   },
   {
      "name": "Ballygerry",
      "countryCode": "IE",
      "stateCode": "L",
      "latitude": "52.24917000",
      "longitude": "-6.35739000"
   },
   {
      "name": "Ballylinan",
      "countryCode": "IE",
      "stateCode": "L",
      "latitude": "52.94497000",
      "longitude": "-7.04073000"
   },
   {
      "name": "Ballymahon",
      "countryCode": "IE",
      "stateCode": "L",
      "latitude": "53.56667000",
      "longitude": "-7.76667000"
   },
   {
      "name": "Ballymun",
      "countryCode": "IE",
      "stateCode": "L",
      "latitude": "53.39807000",
      "longitude": "-6.26693000"
   },
   {
      "name": "Ballyragget",
      "countryCode": "IE",
      "stateCode": "L",
      "latitude": "52.78889000",
      "longitude": "-7.33028000"
   },
   {
      "name": "Balrothery",
      "countryCode": "IE",
      "stateCode": "L",
      "latitude": "53.58828000",
      "longitude": "-6.18728000"
   },
   {
      "name": "Baltinglass",
      "countryCode": "IE",
      "stateCode": "L",
      "latitude": "52.93722000",
      "longitude": "-6.70917000"
   },
   {
      "name": "Banagher",
      "countryCode": "IE",
      "stateCode": "L",
      "latitude": "53.18861000",
      "longitude": "-7.98667000"
   },
   {
      "name": "Bayside",
      "countryCode": "IE",
      "stateCode": "L",
      "latitude": "53.38895000",
      "longitude": "-6.14041000"
   },
   {
      "name": "Beaumont",
      "countryCode": "IE",
      "stateCode": "L",
      "latitude": "53.38721000",
      "longitude": "-6.22713000"
   },
   {
      "name": "Birr",
      "countryCode": "IE",
      "stateCode": "L",
      "latitude": "53.09139000",
      "longitude": "-7.91333000"
   },
   {
      "name": "Blackrock",
      "countryCode": "IE",
      "stateCode": "L",
      "latitude": "53.30150000",
      "longitude": "-6.17780000"
   },
   {
      "name": "Blanchardstown",
      "countryCode": "IE",
      "stateCode": "L",
      "latitude": "53.38806000",
      "longitude": "-6.37556000"
   },
   {
      "name": "Blessington",
      "countryCode": "IE",
      "stateCode": "L",
      "latitude": "53.17000000",
      "longitude": "-6.53250000"
   },
   {
      "name": "Bonnybrook",
      "countryCode": "IE",
      "stateCode": "L",
      "latitude": "53.39835000",
      "longitude": "-6.20749000"
   },
   {
      "name": "Booterstown",
      "countryCode": "IE",
      "stateCode": "L",
      "latitude": "53.30447000",
      "longitude": "-6.19985000"
   },
   {
      "name": "Bray",
      "countryCode": "IE",
      "stateCode": "L",
      "latitude": "53.20278000",
      "longitude": "-6.09833000"
   },
   {
      "name": "Bunclody",
      "countryCode": "IE",
      "stateCode": "L",
      "latitude": "52.65530000",
      "longitude": "-6.65359000"
   },
   {
      "name": "Cabinteely",
      "countryCode": "IE",
      "stateCode": "L",
      "latitude": "53.26973000",
      "longitude": "-6.16058000"
   },
   {
      "name": "Cabra",
      "countryCode": "IE",
      "stateCode": "L",
      "latitude": "53.36694000",
      "longitude": "-6.29444000"
   },
   {
      "name": "Callan",
      "countryCode": "IE",
      "stateCode": "L",
      "latitude": "52.54500000",
      "longitude": "-7.39111000"
   },
   {
      "name": "Carlingford",
      "countryCode": "IE",
      "stateCode": "L",
      "latitude": "54.04000000",
      "longitude": "-6.18833000"
   },
   {
      "name": "Carlow",
      "countryCode": "IE",
      "stateCode": "L",
      "latitude": "52.84083000",
      "longitude": "-6.92611000"
   },
   {
      "name": "Carnew",
      "countryCode": "IE",
      "stateCode": "L",
      "latitude": "52.70806000",
      "longitude": "-6.49444000"
   },
   {
      "name": "Castlebellingham",
      "countryCode": "IE",
      "stateCode": "L",
      "latitude": "53.90083000",
      "longitude": "-6.39028000"
   },
   {
      "name": "Castlebridge",
      "countryCode": "IE",
      "stateCode": "L",
      "latitude": "52.38639000",
      "longitude": "-6.44944000"
   },
   {
      "name": "Castlecomer",
      "countryCode": "IE",
      "stateCode": "L",
      "latitude": "52.80611000",
      "longitude": "-7.21056000"
   },
   {
      "name": "Castledermot",
      "countryCode": "IE",
      "stateCode": "L",
      "latitude": "52.90889000",
      "longitude": "-6.84222000"
   },
   {
      "name": "Castleknock",
      "countryCode": "IE",
      "stateCode": "L",
      "latitude": "53.37483000",
      "longitude": "-6.36336000"
   },
   {
      "name": "Castlepollard",
      "countryCode": "IE",
      "stateCode": "L",
      "latitude": "53.67935000",
      "longitude": "-7.29736000"
   },
   {
      "name": "Castletown",
      "countryCode": "IE",
      "stateCode": "L",
      "latitude": "52.72306000",
      "longitude": "-6.18944000"
   },
   {
      "name": "Celbridge",
      "countryCode": "IE",
      "stateCode": "L",
      "latitude": "53.34165000",
      "longitude": "-6.54419000"
   },
   {
      "name": "Chapelizod",
      "countryCode": "IE",
      "stateCode": "L",
      "latitude": "53.34846000",
      "longitude": "-6.34301000"
   },
   {
      "name": "Charlesland",
      "countryCode": "IE",
      "stateCode": "L",
      "latitude": "53.12771000",
      "longitude": "-6.06347000"
   },
   {
      "name": "Cherry Orchard",
      "countryCode": "IE",
      "stateCode": "L",
      "latitude": "53.33605000",
      "longitude": "-6.37799000"
   },
   {
      "name": "Cherryville",
      "countryCode": "IE",
      "stateCode": "L",
      "latitude": "53.15694000",
      "longitude": "-6.96667000"
   },
   {
      "name": "Clane",
      "countryCode": "IE",
      "stateCode": "L",
      "latitude": "53.29139000",
      "longitude": "-6.68917000"
   },
   {
      "name": "Clara",
      "countryCode": "IE",
      "stateCode": "L",
      "latitude": "53.34250000",
      "longitude": "-7.61389000"
   },
   {
      "name": "Clogherhead",
      "countryCode": "IE",
      "stateCode": "L",
      "latitude": "53.79361000",
      "longitude": "-6.23750000"
   },
   {
      "name": "Clondalkin",
      "countryCode": "IE",
      "stateCode": "L",
      "latitude": "53.32444000",
      "longitude": "-6.39722000"
   },
   {
      "name": "Clonskeagh",
      "countryCode": "IE",
      "stateCode": "L",
      "latitude": "53.31467000",
      "longitude": "-6.23148000"
   },
   {
      "name": "Confey",
      "countryCode": "IE",
      "stateCode": "L",
      "latitude": "53.37923000",
      "longitude": "-6.49052000"
   },
   {
      "name": "Coolock",
      "countryCode": "IE",
      "stateCode": "L",
      "latitude": "53.38870000",
      "longitude": "-6.19998000"
   },
   {
      "name": "County Carlow",
      "countryCode": "IE",
      "stateCode": "L",
      "latitude": "52.66667000",
      "longitude": "-6.83333000"
   },
   {
      "name": "Courtown",
      "countryCode": "IE",
      "stateCode": "L",
      "latitude": "52.64424000",
      "longitude": "-6.22899000"
   },
   {
      "name": "Crumlin",
      "countryCode": "IE",
      "stateCode": "L",
      "latitude": "53.32154000",
      "longitude": "-6.31439000"
   },
   {
      "name": "Daingean",
      "countryCode": "IE",
      "stateCode": "L",
      "latitude": "53.29611000",
      "longitude": "-7.28944000"
   },
   {
      "name": "Dalkey",
      "countryCode": "IE",
      "stateCode": "L",
      "latitude": "53.27833000",
      "longitude": "-6.10028000"
   },
   {
      "name": "Darndale",
      "countryCode": "IE",
      "stateCode": "L",
      "latitude": "53.39948000",
      "longitude": "-6.18886000"
   },
   {
      "name": "Derrinturn",
      "countryCode": "IE",
      "stateCode": "L",
      "latitude": "53.34167000",
      "longitude": "-6.94111000"
   },
   {
      "name": "Dollymount",
      "countryCode": "IE",
      "stateCode": "L",
      "latitude": "53.36489000",
      "longitude": "-6.18032000"
   },
   {
      "name": "Donabate",
      "countryCode": "IE",
      "stateCode": "L",
      "latitude": "53.48722000",
      "longitude": "-6.15194000"
   },
   {
      "name": "Donaghmede",
      "countryCode": "IE",
      "stateCode": "L",
      "latitude": "53.39845000",
      "longitude": "-6.16179000"
   },
   {
      "name": "Donnybrook",
      "countryCode": "IE",
      "stateCode": "L",
      "latitude": "53.31375000",
      "longitude": "-6.22274000"
   },
   {
      "name": "Donnycarney",
      "countryCode": "IE",
      "stateCode": "L",
      "latitude": "53.37350000",
      "longitude": "-6.20976000"
   },
   {
      "name": "Drogheda",
      "countryCode": "IE",
      "stateCode": "L",
      "latitude": "53.71889000",
      "longitude": "-6.34778000"
   },
   {
      "name": "Droichead Nua",
      "countryCode": "IE",
      "stateCode": "L",
      "latitude": "53.18194000",
      "longitude": "-6.79667000"
   },
   {
      "name": "Dromiskin",
      "countryCode": "IE",
      "stateCode": "L",
      "latitude": "53.92538000",
      "longitude": "-6.40292000"
   },
   {
      "name": "Drumcondra",
      "countryCode": "IE",
      "stateCode": "L",
      "latitude": "53.37058000",
      "longitude": "-6.25298000"
   },
   {
      "name": "Dublin",
      "countryCode": "IE",
      "stateCode": "L",
      "latitude": "53.33306000",
      "longitude": "-6.24889000"
   },
   {
      "name": "Dublin City",
      "countryCode": "IE",
      "stateCode": "L",
      "latitude": "53.35512000",
      "longitude": "-6.24922000"
   },
   {
      "name": "Duleek",
      "countryCode": "IE",
      "stateCode": "L",
      "latitude": "53.65667000",
      "longitude": "-6.41917000"
   },
   {
      "name": "Dunboyne",
      "countryCode": "IE",
      "stateCode": "L",
      "latitude": "53.41901000",
      "longitude": "-6.47375000"
   },
   {
      "name": "Dundalk",
      "countryCode": "IE",
      "stateCode": "L",
      "latitude": "54.00000000",
      "longitude": "-6.41667000"
   },
   {
      "name": "Dundrum",
      "countryCode": "IE",
      "stateCode": "L",
      "latitude": "53.29067000",
      "longitude": "-6.25714000"
   },
   {
      "name": "Dunleer",
      "countryCode": "IE",
      "stateCode": "L",
      "latitude": "53.83500000",
      "longitude": "-6.39611000"
   },
   {
      "name": "Dunshaughlin",
      "countryCode": "IE",
      "stateCode": "L",
      "latitude": "53.51250000",
      "longitude": "-6.54000000"
   },
   {
      "name": "Dún Laoghaire",
      "countryCode": "IE",
      "stateCode": "L",
      "latitude": "53.29395000",
      "longitude": "-6.13586000"
   },
   {
      "name": "Dún Laoghaire-Rathdown",
      "countryCode": "IE",
      "stateCode": "L",
      "latitude": "53.29436000",
      "longitude": "-6.13489000"
   },
   {
      "name": "Eadestown",
      "countryCode": "IE",
      "stateCode": "L",
      "latitude": "53.20278000",
      "longitude": "-6.57806000"
   },
   {
      "name": "Edenderry",
      "countryCode": "IE",
      "stateCode": "L",
      "latitude": "53.33948000",
      "longitude": "-7.04752000"
   },
   {
      "name": "Edgeworthstown",
      "countryCode": "IE",
      "stateCode": "L",
      "latitude": "53.70000000",
      "longitude": "-7.61667000"
   },
   {
      "name": "Enfield",
      "countryCode": "IE",
      "stateCode": "L",
      "latitude": "53.41419000",
      "longitude": "-6.83229000"
   },
   {
      "name": "Enniscorthy",
      "countryCode": "IE",
      "stateCode": "L",
      "latitude": "52.50083000",
      "longitude": "-6.55778000"
   },
   {
      "name": "Enniskerry",
      "countryCode": "IE",
      "stateCode": "L",
      "latitude": "53.19250000",
      "longitude": "-6.16917000"
   },
   {
      "name": "Fairview",
      "countryCode": "IE",
      "stateCode": "L",
      "latitude": "53.36597000",
      "longitude": "-6.23985000"
   },
   {
      "name": "Ferbane",
      "countryCode": "IE",
      "stateCode": "L",
      "latitude": "53.26944000",
      "longitude": "-7.82694000"
   },
   {
      "name": "Ferns",
      "countryCode": "IE",
      "stateCode": "L",
      "latitude": "52.58833000",
      "longitude": "-6.49972000"
   },
   {
      "name": "Fingal County",
      "countryCode": "IE",
      "stateCode": "L",
      "latitude": "53.45909000",
      "longitude": "-6.21942000"
   },
   {
      "name": "Finglas",
      "countryCode": "IE",
      "stateCode": "L",
      "latitude": "53.38917000",
      "longitude": "-6.29694000"
   },
   {
      "name": "Firhouse",
      "countryCode": "IE",
      "stateCode": "L",
      "latitude": "53.28167000",
      "longitude": "-6.33917000"
   },
   {
      "name": "Foxrock",
      "countryCode": "IE",
      "stateCode": "L",
      "latitude": "53.26667000",
      "longitude": "-6.17417000"
   },
   {
      "name": "Glasnevin",
      "countryCode": "IE",
      "stateCode": "L",
      "latitude": "53.37851000",
      "longitude": "-6.28028000"
   },
   {
      "name": "Gorey",
      "countryCode": "IE",
      "stateCode": "L",
      "latitude": "52.67472000",
      "longitude": "-6.29250000"
   },
   {
      "name": "Graiguenamanagh",
      "countryCode": "IE",
      "stateCode": "L",
      "latitude": "52.54028000",
      "longitude": "-6.95472000"
   },
   {
      "name": "Granard",
      "countryCode": "IE",
      "stateCode": "L",
      "latitude": "53.77928000",
      "longitude": "-7.49429000"
   },
   {
      "name": "Greenhills",
      "countryCode": "IE",
      "stateCode": "L",
      "latitude": "53.33467000",
      "longitude": "-6.30302000"
   },
   {
      "name": "Greystones",
      "countryCode": "IE",
      "stateCode": "L",
      "latitude": "53.14083000",
      "longitude": "-6.06306000"
   },
   {
      "name": "Hartstown",
      "countryCode": "IE",
      "stateCode": "L",
      "latitude": "53.39306000",
      "longitude": "-6.42694000"
   },
   {
      "name": "Howth",
      "countryCode": "IE",
      "stateCode": "L",
      "latitude": "53.38778000",
      "longitude": "-6.06528000"
   },
   {
      "name": "Jobstown",
      "countryCode": "IE",
      "stateCode": "L",
      "latitude": "53.27866000",
      "longitude": "-6.40803000"
   },
   {
      "name": "Johnstown",
      "countryCode": "IE",
      "stateCode": "L",
      "latitude": "53.23833000",
      "longitude": "-6.62222000"
   },
   {
      "name": "Kells",
      "countryCode": "IE",
      "stateCode": "L",
      "latitude": "53.72639000",
      "longitude": "-6.87917000"
   },
   {
      "name": "Kentstown",
      "countryCode": "IE",
      "stateCode": "L",
      "latitude": "53.62754000",
      "longitude": "-6.52674000"
   },
   {
      "name": "Kilbeggan",
      "countryCode": "IE",
      "stateCode": "L",
      "latitude": "53.36944000",
      "longitude": "-7.50333000"
   },
   {
      "name": "Kilcock",
      "countryCode": "IE",
      "stateCode": "L",
      "latitude": "53.40222000",
      "longitude": "-6.67083000"
   },
   {
      "name": "Kilcoole",
      "countryCode": "IE",
      "stateCode": "L",
      "latitude": "53.10278000",
      "longitude": "-6.06500000"
   },
   {
      "name": "Kilcullen",
      "countryCode": "IE",
      "stateCode": "L",
      "latitude": "53.13028000",
      "longitude": "-6.74444000"
   },
   {
      "name": "Kildare",
      "countryCode": "IE",
      "stateCode": "L",
      "latitude": "53.16667000",
      "longitude": "-6.75000000"
   },
   {
      "name": "Kilkenny",
      "countryCode": "IE",
      "stateCode": "L",
      "latitude": "52.58333000",
      "longitude": "-7.25000000"
   },
   {
      "name": "Kill",
      "countryCode": "IE",
      "stateCode": "L",
      "latitude": "53.25139000",
      "longitude": "-6.59167000"
   },
   {
      "name": "Killester",
      "countryCode": "IE",
      "stateCode": "L",
      "latitude": "53.37322000",
      "longitude": "-6.20431000"
   },
   {
      "name": "Kilmacanoge",
      "countryCode": "IE",
      "stateCode": "L",
      "latitude": "53.16722000",
      "longitude": "-6.13361000"
   },
   {
      "name": "Kilpedder",
      "countryCode": "IE",
      "stateCode": "L",
      "latitude": "53.10917000",
      "longitude": "-6.10667000"
   },
   {
      "name": "Kilquade",
      "countryCode": "IE",
      "stateCode": "L",
      "latitude": "53.09743000",
      "longitude": "-6.08411000"
   },
   {
      "name": "Kinnegad",
      "countryCode": "IE",
      "stateCode": "L",
      "latitude": "53.45222000",
      "longitude": "-7.09972000"
   },
   {
      "name": "Kinsealy-Drinan",
      "countryCode": "IE",
      "stateCode": "L",
      "latitude": "53.44395000",
      "longitude": "-6.20334000"
   },
   {
      "name": "Knocklyon",
      "countryCode": "IE",
      "stateCode": "L",
      "latitude": "53.28030000",
      "longitude": "-6.33130000"
   },
   {
      "name": "Lanesborough",
      "countryCode": "IE",
      "stateCode": "L",
      "latitude": "53.66667000",
      "longitude": "-7.98333000"
   },
   {
      "name": "Laois",
      "countryCode": "IE",
      "stateCode": "L",
      "latitude": "53.00000000",
      "longitude": "-7.40000000"
   },
   {
      "name": "Laytown",
      "countryCode": "IE",
      "stateCode": "L",
      "latitude": "53.68194000",
      "longitude": "-6.23917000"
   },
   {
      "name": "Leixlip",
      "countryCode": "IE",
      "stateCode": "L",
      "latitude": "53.36583000",
      "longitude": "-6.49556000"
   },
   {
      "name": "Little Bray",
      "countryCode": "IE",
      "stateCode": "L",
      "latitude": "53.20444000",
      "longitude": "-6.12083000"
   },
   {
      "name": "Loch Garman",
      "countryCode": "IE",
      "stateCode": "L",
      "latitude": "52.50000000",
      "longitude": "-6.66667000"
   },
   {
      "name": "Longford",
      "countryCode": "IE",
      "stateCode": "L",
      "latitude": "53.72536000",
      "longitude": "-7.79823000"
   },
   {
      "name": "Longwood",
      "countryCode": "IE",
      "stateCode": "L",
      "latitude": "53.45389000",
      "longitude": "-6.92194000"
   },
   {
      "name": "Loughlinstown",
      "countryCode": "IE",
      "stateCode": "L",
      "latitude": "53.24389000",
      "longitude": "-6.13306000"
   },
   {
      "name": "Lucan",
      "countryCode": "IE",
      "stateCode": "L",
      "latitude": "53.35736000",
      "longitude": "-6.44859000"
   },
   {
      "name": "Lusk",
      "countryCode": "IE",
      "stateCode": "L",
      "latitude": "53.52743000",
      "longitude": "-6.16423000"
   },
   {
      "name": "Lú",
      "countryCode": "IE",
      "stateCode": "L",
      "latitude": "53.83333000",
      "longitude": "-6.50000000"
   },
   {
      "name": "Malahide",
      "countryCode": "IE",
      "stateCode": "L",
      "latitude": "53.45083000",
      "longitude": "-6.15444000"
   },
   {
      "name": "Marino",
      "countryCode": "IE",
      "stateCode": "L",
      "latitude": "53.37022000",
      "longitude": "-6.23646000"
   },
   {
      "name": "Maynooth",
      "countryCode": "IE",
      "stateCode": "L",
      "latitude": "53.38500000",
      "longitude": "-6.59361000"
   },
   {
      "name": "Milltown",
      "countryCode": "IE",
      "stateCode": "L",
      "latitude": "53.31301000",
      "longitude": "-6.24530000"
   },
   {
      "name": "Moate",
      "countryCode": "IE",
      "stateCode": "L",
      "latitude": "53.39389000",
      "longitude": "-7.71722000"
   },
   {
      "name": "Monasterevin",
      "countryCode": "IE",
      "stateCode": "L",
      "latitude": "53.14056000",
      "longitude": "-7.06639000"
   },
   {
      "name": "Monkstown",
      "countryCode": "IE",
      "stateCode": "L",
      "latitude": "53.29308000",
      "longitude": "-6.15312000"
   },
   {
      "name": "Mooncoin",
      "countryCode": "IE",
      "stateCode": "L",
      "latitude": "52.28944000",
      "longitude": "-7.24833000"
   },
   {
      "name": "Moone",
      "countryCode": "IE",
      "stateCode": "L",
      "latitude": "52.97556000",
      "longitude": "-6.81500000"
   },
   {
      "name": "Mount Merrion",
      "countryCode": "IE",
      "stateCode": "L",
      "latitude": "53.30008000",
      "longitude": "-6.21504000"
   },
   {
      "name": "Mountmellick",
      "countryCode": "IE",
      "stateCode": "L",
      "latitude": "53.11361000",
      "longitude": "-7.32000000"
   },
   {
      "name": "Mountrath",
      "countryCode": "IE",
      "stateCode": "L",
      "latitude": "52.99889000",
      "longitude": "-7.47278000"
   },
   {
      "name": "Naas",
      "countryCode": "IE",
      "stateCode": "L",
      "latitude": "53.21583000",
      "longitude": "-6.66694000"
   },
   {
      "name": "Navan",
      "countryCode": "IE",
      "stateCode": "L",
      "latitude": "53.65278000",
      "longitude": "-6.68139000"
   },
   {
      "name": "New Ross",
      "countryCode": "IE",
      "stateCode": "L",
      "latitude": "52.39667000",
      "longitude": "-6.93667000"
   },
   {
      "name": "Newcastle",
      "countryCode": "IE",
      "stateCode": "L",
      "latitude": "53.30111000",
      "longitude": "-6.50222000"
   },
   {
      "name": "Newtown Trim",
      "countryCode": "IE",
      "stateCode": "L",
      "latitude": "53.55611000",
      "longitude": "-6.77000000"
   },
   {
      "name": "Newtownmountkennedy",
      "countryCode": "IE",
      "stateCode": "L",
      "latitude": "53.09052000",
      "longitude": "-6.11149000"
   },
   {
      "name": "Old Kilcullen",
      "countryCode": "IE",
      "stateCode": "L",
      "latitude": "53.10639000",
      "longitude": "-6.76528000"
   },
   {
      "name": "Oldbawn",
      "countryCode": "IE",
      "stateCode": "L",
      "latitude": "53.27556000",
      "longitude": "-6.36750000"
   },
   {
      "name": "Oldcastle",
      "countryCode": "IE",
      "stateCode": "L",
      "latitude": "53.76648000",
      "longitude": "-7.16284000"
   },
   {
      "name": "Palmerstown",
      "countryCode": "IE",
      "stateCode": "L",
      "latitude": "53.35019000",
      "longitude": "-6.37778000"
   },
   {
      "name": "Piltown",
      "countryCode": "IE",
      "stateCode": "L",
      "latitude": "52.35333000",
      "longitude": "-7.34028000"
   },
   {
      "name": "Portarlington",
      "countryCode": "IE",
      "stateCode": "L",
      "latitude": "53.16222000",
      "longitude": "-7.19111000"
   },
   {
      "name": "Portlaoise",
      "countryCode": "IE",
      "stateCode": "L",
      "latitude": "53.03441000",
      "longitude": "-7.29979000"
   },
   {
      "name": "Portmarnock",
      "countryCode": "IE",
      "stateCode": "L",
      "latitude": "53.42306000",
      "longitude": "-6.13750000"
   },
   {
      "name": "Portraine",
      "countryCode": "IE",
      "stateCode": "L",
      "latitude": "53.49667000",
      "longitude": "-6.11111000"
   },
   {
      "name": "Prosperous",
      "countryCode": "IE",
      "stateCode": "L",
      "latitude": "53.29028000",
      "longitude": "-6.75389000"
   },
   {
      "name": "Raheny",
      "countryCode": "IE",
      "stateCode": "L",
      "latitude": "53.38681000",
      "longitude": "-6.18067000"
   },
   {
      "name": "Rathangan",
      "countryCode": "IE",
      "stateCode": "L",
      "latitude": "53.22139000",
      "longitude": "-6.99500000"
   },
   {
      "name": "Rathcoole",
      "countryCode": "IE",
      "stateCode": "L",
      "latitude": "53.28278000",
      "longitude": "-6.47278000"
   },
   {
      "name": "Rathdowney",
      "countryCode": "IE",
      "stateCode": "L",
      "latitude": "52.85472000",
      "longitude": "-7.58028000"
   },
   {
      "name": "Rathdrum",
      "countryCode": "IE",
      "stateCode": "L",
      "latitude": "52.92639000",
      "longitude": "-6.23556000"
   },
   {
      "name": "Rathgar",
      "countryCode": "IE",
      "stateCode": "L",
      "latitude": "53.31457000",
      "longitude": "-6.27500000"
   },
   {
      "name": "Rathmines",
      "countryCode": "IE",
      "stateCode": "L",
      "latitude": "53.32028000",
      "longitude": "-6.26333000"
   },
   {
      "name": "Rathnew",
      "countryCode": "IE",
      "stateCode": "L",
      "latitude": "52.99056000",
      "longitude": "-6.08528000"
   },
   {
      "name": "Rathwire",
      "countryCode": "IE",
      "stateCode": "L",
      "latitude": "53.50767000",
      "longitude": "-7.13510000"
   },
   {
      "name": "Ratoath",
      "countryCode": "IE",
      "stateCode": "L",
      "latitude": "53.50806000",
      "longitude": "-6.46250000"
   },
   {
      "name": "Rialto",
      "countryCode": "IE",
      "stateCode": "L",
      "latitude": "53.33625000",
      "longitude": "-6.29718000"
   },
   {
      "name": "Ringsend",
      "countryCode": "IE",
      "stateCode": "L",
      "latitude": "53.34194000",
      "longitude": "-6.22639000"
   },
   {
      "name": "Rochfortbridge",
      "countryCode": "IE",
      "stateCode": "L",
      "latitude": "53.41417000",
      "longitude": "-7.29611000"
   },
   {
      "name": "Rosslare",
      "countryCode": "IE",
      "stateCode": "L",
      "latitude": "52.27583000",
      "longitude": "-6.38444000"
   },
   {
      "name": "Saggart",
      "countryCode": "IE",
      "stateCode": "L",
      "latitude": "53.28028000",
      "longitude": "-6.44444000"
   },
   {
      "name": "Sallins",
      "countryCode": "IE",
      "stateCode": "L",
      "latitude": "53.24889000",
      "longitude": "-6.66611000"
   },
   {
      "name": "Sallynoggin",
      "countryCode": "IE",
      "stateCode": "L",
      "latitude": "53.27917000",
      "longitude": "-6.14058000"
   },
   {
      "name": "Sandyford",
      "countryCode": "IE",
      "stateCode": "L",
      "latitude": "53.27470000",
      "longitude": "-6.22530000"
   },
   {
      "name": "Sandymount",
      "countryCode": "IE",
      "stateCode": "L",
      "latitude": "53.32815000",
      "longitude": "-6.22224000"
   },
   {
      "name": "Shankill",
      "countryCode": "IE",
      "stateCode": "L",
      "latitude": "53.22611000",
      "longitude": "-6.12444000"
   },
   {
      "name": "Skerries",
      "countryCode": "IE",
      "stateCode": "L",
      "latitude": "53.58278000",
      "longitude": "-6.10833000"
   },
   {
      "name": "Slane",
      "countryCode": "IE",
      "stateCode": "L",
      "latitude": "53.71000000",
      "longitude": "-6.54333000"
   },
   {
      "name": "South Dublin",
      "countryCode": "IE",
      "stateCode": "L",
      "latitude": "53.28595000",
      "longitude": "-6.37739000"
   },
   {
      "name": "Stamullin",
      "countryCode": "IE",
      "stateCode": "L",
      "latitude": "53.62889000",
      "longitude": "-6.26833000"
   },
   {
      "name": "Stradbally",
      "countryCode": "IE",
      "stateCode": "L",
      "latitude": "53.01556000",
      "longitude": "-7.15278000"
   },
   {
      "name": "Sutton",
      "countryCode": "IE",
      "stateCode": "L",
      "latitude": "53.38947000",
      "longitude": "-6.11059000"
   },
   {
      "name": "Swords",
      "countryCode": "IE",
      "stateCode": "L",
      "latitude": "53.45972000",
      "longitude": "-6.21806000"
   },
   {
      "name": "Tallaght",
      "countryCode": "IE",
      "stateCode": "L",
      "latitude": "53.28590000",
      "longitude": "-6.37344000"
   },
   {
      "name": "Templeogue",
      "countryCode": "IE",
      "stateCode": "L",
      "latitude": "53.29528000",
      "longitude": "-6.30889000"
   },
   {
      "name": "Terenure",
      "countryCode": "IE",
      "stateCode": "L",
      "latitude": "53.30972000",
      "longitude": "-6.28528000"
   },
   {
      "name": "Termonfeckin",
      "countryCode": "IE",
      "stateCode": "L",
      "latitude": "53.76333000",
      "longitude": "-6.26778000"
   },
   {
      "name": "Thomastown",
      "countryCode": "IE",
      "stateCode": "L",
      "latitude": "52.52667000",
      "longitude": "-7.13722000"
   },
   {
      "name": "Trim",
      "countryCode": "IE",
      "stateCode": "L",
      "latitude": "53.55500000",
      "longitude": "-6.79167000"
   },
   {
      "name": "Tullamore",
      "countryCode": "IE",
      "stateCode": "L",
      "latitude": "53.27389000",
      "longitude": "-7.48889000"
   },
   {
      "name": "Tullow",
      "countryCode": "IE",
      "stateCode": "L",
      "latitude": "52.80028000",
      "longitude": "-6.73694000"
   },
   {
      "name": "Tullyallen",
      "countryCode": "IE",
      "stateCode": "L",
      "latitude": "53.73611000",
      "longitude": "-6.42278000"
   },
   {
      "name": "Uíbh Fhailí",
      "countryCode": "IE",
      "stateCode": "L",
      "latitude": "53.25000000",
      "longitude": "-7.50000000"
   },
   {
      "name": "Valleymount",
      "countryCode": "IE",
      "stateCode": "L",
      "latitude": "53.10389000",
      "longitude": "-6.55361000"
   },
   {
      "name": "Wicklow",
      "countryCode": "IE",
      "stateCode": "L",
      "latitude": "53.00000000",
      "longitude": "-6.41667000"
   }
]