[
   {
      "name": "Cao Bằng",
      "countryCode": "VN",
      "stateCode": "04",
      "latitude": "22.66568000",
      "longitude": "106.25786000"
   },
   {
      "name": "Huyen Phuc Hoa",
      "countryCode": "VN",
      "stateCode": "04",
      "latitude": "22.53840000",
      "longitude": "106.51039000"
   },
   {
      "name": "Huyện Bảo Lac",
      "countryCode": "VN",
      "stateCode": "04",
      "latitude": "22.90085000",
      "longitude": "105.73332000"
   },
   {
      "name": "Huyện Bảo Lâm",
      "countryCode": "VN",
      "stateCode": "04",
      "latitude": "22.87041000",
      "longitude": "105.48780000"
   },
   {
      "name": "Huyện Hà Quảng",
      "countryCode": "VN",
      "stateCode": "04",
      "latitude": "22.90763000",
      "longitude": "106.12487000"
   },
   {
      "name": "Huyện Hạ Lang",
      "countryCode": "VN",
      "stateCode": "04",
      "latitude": "22.70933000",
      "longitude": "106.67657000"
   },
   {
      "name": "Huyện Nguyên Bình",
      "countryCode": "VN",
      "stateCode": "04",
      "latitude": "22.62400000",
      "longitude": "105.93248000"
   },
   {
      "name": "Huyện Thông Nông",
      "countryCode": "VN",
      "stateCode": "04",
      "latitude": "22.80735000",
      "longitude": "105.95846000"
   },
   {
      "name": "Huyện Thạch An",
      "countryCode": "VN",
      "stateCode": "04",
      "latitude": "22.47654000",
      "longitude": "106.34237000"
   },
   {
      "name": "Huyện Trà Lĩnh",
      "countryCode": "VN",
      "stateCode": "04",
      "latitude": "22.80961000",
      "longitude": "106.32543000"
   },
   {
      "name": "Huyện Trùng Khánh",
      "countryCode": "VN",
      "stateCode": "04",
      "latitude": "22.83333000",
      "longitude": "106.56074000"
   }
]