[
   {
      "name": "Berkovitsa",
      "countryCode": "BG",
      "stateCode": "12",
      "latitude": "43.23581000",
      "longitude": "23.12738000"
   },
   {
      "name": "Boychinovtsi",
      "countryCode": "BG",
      "stateCode": "12",
      "latitude": "43.47222000",
      "longitude": "23.33583000"
   },
   {
      "name": "Brusartsi",
      "countryCode": "BG",
      "stateCode": "12",
      "latitude": "43.66075000",
      "longitude": "23.06732000"
   },
   {
      "name": "Chiprovtsi",
      "countryCode": "BG",
      "stateCode": "12",
      "latitude": "43.38417000",
      "longitude": "22.88083000"
   },
   {
      "name": "Lom",
      "countryCode": "BG",
      "stateCode": "12",
      "latitude": "43.82106000",
      "longitude": "23.23677000"
   },
   {
      "name": "Medkovets",
      "countryCode": "BG",
      "stateCode": "12",
      "latitude": "43.62403000",
      "longitude": "23.16876000"
   },
   {
      "name": "Montana",
      "countryCode": "BG",
      "stateCode": "12",
      "latitude": "43.41250000",
      "longitude": "23.22500000"
   },
   {
      "name": "Obshtina Boychinovtsi",
      "countryCode": "BG",
      "stateCode": "12",
      "latitude": "43.53333000",
      "longitude": "23.43333000"
   },
   {
      "name": "Obshtina Chiprovtsi",
      "countryCode": "BG",
      "stateCode": "12",
      "latitude": "43.41667000",
      "longitude": "22.90000000"
   },
   {
      "name": "Obshtina Georgi Damyanovo",
      "countryCode": "BG",
      "stateCode": "12",
      "latitude": "43.35000000",
      "longitude": "23.00000000"
   },
   {
      "name": "Obshtina Lom",
      "countryCode": "BG",
      "stateCode": "12",
      "latitude": "43.81667000",
      "longitude": "23.23333000"
   },
   {
      "name": "Obshtina Montana",
      "countryCode": "BG",
      "stateCode": "12",
      "latitude": "43.46667000",
      "longitude": "23.20000000"
   },
   {
      "name": "Obshtina Valchedram",
      "countryCode": "BG",
      "stateCode": "12",
      "latitude": "43.71667000",
      "longitude": "23.51667000"
   },
   {
      "name": "Obshtina Varshets",
      "countryCode": "BG",
      "stateCode": "12",
      "latitude": "43.21667000",
      "longitude": "23.33333000"
   },
   {
      "name": "Obshtina Yakimovo",
      "countryCode": "BG",
      "stateCode": "12",
      "latitude": "43.63333000",
      "longitude": "23.33333000"
   },
   {
      "name": "Valchedram",
      "countryCode": "BG",
      "stateCode": "12",
      "latitude": "43.69281000",
      "longitude": "23.44518000"
   },
   {
      "name": "Varshets",
      "countryCode": "BG",
      "stateCode": "12",
      "latitude": "43.19356000",
      "longitude": "23.28680000"
   },
   {
      "name": "Yakimovo",
      "countryCode": "BG",
      "stateCode": "12",
      "latitude": "43.63472000",
      "longitude": "23.35350000"
   }
]