[
   {
      "name": "Anjala",
      "countryCode": "FI",
      "stateCode": "09",
      "latitude": "60.68333000",
      "longitude": "26.83333000"
   },
   {
      "name": "Elimäki",
      "countryCode": "FI",
      "stateCode": "09",
      "latitude": "60.71667000",
      "longitude": "26.46667000"
   },
   {
      "name": "Hamina",
      "countryCode": "FI",
      "stateCode": "09",
      "latitude": "60.56974000",
      "longitude": "27.19794000"
   },
   {
      "name": "Iitti",
      "countryCode": "FI",
      "stateCode": "09",
      "latitude": "60.89488000",
      "longitude": "26.33869000"
   },
   {
      "name": "Jaala",
      "countryCode": "FI",
      "stateCode": "09",
      "latitude": "61.05251000",
      "longitude": "26.48117000"
   },
   {
      "name": "Karhula",
      "countryCode": "FI",
      "stateCode": "09",
      "latitude": "60.52156000",
      "longitude": "26.93125000"
   },
   {
      "name": "Kotka",
      "countryCode": "FI",
      "stateCode": "09",
      "latitude": "60.46640000",
      "longitude": "26.94582000"
   },
   {
      "name": "Kouvola",
      "countryCode": "FI",
      "stateCode": "09",
      "latitude": "60.86667000",
      "longitude": "26.70000000"
   },
   {
      "name": "Miehikkälä",
      "countryCode": "FI",
      "stateCode": "09",
      "latitude": "60.66667000",
      "longitude": "27.70000000"
   },
   {
      "name": "Pyhtää",
      "countryCode": "FI",
      "stateCode": "09",
      "latitude": "60.49349000",
      "longitude": "26.54346000"
   },
   {
      "name": "Virojoki",
      "countryCode": "FI",
      "stateCode": "09",
      "latitude": "60.57940000",
      "longitude": "27.70354000"
   }
]