[
   {
      "name": "Barkåker",
      "countryCode": "NO",
      "stateCode": "07",
      "latitude": "59.31859000",
      "longitude": "10.38963000"
   },
   {
      "name": "Berger",
      "countryCode": "NO",
      "stateCode": "07",
      "latitude": "59.54994000",
      "longitude": "10.38641000"
   },
   {
      "name": "Færder",
      "countryCode": "NO",
      "stateCode": "07",
      "latitude": "59.22791000",
      "longitude": "10.41530000"
   },
   {
      "name": "Gullhaug",
      "countryCode": "NO",
      "stateCode": "07",
      "latitude": "59.50130000",
      "longitude": "10.25224000"
   },
   {
      "name": "Holmestrand",
      "countryCode": "NO",
      "stateCode": "07",
      "latitude": "59.48976000",
      "longitude": "10.31515000"
   },
   {
      "name": "Horten",
      "countryCode": "NO",
      "stateCode": "07",
      "latitude": "59.41547000",
      "longitude": "10.48527000"
   },
   {
      "name": "Larvik",
      "countryCode": "NO",
      "stateCode": "07",
      "latitude": "59.05234000",
      "longitude": "10.02701000"
   },
   {
      "name": "Melsomvik",
      "countryCode": "NO",
      "stateCode": "07",
      "latitude": "59.22394000",
      "longitude": "10.33616000"
   },
   {
      "name": "Re",
      "countryCode": "NO",
      "stateCode": "07",
      "latitude": "59.35056000",
      "longitude": "10.24763000"
   },
   {
      "name": "Sande",
      "countryCode": "NO",
      "stateCode": "07",
      "latitude": "59.59362000",
      "longitude": "10.20757000"
   },
   {
      "name": "Sandefjord",
      "countryCode": "NO",
      "stateCode": "07",
      "latitude": "59.12881000",
      "longitude": "10.21971000"
   },
   {
      "name": "Selvik",
      "countryCode": "NO",
      "stateCode": "07",
      "latitude": "59.56645000",
      "longitude": "10.26004000"
   },
   {
      "name": "Sem",
      "countryCode": "NO",
      "stateCode": "07",
      "latitude": "59.28230000",
      "longitude": "10.33004000"
   },
   {
      "name": "Skoppum",
      "countryCode": "NO",
      "stateCode": "07",
      "latitude": "59.38613000",
      "longitude": "10.41077000"
   },
   {
      "name": "Stavern",
      "countryCode": "NO",
      "stateCode": "07",
      "latitude": "59.00000000",
      "longitude": "10.03333000"
   },
   {
      "name": "Stokke",
      "countryCode": "NO",
      "stateCode": "07",
      "latitude": "59.22255000",
      "longitude": "10.30055000"
   },
   {
      "name": "Svelvik",
      "countryCode": "NO",
      "stateCode": "07",
      "latitude": "59.60677000",
      "longitude": "10.40225000"
   },
   {
      "name": "Tjøme",
      "countryCode": "NO",
      "stateCode": "07",
      "latitude": "59.11090000",
      "longitude": "10.39330000"
   },
   {
      "name": "Tønsberg",
      "countryCode": "NO",
      "stateCode": "07",
      "latitude": "59.26754000",
      "longitude": "10.40762000"
   },
   {
      "name": "Årøysund",
      "countryCode": "NO",
      "stateCode": "07",
      "latitude": "59.18321000",
      "longitude": "10.45743000"
   },
   {
      "name": "Åsgårdstrand",
      "countryCode": "NO",
      "stateCode": "07",
      "latitude": "59.34938000",
      "longitude": "10.46948000"
   }
]