[
   {
      "name": "Dondar Quşçu",
      "countryCode": "AZ",
      "stateCode": "TOV",
      "latitude": "40.95390000",
      "longitude": "45.61942000"
   },
   {
      "name": "Qaraxanlı",
      "countryCode": "AZ",
      "stateCode": "TOV",
      "latitude": "41.04358000",
      "longitude": "45.65527000"
   },
   {
      "name": "Tovuz",
      "countryCode": "AZ",
      "stateCode": "TOV",
      "latitude": "40.99249000",
      "longitude": "45.62838000"
   },
   {
      "name": "Yanıqlı",
      "countryCode": "AZ",
      "stateCode": "TOV",
      "latitude": "40.84320000",
      "longitude": "45.68030000"
   },
   {
      "name": "Çatax",
      "countryCode": "AZ",
      "stateCode": "TOV",
      "latitude": "40.72622000",
      "longitude": "45.55919000"
   },
   {
      "name": "Çobansığnaq",
      "countryCode": "AZ",
      "stateCode": "TOV",
      "latitude": "40.75244000",
      "longitude": "45.70645000"
   }
]