[
   {
      "name": "Amiel Town",
      "countryCode": "JM",
      "stateCode": "05",
      "latitude": "18.34027000",
      "longitude": "-76.97612000"
   },
   {
      "name": "Annotto Bay",
      "countryCode": "JM",
      "stateCode": "05",
      "latitude": "18.27170000",
      "longitude": "-76.76523000"
   },
   {
      "name": "Baileys Vale",
      "countryCode": "JM",
      "stateCode": "05",
      "latitude": "18.34527000",
      "longitude": "-76.92593000"
   },
   {
      "name": "Baxter Mountain",
      "countryCode": "JM",
      "stateCode": "05",
      "latitude": "18.20405000",
      "longitude": "-76.77198000"
   },
   {
      "name": "Belfield",
      "countryCode": "JM",
      "stateCode": "05",
      "latitude": "18.27347000",
      "longitude": "-76.83574000"
   },
   {
      "name": "Bonnygate",
      "countryCode": "JM",
      "stateCode": "05",
      "latitude": "18.32869000",
      "longitude": "-76.94606000"
   },
   {
      "name": "Brainerd",
      "countryCode": "JM",
      "stateCode": "05",
      "latitude": "18.16988000",
      "longitude": "-76.86890000"
   },
   {
      "name": "Broadgate",
      "countryCode": "JM",
      "stateCode": "05",
      "latitude": "18.22847000",
      "longitude": "-76.80788000"
   },
   {
      "name": "Camberwell",
      "countryCode": "JM",
      "stateCode": "05",
      "latitude": "18.23930000",
      "longitude": "-76.78088000"
   },
   {
      "name": "Carron Hall",
      "countryCode": "JM",
      "stateCode": "05",
      "latitude": "18.27797000",
      "longitude": "-76.95246000"
   },
   {
      "name": "Castleton",
      "countryCode": "JM",
      "stateCode": "05",
      "latitude": "18.17618000",
      "longitude": "-76.78340000"
   },
   {
      "name": "Charles Town",
      "countryCode": "JM",
      "stateCode": "05",
      "latitude": "18.38918000",
      "longitude": "-77.03978000"
   },
   {
      "name": "Clonmel",
      "countryCode": "JM",
      "stateCode": "05",
      "latitude": "18.24281000",
      "longitude": "-76.83137000"
   },
   {
      "name": "Devon Pen",
      "countryCode": "JM",
      "stateCode": "05",
      "latitude": "18.21561000",
      "longitude": "-76.82440000"
   },
   {
      "name": "Dover",
      "countryCode": "JM",
      "stateCode": "05",
      "latitude": "18.25534000",
      "longitude": "-76.70811000"
   },
   {
      "name": "Enfield",
      "countryCode": "JM",
      "stateCode": "05",
      "latitude": "18.22036000",
      "longitude": "-76.73745000"
   },
   {
      "name": "Epson",
      "countryCode": "JM",
      "stateCode": "05",
      "latitude": "18.25220000",
      "longitude": "-76.72641000"
   },
   {
      "name": "Flint River",
      "countryCode": "JM",
      "stateCode": "05",
      "latitude": "18.23790000",
      "longitude": "-76.92173000"
   },
   {
      "name": "Free Hill",
      "countryCode": "JM",
      "stateCode": "05",
      "latitude": "18.35439000",
      "longitude": "-76.94317000"
   },
   {
      "name": "Friendship Gap",
      "countryCode": "JM",
      "stateCode": "05",
      "latitude": "18.19719000",
      "longitude": "-76.81960000"
   },
   {
      "name": "Galina",
      "countryCode": "JM",
      "stateCode": "05",
      "latitude": "18.40265000",
      "longitude": "-76.90041000"
   },
   {
      "name": "Gayle",
      "countryCode": "JM",
      "stateCode": "05",
      "latitude": "18.34278000",
      "longitude": "-77.00211000"
   },
   {
      "name": "Guys Hill",
      "countryCode": "JM",
      "stateCode": "05",
      "latitude": "18.26243000",
      "longitude": "-76.99561000"
   },
   {
      "name": "Hampstead",
      "countryCode": "JM",
      "stateCode": "05",
      "latitude": "18.32051000",
      "longitude": "-76.90477000"
   },
   {
      "name": "Highgate",
      "countryCode": "JM",
      "stateCode": "05",
      "latitude": "18.27739000",
      "longitude": "-76.89554000"
   },
   {
      "name": "Islington",
      "countryCode": "JM",
      "stateCode": "05",
      "latitude": "18.32160000",
      "longitude": "-76.84102000"
   },
   {
      "name": "Jacks River",
      "countryCode": "JM",
      "stateCode": "05",
      "latitude": "18.37220000",
      "longitude": "-76.94101000"
   },
   {
      "name": "Jeffery Town",
      "countryCode": "JM",
      "stateCode": "05",
      "latitude": "18.28956000",
      "longitude": "-77.00343000"
   },
   {
      "name": "Labyrinth",
      "countryCode": "JM",
      "stateCode": "05",
      "latitude": "18.34419000",
      "longitude": "-77.03227000"
   },
   {
      "name": "Long Road",
      "countryCode": "JM",
      "stateCode": "05",
      "latitude": "18.21337000",
      "longitude": "-76.75009000"
   },
   {
      "name": "Lucky Hill",
      "countryCode": "JM",
      "stateCode": "05",
      "latitude": "18.30252000",
      "longitude": "-77.01678000"
   },
   {
      "name": "Mango Valley",
      "countryCode": "JM",
      "stateCode": "05",
      "latitude": "18.37481000",
      "longitude": "-76.97694000"
   },
   {
      "name": "Martin",
      "countryCode": "JM",
      "stateCode": "05",
      "latitude": "18.30118000",
      "longitude": "-76.87257000"
   },
   {
      "name": "Mason Hall",
      "countryCode": "JM",
      "stateCode": "05",
      "latitude": "18.39662000",
      "longitude": "-76.92063000"
   },
   {
      "name": "Mile Gully",
      "countryCode": "JM",
      "stateCode": "05",
      "latitude": "18.31801000",
      "longitude": "-76.96051000"
   },
   {
      "name": "Oracabessa",
      "countryCode": "JM",
      "stateCode": "05",
      "latitude": "18.40319000",
      "longitude": "-76.94641000"
   },
   {
      "name": "Port Maria",
      "countryCode": "JM",
      "stateCode": "05",
      "latitude": "18.36849000",
      "longitude": "-76.88946000"
   },
   {
      "name": "Prospect",
      "countryCode": "JM",
      "stateCode": "05",
      "latitude": "18.41273000",
      "longitude": "-77.04119000"
   },
   {
      "name": "Retreat",
      "countryCode": "JM",
      "stateCode": "05",
      "latitude": "18.37865000",
      "longitude": "-77.01590000"
   },
   {
      "name": "Richmond",
      "countryCode": "JM",
      "stateCode": "05",
      "latitude": "18.21113000",
      "longitude": "-76.88301000"
   },
   {
      "name": "Robins Bay",
      "countryCode": "JM",
      "stateCode": "05",
      "latitude": "18.31236000",
      "longitude": "-76.81783000"
   },
   {
      "name": "Sandside",
      "countryCode": "JM",
      "stateCode": "05",
      "latitude": "18.33888000",
      "longitude": "-76.89551000"
   },
   {
      "name": "Scotts Hall",
      "countryCode": "JM",
      "stateCode": "05",
      "latitude": "18.19083000",
      "longitude": "-76.83942000"
   },
   {
      "name": "Woodpark",
      "countryCode": "JM",
      "stateCode": "05",
      "latitude": "18.29734000",
      "longitude": "-76.98114000"
   },
   {
      "name": "Woodside",
      "countryCode": "JM",
      "stateCode": "05",
      "latitude": "18.25258000",
      "longitude": "-76.92679000"
   }
]