[
   {
      "name": "Asnæs",
      "countryCode": "DK",
      "stateCode": "85",
      "latitude": "55.81229000",
      "longitude": "11.50129000"
   },
   {
      "name": "Bjæverskov",
      "countryCode": "DK",
      "stateCode": "85",
      "latitude": "55.45756000",
      "longitude": "12.03651000"
   },
   {
      "name": "Borup",
      "countryCode": "DK",
      "stateCode": "85",
      "latitude": "55.49472000",
      "longitude": "11.97584000"
   },
   {
      "name": "Dianalund",
      "countryCode": "DK",
      "stateCode": "85",
      "latitude": "55.53133000",
      "longitude": "11.49250000"
   },
   {
      "name": "Ejby",
      "countryCode": "DK",
      "stateCode": "85",
      "latitude": "55.48580000",
      "longitude": "12.08171000"
   },
   {
      "name": "Faxe",
      "countryCode": "DK",
      "stateCode": "85",
      "latitude": "55.25561000",
      "longitude": "12.11926000"
   },
   {
      "name": "Faxe Kommune",
      "countryCode": "DK",
      "stateCode": "85",
      "latitude": "55.29444000",
      "longitude": "12.06111000"
   },
   {
      "name": "Faxe Ladeplads",
      "countryCode": "DK",
      "stateCode": "85",
      "latitude": "55.21981000",
      "longitude": "12.17013000"
   },
   {
      "name": "Fensmark",
      "countryCode": "DK",
      "stateCode": "85",
      "latitude": "55.27919000",
      "longitude": "11.80382000"
   },
   {
      "name": "Forlev",
      "countryCode": "DK",
      "stateCode": "85",
      "latitude": "55.37445000",
      "longitude": "11.25966000"
   },
   {
      "name": "Frederiksberg",
      "countryCode": "DK",
      "stateCode": "85",
      "latitude": "55.41618000",
      "longitude": "11.56934000"
   },
   {
      "name": "Fuglebjerg",
      "countryCode": "DK",
      "stateCode": "85",
      "latitude": "55.30604000",
      "longitude": "11.54766000"
   },
   {
      "name": "Greve",
      "countryCode": "DK",
      "stateCode": "85",
      "latitude": "55.58333000",
      "longitude": "12.30000000"
   },
   {
      "name": "Greve Kommune",
      "countryCode": "DK",
      "stateCode": "85",
      "latitude": "55.58770000",
      "longitude": "12.25060000"
   },
   {
      "name": "Guldborgsund Kommune",
      "countryCode": "DK",
      "stateCode": "85",
      "latitude": "54.76944000",
      "longitude": "11.83611000"
   },
   {
      "name": "Gundsømagle",
      "countryCode": "DK",
      "stateCode": "85",
      "latitude": "55.73565000",
      "longitude": "12.15158000"
   },
   {
      "name": "Gørlev",
      "countryCode": "DK",
      "stateCode": "85",
      "latitude": "55.53926000",
      "longitude": "11.22708000"
   },
   {
      "name": "Haslev",
      "countryCode": "DK",
      "stateCode": "85",
      "latitude": "55.32346000",
      "longitude": "11.96389000"
   },
   {
      "name": "Havdrup",
      "countryCode": "DK",
      "stateCode": "85",
      "latitude": "55.54481000",
      "longitude": "12.12392000"
   },
   {
      "name": "Holbæk",
      "countryCode": "DK",
      "stateCode": "85",
      "latitude": "55.71750000",
      "longitude": "11.71279000"
   },
   {
      "name": "Holbæk Kommune",
      "countryCode": "DK",
      "stateCode": "85",
      "latitude": "55.65919000",
      "longitude": "11.62049000"
   },
   {
      "name": "Holeby",
      "countryCode": "DK",
      "stateCode": "85",
      "latitude": "54.71148000",
      "longitude": "11.46416000"
   },
   {
      "name": "Hårlev",
      "countryCode": "DK",
      "stateCode": "85",
      "latitude": "55.34936000",
      "longitude": "12.23382000"
   },
   {
      "name": "Høng",
      "countryCode": "DK",
      "stateCode": "85",
      "latitude": "55.50736000",
      "longitude": "11.28873000"
   },
   {
      "name": "Hørve",
      "countryCode": "DK",
      "stateCode": "85",
      "latitude": "55.75292000",
      "longitude": "11.45298000"
   },
   {
      "name": "Jyderup",
      "countryCode": "DK",
      "stateCode": "85",
      "latitude": "55.66399000",
      "longitude": "11.42029000"
   },
   {
      "name": "Jyllinge",
      "countryCode": "DK",
      "stateCode": "85",
      "latitude": "55.75295000",
      "longitude": "12.10315000"
   },
   {
      "name": "Kalundborg",
      "countryCode": "DK",
      "stateCode": "85",
      "latitude": "55.67954000",
      "longitude": "11.08864000"
   },
   {
      "name": "Kalundborg Kommune",
      "countryCode": "DK",
      "stateCode": "85",
      "latitude": "55.63545000",
      "longitude": "11.19993000"
   },
   {
      "name": "Kirke Hvalsø",
      "countryCode": "DK",
      "stateCode": "85",
      "latitude": "55.59170000",
      "longitude": "11.86253000"
   },
   {
      "name": "Korsør",
      "countryCode": "DK",
      "stateCode": "85",
      "latitude": "55.32993000",
      "longitude": "11.13857000"
   },
   {
      "name": "Køge",
      "countryCode": "DK",
      "stateCode": "85",
      "latitude": "55.45802000",
      "longitude": "12.18214000"
   },
   {
      "name": "Køge Kommune",
      "countryCode": "DK",
      "stateCode": "85",
      "latitude": "55.45668000",
      "longitude": "12.07332000"
   },
   {
      "name": "Lejre",
      "countryCode": "DK",
      "stateCode": "85",
      "latitude": "55.60461000",
      "longitude": "11.97477000"
   },
   {
      "name": "Lejre Kommune",
      "countryCode": "DK",
      "stateCode": "85",
      "latitude": "55.63375000",
      "longitude": "11.92234000"
   },
   {
      "name": "Lolland Kommune",
      "countryCode": "DK",
      "stateCode": "85",
      "latitude": "54.80238000",
      "longitude": "11.29524000"
   },
   {
      "name": "Maribo",
      "countryCode": "DK",
      "stateCode": "85",
      "latitude": "54.77662000",
      "longitude": "11.50017000"
   },
   {
      "name": "Nakskov",
      "countryCode": "DK",
      "stateCode": "85",
      "latitude": "54.83038000",
      "longitude": "11.13567000"
   },
   {
      "name": "Neder Vindinge",
      "countryCode": "DK",
      "stateCode": "85",
      "latitude": "55.03211000",
      "longitude": "11.88356000"
   },
   {
      "name": "Nykøbing Falster",
      "countryCode": "DK",
      "stateCode": "85",
      "latitude": "54.76906000",
      "longitude": "11.87425000"
   },
   {
      "name": "Nykøbing Sjælland",
      "countryCode": "DK",
      "stateCode": "85",
      "latitude": "55.92491000",
      "longitude": "11.67109000"
   },
   {
      "name": "Nyråd",
      "countryCode": "DK",
      "stateCode": "85",
      "latitude": "55.00511000",
      "longitude": "11.96060000"
   },
   {
      "name": "Næstved",
      "countryCode": "DK",
      "stateCode": "85",
      "latitude": "55.22992000",
      "longitude": "11.76092000"
   },
   {
      "name": "Næstved Kommune",
      "countryCode": "DK",
      "stateCode": "85",
      "latitude": "55.25855000",
      "longitude": "11.74615000"
   },
   {
      "name": "Nørre Alslev",
      "countryCode": "DK",
      "stateCode": "85",
      "latitude": "54.89784000",
      "longitude": "11.88414000"
   },
   {
      "name": "Odsherred Kommune",
      "countryCode": "DK",
      "stateCode": "85",
      "latitude": "55.88333000",
      "longitude": "11.59444000"
   },
   {
      "name": "Osted",
      "countryCode": "DK",
      "stateCode": "85",
      "latitude": "55.56228000",
      "longitude": "11.95786000"
   },
   {
      "name": "Præstø",
      "countryCode": "DK",
      "stateCode": "85",
      "latitude": "55.12374000",
      "longitude": "12.04477000"
   },
   {
      "name": "Ringsted",
      "countryCode": "DK",
      "stateCode": "85",
      "latitude": "55.44260000",
      "longitude": "11.79011000"
   },
   {
      "name": "Ringsted Kommune",
      "countryCode": "DK",
      "stateCode": "85",
      "latitude": "55.44721000",
      "longitude": "11.81720000"
   },
   {
      "name": "Roskilde",
      "countryCode": "DK",
      "stateCode": "85",
      "latitude": "55.64152000",
      "longitude": "12.08035000"
   },
   {
      "name": "Roskilde Kommune",
      "countryCode": "DK",
      "stateCode": "85",
      "latitude": "55.65000000",
      "longitude": "12.10000000"
   },
   {
      "name": "Rødby",
      "countryCode": "DK",
      "stateCode": "85",
      "latitude": "54.69495000",
      "longitude": "11.38885000"
   },
   {
      "name": "Rødbyhavn",
      "countryCode": "DK",
      "stateCode": "85",
      "latitude": "54.65944000",
      "longitude": "11.35504000"
   },
   {
      "name": "Rødvig",
      "countryCode": "DK",
      "stateCode": "85",
      "latitude": "55.25540000",
      "longitude": "12.37936000"
   },
   {
      "name": "Rønnede",
      "countryCode": "DK",
      "stateCode": "85",
      "latitude": "55.25710000",
      "longitude": "12.02125000"
   },
   {
      "name": "Sakskøbing",
      "countryCode": "DK",
      "stateCode": "85",
      "latitude": "54.79970000",
      "longitude": "11.62599000"
   },
   {
      "name": "Skælskør",
      "countryCode": "DK",
      "stateCode": "85",
      "latitude": "55.25058000",
      "longitude": "11.29352000"
   },
   {
      "name": "Slagelse",
      "countryCode": "DK",
      "stateCode": "85",
      "latitude": "55.40276000",
      "longitude": "11.35459000"
   },
   {
      "name": "Slagelse Kommune",
      "countryCode": "DK",
      "stateCode": "85",
      "latitude": "55.34546000",
      "longitude": "11.33390000"
   },
   {
      "name": "Solrød",
      "countryCode": "DK",
      "stateCode": "85",
      "latitude": "55.53628000",
      "longitude": "12.18270000"
   },
   {
      "name": "Solrød Kommune",
      "countryCode": "DK",
      "stateCode": "85",
      "latitude": "55.53553000",
      "longitude": "12.17337000"
   },
   {
      "name": "Solrød Strand",
      "countryCode": "DK",
      "stateCode": "85",
      "latitude": "55.53285000",
      "longitude": "12.22227000"
   },
   {
      "name": "Sorø",
      "countryCode": "DK",
      "stateCode": "85",
      "latitude": "55.43184000",
      "longitude": "11.55547000"
   },
   {
      "name": "Sorø Kommune",
      "countryCode": "DK",
      "stateCode": "85",
      "latitude": "55.48268000",
      "longitude": "11.55693000"
   },
   {
      "name": "Stege",
      "countryCode": "DK",
      "stateCode": "85",
      "latitude": "54.98704000",
      "longitude": "12.28461000"
   },
   {
      "name": "Stenlille",
      "countryCode": "DK",
      "stateCode": "85",
      "latitude": "55.53888000",
      "longitude": "11.59120000"
   },
   {
      "name": "Stevns Kommune",
      "countryCode": "DK",
      "stateCode": "85",
      "latitude": "55.33373000",
      "longitude": "12.30692000"
   },
   {
      "name": "Store Heddinge",
      "countryCode": "DK",
      "stateCode": "85",
      "latitude": "55.30965000",
      "longitude": "12.38885000"
   },
   {
      "name": "Strøby Egede",
      "countryCode": "DK",
      "stateCode": "85",
      "latitude": "55.41382000",
      "longitude": "12.24502000"
   },
   {
      "name": "Stubbekøbing",
      "countryCode": "DK",
      "stateCode": "85",
      "latitude": "54.88875000",
      "longitude": "12.04102000"
   },
   {
      "name": "Sundby",
      "countryCode": "DK",
      "stateCode": "85",
      "latitude": "54.76711000",
      "longitude": "11.84979000"
   },
   {
      "name": "Svebølle",
      "countryCode": "DK",
      "stateCode": "85",
      "latitude": "55.65183000",
      "longitude": "11.28658000"
   },
   {
      "name": "Svinninge",
      "countryCode": "DK",
      "stateCode": "85",
      "latitude": "55.72111000",
      "longitude": "11.46547000"
   },
   {
      "name": "Svogerslev",
      "countryCode": "DK",
      "stateCode": "85",
      "latitude": "55.63423000",
      "longitude": "12.01465000"
   },
   {
      "name": "Tune",
      "countryCode": "DK",
      "stateCode": "85",
      "latitude": "55.59287000",
      "longitude": "12.16968000"
   },
   {
      "name": "Tølløse",
      "countryCode": "DK",
      "stateCode": "85",
      "latitude": "55.61250000",
      "longitude": "11.77034000"
   },
   {
      "name": "Viby",
      "countryCode": "DK",
      "stateCode": "85",
      "latitude": "55.54872000",
      "longitude": "12.02391000"
   },
   {
      "name": "Vindinge",
      "countryCode": "DK",
      "stateCode": "85",
      "latitude": "55.62298000",
      "longitude": "12.13870000"
   },
   {
      "name": "Vipperød",
      "countryCode": "DK",
      "stateCode": "85",
      "latitude": "55.66768000",
      "longitude": "11.73967000"
   },
   {
      "name": "Vordingborg",
      "countryCode": "DK",
      "stateCode": "85",
      "latitude": "55.00801000",
      "longitude": "11.91057000"
   },
   {
      "name": "Vordingborg Kommune",
      "countryCode": "DK",
      "stateCode": "85",
      "latitude": "55.01383000",
      "longitude": "12.10008000"
   },
   {
      "name": "Ørslev",
      "countryCode": "DK",
      "stateCode": "85",
      "latitude": "55.04356000",
      "longitude": "11.96792000"
   }
]