[
   {
      "name": "Amagi",
      "countryCode": "JP",
      "stateCode": "40",
      "latitude": "33.41804000",
      "longitude": "130.65413000"
   },
   {
      "name": "Asakura Shi",
      "countryCode": "JP",
      "stateCode": "40",
      "latitude": "33.41684000",
      "longitude": "130.74167000"
   },
   {
      "name": "Buzen",
      "countryCode": "JP",
      "stateCode": "40",
      "latitude": "33.61153000",
      "longitude": "131.13002000"
   },
   {
      "name": "Buzen-shi",
      "countryCode": "JP",
      "stateCode": "40",
      "latitude": "33.56743000",
      "longitude": "131.08578000"
   },
   {
      "name": "Chikugo Shi",
      "countryCode": "JP",
      "stateCode": "40",
      "latitude": "33.20748000",
      "longitude": "130.49122000"
   },
   {
      "name": "Chikushino-shi",
      "countryCode": "JP",
      "stateCode": "40",
      "latitude": "33.49631000",
      "longitude": "130.51560000"
   },
   {
      "name": "Dazaifu-shi",
      "countryCode": "JP",
      "stateCode": "40",
      "latitude": "33.50000000",
      "longitude": "130.53333000"
   },
   {
      "name": "Fukuoka",
      "countryCode": "JP",
      "stateCode": "40",
      "latitude": "33.60000000",
      "longitude": "130.41667000"
   },
   {
      "name": "Fukuoka-shi",
      "countryCode": "JP",
      "stateCode": "40",
      "latitude": "33.56894000",
      "longitude": "130.35764000"
   },
   {
      "name": "Fukutsu Shi",
      "countryCode": "JP",
      "stateCode": "40",
      "latitude": "33.77982000",
      "longitude": "130.49804000"
   },
   {
      "name": "Iizuka",
      "countryCode": "JP",
      "stateCode": "40",
      "latitude": "33.63654000",
      "longitude": "130.68678000"
   },
   {
      "name": "Iizuka Shi",
      "countryCode": "JP",
      "stateCode": "40",
      "latitude": "33.61353000",
      "longitude": "130.66098000"
   },
   {
      "name": "Itoshima-shi",
      "countryCode": "JP",
      "stateCode": "40",
      "latitude": "33.53317000",
      "longitude": "130.17975000"
   },
   {
      "name": "Kama Shi",
      "countryCode": "JP",
      "stateCode": "40",
      "latitude": "33.53663000",
      "longitude": "130.74028000"
   },
   {
      "name": "Kanda",
      "countryCode": "JP",
      "stateCode": "40",
      "latitude": "33.78333000",
      "longitude": "130.98333000"
   },
   {
      "name": "Kasuga Shi",
      "countryCode": "JP",
      "stateCode": "40",
      "latitude": "33.52404000",
      "longitude": "130.45641000"
   },
   {
      "name": "Kawasaki",
      "countryCode": "JP",
      "stateCode": "40",
      "latitude": "33.59993000",
      "longitude": "130.81495000"
   },
   {
      "name": "Kitakyushu",
      "countryCode": "JP",
      "stateCode": "40",
      "latitude": "33.85181000",
      "longitude": "130.85034000"
   },
   {
      "name": "Koga",
      "countryCode": "JP",
      "stateCode": "40",
      "latitude": "33.73333000",
      "longitude": "130.46667000"
   },
   {
      "name": "Koga-shi",
      "countryCode": "JP",
      "stateCode": "40",
      "latitude": "33.72139000",
      "longitude": "130.49947000"
   },
   {
      "name": "Kurume",
      "countryCode": "JP",
      "stateCode": "40",
      "latitude": "33.31667000",
      "longitude": "130.51667000"
   },
   {
      "name": "Kurume Shi",
      "countryCode": "JP",
      "stateCode": "40",
      "latitude": "33.30358000",
      "longitude": "130.56549000"
   },
   {
      "name": "Maebaru-chūō",
      "countryCode": "JP",
      "stateCode": "40",
      "latitude": "33.55916000",
      "longitude": "130.20148000"
   },
   {
      "name": "Miyama Shi",
      "countryCode": "JP",
      "stateCode": "40",
      "latitude": "33.12369000",
      "longitude": "130.49540000"
   },
   {
      "name": "Miyata",
      "countryCode": "JP",
      "stateCode": "40",
      "latitude": "33.70811000",
      "longitude": "130.65297000"
   },
   {
      "name": "Miyawaka Shi",
      "countryCode": "JP",
      "stateCode": "40",
      "latitude": "33.71559000",
      "longitude": "130.61506000"
   },
   {
      "name": "Munakata-shi",
      "countryCode": "JP",
      "stateCode": "40",
      "latitude": "33.80000000",
      "longitude": "130.55000000"
   },
   {
      "name": "Nakama",
      "countryCode": "JP",
      "stateCode": "40",
      "latitude": "33.81688000",
      "longitude": "130.70962000"
   },
   {
      "name": "Nakama Shi",
      "countryCode": "JP",
      "stateCode": "40",
      "latitude": "33.82081000",
      "longitude": "130.70862000"
   },
   {
      "name": "Nishifukuma",
      "countryCode": "JP",
      "stateCode": "40",
      "latitude": "33.76627000",
      "longitude": "130.47461000"
   },
   {
      "name": "Nōgata",
      "countryCode": "JP",
      "stateCode": "40",
      "latitude": "33.74051000",
      "longitude": "130.72263000"
   },
   {
      "name": "Nōgata Shi",
      "countryCode": "JP",
      "stateCode": "40",
      "latitude": "33.75116000",
      "longitude": "130.74592000"
   },
   {
      "name": "Ogōri-shi",
      "countryCode": "JP",
      "stateCode": "40",
      "latitude": "33.38333000",
      "longitude": "130.56667000"
   },
   {
      "name": "Onga-gun",
      "countryCode": "JP",
      "stateCode": "40",
      "latitude": "33.85699000",
      "longitude": "130.63626000"
   },
   {
      "name": "Sasaguri",
      "countryCode": "JP",
      "stateCode": "40",
      "latitude": "33.61561000",
      "longitude": "130.55105000"
   },
   {
      "name": "Setakamachi-takayanagi",
      "countryCode": "JP",
      "stateCode": "40",
      "latitude": "33.14858000",
      "longitude": "130.46548000"
   },
   {
      "name": "Shiida",
      "countryCode": "JP",
      "stateCode": "40",
      "latitude": "33.65341000",
      "longitude": "131.05797000"
   },
   {
      "name": "Shingū",
      "countryCode": "JP",
      "stateCode": "40",
      "latitude": "33.71399000",
      "longitude": "130.43130000"
   },
   {
      "name": "Tagawa",
      "countryCode": "JP",
      "stateCode": "40",
      "latitude": "33.63333000",
      "longitude": "130.80000000"
   },
   {
      "name": "Tagawa Shi",
      "countryCode": "JP",
      "stateCode": "40",
      "latitude": "33.63159000",
      "longitude": "130.79966000"
   },
   {
      "name": "Tanushimarumachi-toyoki",
      "countryCode": "JP",
      "stateCode": "40",
      "latitude": "33.35000000",
      "longitude": "130.68333000"
   },
   {
      "name": "Tsuiki",
      "countryCode": "JP",
      "stateCode": "40",
      "latitude": "33.67307000",
      "longitude": "131.03776000"
   },
   {
      "name": "Ukiha Shi",
      "countryCode": "JP",
      "stateCode": "40",
      "latitude": "33.31184000",
      "longitude": "130.79325000"
   },
   {
      "name": "Umi",
      "countryCode": "JP",
      "stateCode": "40",
      "latitude": "33.56826000",
      "longitude": "130.51009000"
   },
   {
      "name": "Yame Shi",
      "countryCode": "JP",
      "stateCode": "40",
      "latitude": "33.23302000",
      "longitude": "130.62775000"
   },
   {
      "name": "Yanagawa",
      "countryCode": "JP",
      "stateCode": "40",
      "latitude": "33.16667000",
      "longitude": "130.40000000"
   },
   {
      "name": "Yanagawa Shi",
      "countryCode": "JP",
      "stateCode": "40",
      "latitude": "33.14932000",
      "longitude": "130.40725000"
   },
   {
      "name": "Yoshitomi",
      "countryCode": "JP",
      "stateCode": "40",
      "latitude": "33.60247000",
      "longitude": "131.17599000"
   },
   {
      "name": "Yukuhashi",
      "countryCode": "JP",
      "stateCode": "40",
      "latitude": "33.72873000",
      "longitude": "130.98300000"
   },
   {
      "name": "Yukuhashi Shi",
      "countryCode": "JP",
      "stateCode": "40",
      "latitude": "33.71404000",
      "longitude": "130.97108000"
   },
   {
      "name": "Ōkawa",
      "countryCode": "JP",
      "stateCode": "40",
      "latitude": "33.20566000",
      "longitude": "130.37527000"
   },
   {
      "name": "Ōkawa-shi",
      "countryCode": "JP",
      "stateCode": "40",
      "latitude": "33.20736000",
      "longitude": "130.38253000"
   },
   {
      "name": "Ōmuta",
      "countryCode": "JP",
      "stateCode": "40",
      "latitude": "33.03333000",
      "longitude": "130.45000000"
   },
   {
      "name": "Ōmuta Shi",
      "countryCode": "JP",
      "stateCode": "40",
      "latitude": "33.04616000",
      "longitude": "130.46912000"
   },
   {
      "name": "Ōnojō",
      "countryCode": "JP",
      "stateCode": "40",
      "latitude": "33.53567000",
      "longitude": "130.47861000"
   },
   {
      "name": "Ōnojō Shi",
      "countryCode": "JP",
      "stateCode": "40",
      "latitude": "33.51302000",
      "longitude": "130.47925000"
   }
]