[
   {
      "name": "Banana Village",
      "countryCode": "KI",
      "stateCode": "L",
      "latitude": "1.98329000",
      "longitude": "-157.36526000"
   },
   {
      "name": "Kiritimati",
      "countryCode": "KI",
      "stateCode": "L",
      "latitude": "1.94000000",
      "longitude": "-157.47500000"
   },
   {
      "name": "London Village",
      "countryCode": "KI",
      "stateCode": "L",
      "latitude": "1.98487000",
      "longitude": "-157.47502000"
   },
   {
      "name": "Napari Village",
      "countryCode": "KI",
      "stateCode": "L",
      "latitude": "3.90806000",
      "longitude": "-159.38832000"
   },
   {
      "name": "Tabuaeran",
      "countryCode": "KI",
      "stateCode": "L",
      "latitude": "3.86667000",
      "longitude": "-159.33333000"
   },
   {
      "name": "Tabwakea Village",
      "countryCode": "KI",
      "stateCode": "L",
      "latitude": "2.01643000",
      "longitude": "-157.48773000"
   },
   {
      "name": "Teraina",
      "countryCode": "KI",
      "stateCode": "L",
      "latitude": "4.68764000",
      "longitude": "-160.38803000"
   }
]