[
   {
      "name": "Dailekh",
      "countryCode": "NP",
      "stateCode": "6",
      "latitude": "28.88420390",
      "longitude": "81.33873880"
   },
   {
      "name": "Dolpa",
      "countryCode": "NP",
      "stateCode": "6",
      "latitude": "29.21252500",
      "longitude": "82.37675390"
   },
   {
      "name": "Humla",
      "countryCode": "NP",
      "stateCode": "6",
      "latitude": "30.02438100",
      "longitude": "81.21739640"
   },
   {
      "name": "Jajarkot",
      "countryCode": "NP",
      "stateCode": "6",
      "latitude": "28.86895120",
      "longitude": "81.87035610"
   },
   {
      "name": "Jumla",
      "countryCode": "NP",
      "stateCode": "6",
      "latitude": "29.23826580",
      "longitude": "81.88901640"
   },
   {
      "name": "Kalikot",
      "countryCode": "NP",
      "stateCode": "6",
      "latitude": "29.21585580",
      "longitude": "81.41398050"
   },
   {
      "name": "Mugu",
      "countryCode": "NP",
      "stateCode": "6",
      "latitude": "29.67786000",
      "longitude": "81.96597840"
   },
   {
      "name": "Rukum Paschim",
      "countryCode": "NP",
      "stateCode": "6",
      "latitude": "28.75605000",
      "longitude": "82.11275010"
   },
   {
      "name": "Salyan",
      "countryCode": "NP",
      "stateCode": "6",
      "latitude": "28.40633080",
      "longitude": "81.76060860"
   },
   {
      "name": "Surkhet",
      "countryCode": "NP",
      "stateCode": "6",
      "latitude": "28.65735130",
      "longitude": "81.18101960"
   }
]
