[
   {
      "name": "Aleksandrov Gay",
      "countryCode": "RU",
      "stateCode": "SAR",
      "latitude": "50.14704000",
      "longitude": "48.57037000"
   },
   {
      "name": "Alekseyevka",
      "countryCode": "RU",
      "stateCode": "SAR",
      "latitude": "52.30583000",
      "longitude": "48.02611000"
   },
   {
      "name": "Arkadak",
      "countryCode": "RU",
      "stateCode": "SAR",
      "latitude": "51.93261000",
      "longitude": "43.49779000"
   },
   {
      "name": "Atkarsk",
      "countryCode": "RU",
      "stateCode": "SAR",
      "latitude": "51.87185000",
      "longitude": "45.00775000"
   },
   {
      "name": "Atkarskiy Rayon",
      "countryCode": "RU",
      "stateCode": "SAR",
      "latitude": "51.91667000",
      "longitude": "45.00000000"
   },
   {
      "name": "Balakovo",
      "countryCode": "RU",
      "stateCode": "SAR",
      "latitude": "52.02782000",
      "longitude": "47.80070000"
   },
   {
      "name": "Balashov",
      "countryCode": "RU",
      "stateCode": "SAR",
      "latitude": "51.55020000",
      "longitude": "43.16670000"
   },
   {
      "name": "Baltay",
      "countryCode": "RU",
      "stateCode": "SAR",
      "latitude": "52.46525000",
      "longitude": "46.63081000"
   },
   {
      "name": "Baltayskiy Rayon",
      "countryCode": "RU",
      "stateCode": "SAR",
      "latitude": "52.50000000",
      "longitude": "46.66667000"
   },
   {
      "name": "Bazarno-Karabulakskiy Rayon",
      "countryCode": "RU",
      "stateCode": "SAR",
      "latitude": "52.33333000",
      "longitude": "46.33333000"
   },
   {
      "name": "Bazarnyy Karabulak",
      "countryCode": "RU",
      "stateCode": "SAR",
      "latitude": "52.26833000",
      "longitude": "46.41444000"
   },
   {
      "name": "Bol’shoy Karay",
      "countryCode": "RU",
      "stateCode": "SAR",
      "latitude": "51.60542000",
      "longitude": "42.69006000"
   },
   {
      "name": "Cherkasskoye",
      "countryCode": "RU",
      "stateCode": "SAR",
      "latitude": "52.42895000",
      "longitude": "47.21048000"
   },
   {
      "name": "Dergachi",
      "countryCode": "RU",
      "stateCode": "SAR",
      "latitude": "51.23280000",
      "longitude": "48.76590000"
   },
   {
      "name": "Dukhovnitskoye",
      "countryCode": "RU",
      "stateCode": "SAR",
      "latitude": "52.48280000",
      "longitude": "48.21370000"
   },
   {
      "name": "Engel’s",
      "countryCode": "RU",
      "stateCode": "SAR",
      "latitude": "51.48389000",
      "longitude": "46.10528000"
   },
   {
      "name": "Engel’sskiy Rayon",
      "countryCode": "RU",
      "stateCode": "SAR",
      "latitude": "51.50000000",
      "longitude": "46.16667000"
   },
   {
      "name": "Gornyy",
      "countryCode": "RU",
      "stateCode": "SAR",
      "latitude": "51.75780000",
      "longitude": "48.54130000"
   },
   {
      "name": "Ivanteyevka",
      "countryCode": "RU",
      "stateCode": "SAR",
      "latitude": "52.26670000",
      "longitude": "49.10550000"
   },
   {
      "name": "Kalininsk",
      "countryCode": "RU",
      "stateCode": "SAR",
      "latitude": "51.50000000",
      "longitude": "44.47580000"
   },
   {
      "name": "Kamenskiy",
      "countryCode": "RU",
      "stateCode": "SAR",
      "latitude": "50.88547000",
      "longitude": "45.48801000"
   },
   {
      "name": "Khvalynsk",
      "countryCode": "RU",
      "stateCode": "SAR",
      "latitude": "52.49060000",
      "longitude": "48.10580000"
   },
   {
      "name": "Khvalynskiy Rayon",
      "countryCode": "RU",
      "stateCode": "SAR",
      "latitude": "52.50000000",
      "longitude": "47.91667000"
   },
   {
      "name": "Khvatovka",
      "countryCode": "RU",
      "stateCode": "SAR",
      "latitude": "52.35236000",
      "longitude": "46.56282000"
   },
   {
      "name": "Kormëzhka",
      "countryCode": "RU",
      "stateCode": "SAR",
      "latitude": "51.90050000",
      "longitude": "48.01630000"
   },
   {
      "name": "Krasnoarmeysk",
      "countryCode": "RU",
      "stateCode": "SAR",
      "latitude": "51.02389000",
      "longitude": "45.69694000"
   },
   {
      "name": "Krasnyy Kut",
      "countryCode": "RU",
      "stateCode": "SAR",
      "latitude": "50.95000000",
      "longitude": "46.96667000"
   },
   {
      "name": "Krasnyy Oktyabr’",
      "countryCode": "RU",
      "stateCode": "SAR",
      "latitude": "51.54018000",
      "longitude": "45.70382000"
   },
   {
      "name": "Krasnyy Yar",
      "countryCode": "RU",
      "stateCode": "SAR",
      "latitude": "51.62917000",
      "longitude": "46.42167000"
   },
   {
      "name": "Lysyye Gory",
      "countryCode": "RU",
      "stateCode": "SAR",
      "latitude": "51.55063000",
      "longitude": "44.84144000"
   },
   {
      "name": "Marks",
      "countryCode": "RU",
      "stateCode": "SAR",
      "latitude": "51.71111000",
      "longitude": "46.74861000"
   },
   {
      "name": "Marksovskiy Rayon",
      "countryCode": "RU",
      "stateCode": "SAR",
      "latitude": "51.66667000",
      "longitude": "46.83333000"
   },
   {
      "name": "Mokrous",
      "countryCode": "RU",
      "stateCode": "SAR",
      "latitude": "51.23730000",
      "longitude": "47.51370000"
   },
   {
      "name": "Novouzensk",
      "countryCode": "RU",
      "stateCode": "SAR",
      "latitude": "50.45917000",
      "longitude": "48.14306000"
   },
   {
      "name": "Novyye Burasy",
      "countryCode": "RU",
      "stateCode": "SAR",
      "latitude": "52.13236000",
      "longitude": "46.07144000"
   },
   {
      "name": "Perelyub",
      "countryCode": "RU",
      "stateCode": "SAR",
      "latitude": "51.86292000",
      "longitude": "50.35412000"
   },
   {
      "name": "Petrovsk",
      "countryCode": "RU",
      "stateCode": "SAR",
      "latitude": "52.30639000",
      "longitude": "45.39167000"
   },
   {
      "name": "Pinerovka",
      "countryCode": "RU",
      "stateCode": "SAR",
      "latitude": "51.56200000",
      "longitude": "43.06890000"
   },
   {
      "name": "Piterka",
      "countryCode": "RU",
      "stateCode": "SAR",
      "latitude": "50.68030000",
      "longitude": "47.44539000"
   },
   {
      "name": "Podlesnoye",
      "countryCode": "RU",
      "stateCode": "SAR",
      "latitude": "51.81610000",
      "longitude": "47.00900000"
   },
   {
      "name": "Privolzhskiy",
      "countryCode": "RU",
      "stateCode": "SAR",
      "latitude": "51.40944000",
      "longitude": "46.04833000"
   },
   {
      "name": "Privolzhskoye",
      "countryCode": "RU",
      "stateCode": "SAR",
      "latitude": "51.69194000",
      "longitude": "46.72361000"
   },
   {
      "name": "Pugachev",
      "countryCode": "RU",
      "stateCode": "SAR",
      "latitude": "52.01333000",
      "longitude": "48.80250000"
   },
   {
      "name": "Pushkino",
      "countryCode": "RU",
      "stateCode": "SAR",
      "latitude": "51.23500000",
      "longitude": "46.97417000"
   },
   {
      "name": "Repnoye",
      "countryCode": "RU",
      "stateCode": "SAR",
      "latitude": "51.59210000",
      "longitude": "43.18610000"
   },
   {
      "name": "Romanovka",
      "countryCode": "RU",
      "stateCode": "SAR",
      "latitude": "51.74427000",
      "longitude": "42.75270000"
   },
   {
      "name": "Rovnoye",
      "countryCode": "RU",
      "stateCode": "SAR",
      "latitude": "50.77650000",
      "longitude": "46.05085000"
   },
   {
      "name": "Rtishchevo",
      "countryCode": "RU",
      "stateCode": "SAR",
      "latitude": "52.26041000",
      "longitude": "43.78745000"
   },
   {
      "name": "Samoylovka",
      "countryCode": "RU",
      "stateCode": "SAR",
      "latitude": "51.18400000",
      "longitude": "43.70810000"
   },
   {
      "name": "Saratov",
      "countryCode": "RU",
      "stateCode": "SAR",
      "latitude": "51.54056000",
      "longitude": "46.00861000"
   },
   {
      "name": "Saratovskiy Rayon",
      "countryCode": "RU",
      "stateCode": "SAR",
      "latitude": "51.75000000",
      "longitude": "46.16667000"
   },
   {
      "name": "Sennoy",
      "countryCode": "RU",
      "stateCode": "SAR",
      "latitude": "52.15090000",
      "longitude": "46.96309000"
   },
   {
      "name": "Shikhany",
      "countryCode": "RU",
      "stateCode": "SAR",
      "latitude": "52.11776000",
      "longitude": "47.19860000"
   },
   {
      "name": "Shumeyka",
      "countryCode": "RU",
      "stateCode": "SAR",
      "latitude": "51.56361000",
      "longitude": "46.24833000"
   },
   {
      "name": "Sinodskoye",
      "countryCode": "RU",
      "stateCode": "SAR",
      "latitude": "51.99180000",
      "longitude": "46.67009000"
   },
   {
      "name": "Sokolovyy",
      "countryCode": "RU",
      "stateCode": "SAR",
      "latitude": "51.56857000",
      "longitude": "45.83312000"
   },
   {
      "name": "Sovetskoye",
      "countryCode": "RU",
      "stateCode": "SAR",
      "latitude": "51.44255000",
      "longitude": "46.74240000"
   },
   {
      "name": "Staryye Ozinki",
      "countryCode": "RU",
      "stateCode": "SAR",
      "latitude": "51.17860000",
      "longitude": "49.67690000"
   },
   {
      "name": "Stepnoye",
      "countryCode": "RU",
      "stateCode": "SAR",
      "latitude": "51.37972000",
      "longitude": "46.84917000"
   },
   {
      "name": "Svetlyy",
      "countryCode": "RU",
      "stateCode": "SAR",
      "latitude": "51.67370000",
      "longitude": "45.63054000"
   },
   {
      "name": "Svobodnyy",
      "countryCode": "RU",
      "stateCode": "SAR",
      "latitude": "52.33039000",
      "longitude": "46.37122000"
   },
   {
      "name": "Tatishchevo",
      "countryCode": "RU",
      "stateCode": "SAR",
      "latitude": "51.67028000",
      "longitude": "45.59528000"
   },
   {
      "name": "Tersa",
      "countryCode": "RU",
      "stateCode": "SAR",
      "latitude": "52.08671000",
      "longitude": "47.53936000"
   },
   {
      "name": "Turki",
      "countryCode": "RU",
      "stateCode": "SAR",
      "latitude": "51.98703000",
      "longitude": "43.27310000"
   },
   {
      "name": "Vol’sk",
      "countryCode": "RU",
      "stateCode": "SAR",
      "latitude": "52.04541000",
      "longitude": "47.37993000"
   },
   {
      "name": "Vol’skiy Rayon",
      "countryCode": "RU",
      "stateCode": "SAR",
      "latitude": "52.08333000",
      "longitude": "47.25000000"
   },
   {
      "name": "Voskresenskiy Rayon",
      "countryCode": "RU",
      "stateCode": "SAR",
      "latitude": "51.84139000",
      "longitude": "46.90250000"
   },
   {
      "name": "Voskresenskoye",
      "countryCode": "RU",
      "stateCode": "SAR",
      "latitude": "51.82478000",
      "longitude": "46.93508000"
   },
   {
      "name": "Yekaterinovka",
      "countryCode": "RU",
      "stateCode": "SAR",
      "latitude": "52.05083000",
      "longitude": "44.34515000"
   },
   {
      "name": "Yelshanka",
      "countryCode": "RU",
      "stateCode": "SAR",
      "latitude": "51.81389000",
      "longitude": "46.39972000"
   },
   {
      "name": "Yershov",
      "countryCode": "RU",
      "stateCode": "SAR",
      "latitude": "51.35130000",
      "longitude": "48.27660000"
   }
]