[
   {
      "name": "Braník",
      "countryCode": "CZ",
      "stateCode": "10",
      "latitude": "50.03498000",
      "longitude": "14.41518000"
   },
   {
      "name": "Dolní Počernice",
      "countryCode": "CZ",
      "stateCode": "10",
      "latitude": "50.08760000",
      "longitude": "14.57199000"
   },
   {
      "name": "Hodkovičky",
      "countryCode": "CZ",
      "stateCode": "10",
      "latitude": "50.02346000",
      "longitude": "14.41415000"
   },
   {
      "name": "Horní Počernice",
      "countryCode": "CZ",
      "stateCode": "10",
      "latitude": "50.11210000",
      "longitude": "14.61036000"
   },
   {
      "name": "Hostavice",
      "countryCode": "CZ",
      "stateCode": "10",
      "latitude": "50.09283000",
      "longitude": "14.55822000"
   },
   {
      "name": "Karlín",
      "countryCode": "CZ",
      "stateCode": "10",
      "latitude": "50.09272000",
      "longitude": "14.44711000"
   },
   {
      "name": "Kbely",
      "countryCode": "CZ",
      "stateCode": "10",
      "latitude": "50.13333000",
      "longitude": "14.55000000"
   },
   {
      "name": "Letňany",
      "countryCode": "CZ",
      "stateCode": "10",
      "latitude": "50.13333000",
      "longitude": "14.51667000"
   },
   {
      "name": "Libeň",
      "countryCode": "CZ",
      "stateCode": "10",
      "latitude": "50.10819000",
      "longitude": "14.47457000"
   },
   {
      "name": "Malá Strana",
      "countryCode": "CZ",
      "stateCode": "10",
      "latitude": "50.08774000",
      "longitude": "14.40449000"
   },
   {
      "name": "Modřany",
      "countryCode": "CZ",
      "stateCode": "10",
      "latitude": "50.01116000",
      "longitude": "14.40960000"
   },
   {
      "name": "Prague",
      "countryCode": "CZ",
      "stateCode": "10",
      "latitude": "50.08804000",
      "longitude": "14.42076000"
   },
   {
      "name": "Praha 1",
      "countryCode": "CZ",
      "stateCode": "10",
      "latitude": "50.08802000",
      "longitude": "14.42166000"
   },
   {
      "name": "Praha 16",
      "countryCode": "CZ",
      "stateCode": "10",
      "latitude": "49.98357000",
      "longitude": "14.36110000"
   },
   {
      "name": "Praha 20",
      "countryCode": "CZ",
      "stateCode": "10",
      "latitude": "50.11568000",
      "longitude": "14.61122000"
   },
   {
      "name": "Praha 21",
      "countryCode": "CZ",
      "stateCode": "10",
      "latitude": "50.07521000",
      "longitude": "14.66898000"
   },
   {
      "name": "Prosek",
      "countryCode": "CZ",
      "stateCode": "10",
      "latitude": "50.11525000",
      "longitude": "14.50685000"
   },
   {
      "name": "Satalice",
      "countryCode": "CZ",
      "stateCode": "10",
      "latitude": "50.12484000",
      "longitude": "14.57191000"
   },
   {
      "name": "Staré Město",
      "countryCode": "CZ",
      "stateCode": "10",
      "latitude": "50.08700000",
      "longitude": "14.42024000"
   },
   {
      "name": "Střížkov",
      "countryCode": "CZ",
      "stateCode": "10",
      "latitude": "50.12674000",
      "longitude": "14.49363000"
   },
   {
      "name": "Vysehrad",
      "countryCode": "CZ",
      "stateCode": "10",
      "latitude": "50.06509000",
      "longitude": "14.41711000"
   },
   {
      "name": "Vysočany",
      "countryCode": "CZ",
      "stateCode": "10",
      "latitude": "50.10938000",
      "longitude": "14.51667000"
   },
   {
      "name": "Černý Most",
      "countryCode": "CZ",
      "stateCode": "10",
      "latitude": "50.10475000",
      "longitude": "14.57974000"
   }
]