[
   {
      "name": "Aomori",
      "countryCode": "JP",
      "stateCode": "02",
      "latitude": "40.81667000",
      "longitude": "140.73333000"
   },
   {
      "name": "Aomori Shi",
      "countryCode": "JP",
      "stateCode": "02",
      "latitude": "40.77001000",
      "longitude": "140.75423000"
   },
   {
      "name": "Goshogawara",
      "countryCode": "JP",
      "stateCode": "02",
      "latitude": "40.80444000",
      "longitude": "140.44139000"
   },
   {
      "name": "Goshogawara Shi",
      "countryCode": "JP",
      "stateCode": "02",
      "latitude": "40.91657000",
      "longitude": "140.46998000"
   },
   {
      "name": "Hachinohe",
      "countryCode": "JP",
      "stateCode": "02",
      "latitude": "40.50000000",
      "longitude": "141.50000000"
   },
   {
      "name": "Hachinohe Shi",
      "countryCode": "JP",
      "stateCode": "02",
      "latitude": "40.47389000",
      "longitude": "141.48125000"
   },
   {
      "name": "Hirakawa",
      "countryCode": "JP",
      "stateCode": "02",
      "latitude": "40.58728000",
      "longitude": "140.57107000"
   },
   {
      "name": "Hirakawa Shi",
      "countryCode": "JP",
      "stateCode": "02",
      "latitude": "40.51832000",
      "longitude": "140.70048000"
   },
   {
      "name": "Hirosaki",
      "countryCode": "JP",
      "stateCode": "02",
      "latitude": "40.59306000",
      "longitude": "140.47250000"
   },
   {
      "name": "Hirosaki Shi",
      "countryCode": "JP",
      "stateCode": "02",
      "latitude": "40.60512000",
      "longitude": "140.38460000"
   },
   {
      "name": "Kuroishi",
      "countryCode": "JP",
      "stateCode": "02",
      "latitude": "40.64581000",
      "longitude": "140.58354000"
   },
   {
      "name": "Kuroishi Shi",
      "countryCode": "JP",
      "stateCode": "02",
      "latitude": "40.61709000",
      "longitude": "140.70467000"
   },
   {
      "name": "Misawa",
      "countryCode": "JP",
      "stateCode": "02",
      "latitude": "40.68682000",
      "longitude": "141.38969000"
   },
   {
      "name": "Misawa Shi",
      "countryCode": "JP",
      "stateCode": "02",
      "latitude": "40.74647000",
      "longitude": "141.38124000"
   },
   {
      "name": "Mutsu",
      "countryCode": "JP",
      "stateCode": "02",
      "latitude": "41.28944000",
      "longitude": "141.21694000"
   },
   {
      "name": "Mutsu-shi",
      "countryCode": "JP",
      "stateCode": "02",
      "latitude": "41.29090000",
      "longitude": "141.03327000"
   },
   {
      "name": "Namioka",
      "countryCode": "JP",
      "stateCode": "02",
      "latitude": "40.71069000",
      "longitude": "140.59048000"
   },
   {
      "name": "Shimokizukuri",
      "countryCode": "JP",
      "stateCode": "02",
      "latitude": "40.81609000",
      "longitude": "140.37539000"
   },
   {
      "name": "Towada Shi",
      "countryCode": "JP",
      "stateCode": "02",
      "latitude": "40.56736000",
      "longitude": "141.05794000"
   },
   {
      "name": "Tsugaru",
      "countryCode": "JP",
      "stateCode": "02",
      "latitude": "40.80357000",
      "longitude": "140.40299000"
   },
   {
      "name": "Tsugaru Shi",
      "countryCode": "JP",
      "stateCode": "02",
      "latitude": "40.86988000",
      "longitude": "140.34963000"
   }
]