[
   {
      "name": "Adams Morgan",
      "countryCode": "US",
      "stateCode": "DC",
      "latitude": "38.92150000",
      "longitude": "-77.04220000"
   },
   {
      "name": "Bloomingdale",
      "countryCode": "US",
      "stateCode": "DC",
      "latitude": "38.91678000",
      "longitude": "-77.01137000"
   },
   {
      "name": "Chevy Chase",
      "countryCode": "US",
      "stateCode": "DC",
      "latitude": "38.96400000",
      "longitude": "-77.06776000"
   },
   {
      "name": "Shaw",
      "countryCode": "US",
      "stateCode": "DC",
      "latitude": "38.91206000",
      "longitude": "-77.02137000"
   },
   {
      "name": "Washington, D.C.",
      "countryCode": "US",
      "stateCode": "DC",
      "latitude": "38.89511000",
      "longitude": "-77.03637000"
   }
]