[
   {
      "name": "Bashkia Devoll",
      "countryCode": "AL",
      "stateCode": "06",
      "latitude": "40.60078000",
      "longitude": "20.93814000"
   },
   {
      "name": "Bashkia Kolonjë",
      "countryCode": "AL",
      "stateCode": "06",
      "latitude": "40.31420000",
      "longitude": "20.61482000"
   },
   {
      "name": "Bashkia Maliq",
      "countryCode": "AL",
      "stateCode": "06",
      "latitude": "40.75508000",
      "longitude": "20.60748000"
   },
   {
      "name": "Bashkia Pustec",
      "countryCode": "AL",
      "stateCode": "06",
      "latitude": "40.83591000",
      "longitude": "20.89405000"
   },
   {
      "name": "Bilisht",
      "countryCode": "AL",
      "stateCode": "06",
      "latitude": "40.62750000",
      "longitude": "20.99000000"
   },
   {
      "name": "Ersekë",
      "countryCode": "AL",
      "stateCode": "06",
      "latitude": "40.33778000",
      "longitude": "20.67889000"
   },
   {
      "name": "Korçë",
      "countryCode": "AL",
      "stateCode": "06",
      "latitude": "40.61861000",
      "longitude": "20.78083000"
   },
   {
      "name": "Leskovik",
      "countryCode": "AL",
      "stateCode": "06",
      "latitude": "40.15139000",
      "longitude": "20.59722000"
   },
   {
      "name": "Libonik",
      "countryCode": "AL",
      "stateCode": "06",
      "latitude": "40.70444000",
      "longitude": "20.70861000"
   },
   {
      "name": "Maliq",
      "countryCode": "AL",
      "stateCode": "06",
      "latitude": "40.70583000",
      "longitude": "20.69972000"
   },
   {
      "name": "Mborje",
      "countryCode": "AL",
      "stateCode": "06",
      "latitude": "40.60333000",
      "longitude": "20.80306000"
   },
   {
      "name": "Pogradec",
      "countryCode": "AL",
      "stateCode": "06",
      "latitude": "40.90250000",
      "longitude": "20.65250000"
   },
   {
      "name": "Rrethi i Devollit",
      "countryCode": "AL",
      "stateCode": "06",
      "latitude": "40.58333000",
      "longitude": "20.91667000"
   },
   {
      "name": "Rrethi i Kolonjës",
      "countryCode": "AL",
      "stateCode": "06",
      "latitude": "40.25000000",
      "longitude": "20.66667000"
   },
   {
      "name": "Velçan",
      "countryCode": "AL",
      "stateCode": "06",
      "latitude": "40.95472000",
      "longitude": "20.46222000"
   },
   {
      "name": "Voskopojë",
      "countryCode": "AL",
      "stateCode": "06",
      "latitude": "40.63306000",
      "longitude": "20.58889000"
   }
]