[
   {
      "name": "Amphoe Ban Chang",
      "countryCode": "TH",
      "stateCode": "21",
      "latitude": "12.73230000",
      "longitude": "101.04878000"
   },
   {
      "name": "Amphoe Ban Khai",
      "countryCode": "TH",
      "stateCode": "21",
      "latitude": "12.83827000",
      "longitude": "101.34210000"
   },
   {
      "name": "Amphoe Khao Chamao",
      "countryCode": "TH",
      "stateCode": "21",
      "latitude": "12.99042000",
      "longitude": "101.67847000"
   },
   {
      "name": "Amphoe Klaeng",
      "countryCode": "TH",
      "stateCode": "21",
      "latitude": "12.77179000",
      "longitude": "101.65666000"
   },
   {
      "name": "Amphoe Mueang Rayong",
      "countryCode": "TH",
      "stateCode": "21",
      "latitude": "12.71864000",
      "longitude": "101.34491000"
   },
   {
      "name": "Amphoe Nikhom Phattana",
      "countryCode": "TH",
      "stateCode": "21",
      "latitude": "12.84489000",
      "longitude": "101.15341000"
   },
   {
      "name": "Amphoe Pluak Daeng",
      "countryCode": "TH",
      "stateCode": "21",
      "latitude": "12.98333000",
      "longitude": "101.25000000"
   },
   {
      "name": "Amphoe Wang Chan",
      "countryCode": "TH",
      "stateCode": "21",
      "latitude": "12.96245000",
      "longitude": "101.51533000"
   },
   {
      "name": "Ban Chang",
      "countryCode": "TH",
      "stateCode": "21",
      "latitude": "12.72543000",
      "longitude": "101.05531000"
   },
   {
      "name": "Ban Phe",
      "countryCode": "TH",
      "stateCode": "21",
      "latitude": "12.62824000",
      "longitude": "101.43757000"
   },
   {
      "name": "Klaeng",
      "countryCode": "TH",
      "stateCode": "21",
      "latitude": "12.77972000",
      "longitude": "101.64831000"
   },
   {
      "name": "Rayong",
      "countryCode": "TH",
      "stateCode": "21",
      "latitude": "12.68095000",
      "longitude": "101.25798000"
   }
]