[
   {
      "name": "Baracoa",
      "countryCode": "CU",
      "stateCode": "14",
      "latitude": "20.34711000",
      "longitude": "-74.49624000"
   },
   {
      "name": "Guantánamo",
      "countryCode": "CU",
      "stateCode": "14",
      "latitude": "20.14444000",
      "longitude": "-75.20917000"
   },
   {
      "name": "Maisí",
      "countryCode": "CU",
      "stateCode": "14",
      "latitude": "20.24673000",
      "longitude": "-74.15181000"
   },
   {
      "name": "Municipio de Guantánamo",
      "countryCode": "CU",
      "stateCode": "14",
      "latitude": "20.26723000",
      "longitude": "-75.15546000"
   },
   {
      "name": "Río Guayabal de Yateras",
      "countryCode": "CU",
      "stateCode": "14",
      "latitude": "20.36667000",
      "longitude": "-75.01667000"
   },
   {
      "name": "San Antonio del Sur",
      "countryCode": "CU",
      "stateCode": "14",
      "latitude": "20.05564000",
      "longitude": "-74.80750000"
   }
]