[
   {
      "name": "Bukhara",
      "countryCode": "UZ",
      "stateCode": "BU",
      "latitude": "39.77472000",
      "longitude": "64.42861000"
   },
   {
      "name": "Galaosiyo",
      "countryCode": "UZ",
      "stateCode": "BU",
      "latitude": "39.85778000",
      "longitude": "64.44833000"
   },
   {
      "name": "Gazli",
      "countryCode": "UZ",
      "stateCode": "BU",
      "latitude": "40.13333000",
      "longitude": "63.45000000"
   },
   {
      "name": "Ghijduwon",
      "countryCode": "UZ",
      "stateCode": "BU",
      "latitude": "40.10000000",
      "longitude": "64.68333000"
   },
   {
      "name": "Karakul’",
      "countryCode": "UZ",
      "stateCode": "BU",
      "latitude": "39.53333000",
      "longitude": "63.83333000"
   },
   {
      "name": "Kogon",
      "countryCode": "UZ",
      "stateCode": "BU",
      "latitude": "39.72278000",
      "longitude": "64.55167000"
   },
   {
      "name": "Olot",
      "countryCode": "UZ",
      "stateCode": "BU",
      "latitude": "39.41500000",
      "longitude": "63.80333000"
   },
   {
      "name": "Peshku Tumani",
      "countryCode": "UZ",
      "stateCode": "BU",
      "latitude": "40.41667000",
      "longitude": "63.83333000"
   },
   {
      "name": "Qorako’l",
      "countryCode": "UZ",
      "stateCode": "BU",
      "latitude": "39.49944000",
      "longitude": "63.85389000"
   },
   {
      "name": "Qorovulbozor",
      "countryCode": "UZ",
      "stateCode": "BU",
      "latitude": "39.50056000",
      "longitude": "64.79361000"
   },
   {
      "name": "Romiton",
      "countryCode": "UZ",
      "stateCode": "BU",
      "latitude": "39.92944000",
      "longitude": "64.37944000"
   },
   {
      "name": "Shofirkon",
      "countryCode": "UZ",
      "stateCode": "BU",
      "latitude": "40.12000000",
      "longitude": "64.50139000"
   },
   {
      "name": "Wobkent",
      "countryCode": "UZ",
      "stateCode": "BU",
      "latitude": "40.03028000",
      "longitude": "64.51500000"
   },
   {
      "name": "Wobkent Tumani",
      "countryCode": "UZ",
      "stateCode": "BU",
      "latitude": "40.00000000",
      "longitude": "64.50000000"
   }
]