[
   {
      "name": "Azemmour",
      "countryCode": "MA",
      "stateCode": "06",
      "latitude": "33.28952000",
      "longitude": "-8.34250000"
   },
   {
      "name": "Benslimane",
      "countryCode": "MA",
      "stateCode": "06",
      "latitude": "33.50000000",
      "longitude": "-7.16667000"
   },
   {
      "name": "Berrechid",
      "countryCode": "MA",
      "stateCode": "06",
      "latitude": "33.26553000",
      "longitude": "-7.58754000"
   },
   {
      "name": "Berrechid Province",
      "countryCode": "MA",
      "stateCode": "06",
      "latitude": "33.26582000",
      "longitude": "-7.58142000"
   },
   {
      "name": "Boulaouane",
      "countryCode": "MA",
      "stateCode": "06",
      "latitude": "32.85995000",
      "longitude": "-8.05555000"
   },
   {
      "name": "Bouskoura",
      "countryCode": "MA",
      "stateCode": "06",
      "latitude": "33.44976000",
      "longitude": "-7.65239000"
   },
   {
      "name": "Bouznika",
      "countryCode": "MA",
      "stateCode": "06",
      "latitude": "33.78942000",
      "longitude": "-7.15968000"
   },
   {
      "name": "Casablanca",
      "countryCode": "MA",
      "stateCode": "06",
      "latitude": "33.58840000",
      "longitude": "-7.55785000"
   },
   {
      "name": "El Jadid",
      "countryCode": "MA",
      "stateCode": "06",
      "latitude": "33.25682000",
      "longitude": "-8.50882000"
   },
   {
      "name": "El-Jadida",
      "countryCode": "MA",
      "stateCode": "06",
      "latitude": "32.90000000",
      "longitude": "-8.50000000"
   },
   {
      "name": "Mediouna",
      "countryCode": "MA",
      "stateCode": "06",
      "latitude": "33.52012000",
      "longitude": "-7.50350000"
   },
   {
      "name": "Mohammedia",
      "countryCode": "MA",
      "stateCode": "06",
      "latitude": "33.68607000",
      "longitude": "-7.38298000"
   },
   {
      "name": "Nouaceur",
      "countryCode": "MA",
      "stateCode": "06",
      "latitude": "33.45839000",
      "longitude": "-7.64726000"
   },
   {
      "name": "Oualidia",
      "countryCode": "MA",
      "stateCode": "06",
      "latitude": "32.73372000",
      "longitude": "-9.03059000"
   },
   {
      "name": "Oulad Frej",
      "countryCode": "MA",
      "stateCode": "06",
      "latitude": "32.95956000",
      "longitude": "-8.22740000"
   },
   {
      "name": "Settat",
      "countryCode": "MA",
      "stateCode": "06",
      "latitude": "33.00103000",
      "longitude": "-7.61662000"
   },
   {
      "name": "Settat Province",
      "countryCode": "MA",
      "stateCode": "06",
      "latitude": "33.08333000",
      "longitude": "-7.41667000"
   },
   {
      "name": "Sidi Bennour",
      "countryCode": "MA",
      "stateCode": "06",
      "latitude": "32.64896000",
      "longitude": "-8.42686000"
   },
   {
      "name": "Sidi Smai’il",
      "countryCode": "MA",
      "stateCode": "06",
      "latitude": "32.82461000",
      "longitude": "-8.51122000"
   },
   {
      "name": "Tit Mellil",
      "countryCode": "MA",
      "stateCode": "06",
      "latitude": "33.55808000",
      "longitude": "-7.48647000"
   },
   {
      "name": "Zawyat an Nwaçer",
      "countryCode": "MA",
      "stateCode": "06",
      "latitude": "33.37981000",
      "longitude": "-7.61932000"
   }
]