[
   {
      "name": "Changhua",
      "isoCode": "CHA",
      "countryCode": "TW",
      "latitude": "24.05179630",
      "longitude": "120.51613520"
   },
   {
      "name": "Chiayi",
      "isoCode": "CYI",
      "countryCode": "TW",
      "latitude": "23.45184280",
      "longitude": "120.25546150"
   },
   {
      "name": "Chiayi",
      "isoCode": "CYQ",
      "countryCode": "TW",
      "latitude": "23.48007510",
      "longitude": "120.44911130"
   },
   {
      "name": "Hsinchu",
      "isoCode": "HSQ",
      "countryCode": "TW",
      "latitude": "24.83872260",
      "longitude": "121.01772460"
   },
   {
      "name": "Hsinchu",
      "isoCode": "HSZ",
      "countryCode": "TW",
      "latitude": "24.81382870",
      "longitude": "120.96747980"
   },
   {
      "name": "Hualien",
      "isoCode": "HUA",
      "countryCode": "TW",
      "latitude": "23.98715890",
      "longitude": "121.60157140"
   },
   {
      "name": "Yilan",
      "isoCode": "ILA",
      "countryCode": "TW",
      "latitude": "24.70210730",
      "longitude": "121.73775020"
   },
   {
      "name": "Keelung",
      "isoCode": "KEE",
      "countryCode": "TW",
      "latitude": "25.12418620",
      "longitude": "121.64758340"
   },
   {
      "name": "Kaohsiung",
      "isoCode": "KHH",
      "countryCode": "TW",
      "latitude": "22.62727840",
      "longitude": "120.30143530"
   },
   {
      "name": "Kinmen",
      "isoCode": "KIN",
      "countryCode": "TW",
      "latitude": "24.34877920",
      "longitude": "118.32856440"
   },
   {
      "name": "Lienchiang",
      "isoCode": "LIE",
      "countryCode": "TW",
      "latitude": "26.15055560",
      "longitude": "119.92888890"
   },
   {
      "name": "Miaoli",
      "isoCode": "MIA",
      "countryCode": "TW",
      "latitude": "24.56015900",
      "longitude": "120.82142650"
   },
   {
      "name": "Nantou",
      "isoCode": "NAN",
      "countryCode": "TW",
      "latitude": "23.96099810",
      "longitude": "120.97186380"
   },
   {
      "name": "New Taipei",
      "isoCode": "NWT",
      "countryCode": "TW",
      "latitude": "24.98752780",
      "longitude": "121.36459470"
   },
   {
      "name": "Penghu",
      "isoCode": "PEN",
      "countryCode": "TW",
      "latitude": "23.57118990",
      "longitude": "119.57931570"
   },
   {
      "name": "Pingtung",
      "isoCode": "PIF",
      "countryCode": "TW",
      "latitude": "22.55197590",
      "longitude": "120.54875970"
   },
   {
      "name": "Taoyuan",
      "isoCode": "TAO",
      "countryCode": "TW",
      "latitude": "24.99362810",
      "longitude": "121.30097980"
   },
   {
      "name": "Tainan",
      "isoCode": "TNN",
      "countryCode": "TW",
      "latitude": "22.99972810",
      "longitude": "120.22702770"
   },
   {
      "name": "Taipei",
      "isoCode": "TPE",
      "countryCode": "TW",
      "latitude": "25.03296940",
      "longitude": "121.56541770"
   },
   {
      "name": "Taitung",
      "isoCode": "TTT",
      "countryCode": "TW",
      "latitude": "22.79724470",
      "longitude": "121.07137020"
   },
   {
      "name": "Taichung",
      "isoCode": "TXG",
      "countryCode": "TW",
      "latitude": "24.14773580",
      "longitude": "120.67364820"
   },
   {
      "name": "Yunlin",
      "isoCode": "YUN",
      "countryCode": "TW",
      "latitude": "23.70920330",
      "longitude": "120.43133730"
   }
]