[
   {
      "name": "Danja",
      "countryCode": "NG",
      "stateCode": "KT",
      "latitude": "11.37710000",
      "longitude": "7.56097000"
   },
   {
      "name": "Dankama",
      "countryCode": "NG",
      "stateCode": "KT",
      "latitude": "13.29782000",
      "longitude": "7.79492000"
   },
   {
      "name": "Daura",
      "countryCode": "NG",
      "stateCode": "KT",
      "latitude": "13.03299000",
      "longitude": "8.32351000"
   },
   {
      "name": "Dutsin-Ma",
      "countryCode": "NG",
      "stateCode": "KT",
      "latitude": "12.45392000",
      "longitude": "7.49723000"
   },
   {
      "name": "Funtua",
      "countryCode": "NG",
      "stateCode": "KT",
      "latitude": "11.47196000",
      "longitude": "7.30699000"
   },
   {
      "name": "Gora",
      "countryCode": "NG",
      "stateCode": "KT",
      "latitude": "11.91294000",
      "longitude": "7.66531000"
   },
   {
      "name": "Jibia",
      "countryCode": "NG",
      "stateCode": "KT",
      "latitude": "13.09378000",
      "longitude": "7.22624000"
   },
   {
      "name": "Jikamshi",
      "countryCode": "NG",
      "stateCode": "KT",
      "latitude": "12.17328000",
      "longitude": "7.77424000"
   },
   {
      "name": "Kankara",
      "countryCode": "NG",
      "stateCode": "KT",
      "latitude": "11.93114000",
      "longitude": "7.41115000"
   },
   {
      "name": "Katsina",
      "countryCode": "NG",
      "stateCode": "KT",
      "latitude": "12.99082000",
      "longitude": "7.60177000"
   },
   {
      "name": "Mashi",
      "countryCode": "NG",
      "stateCode": "KT",
      "latitude": "12.98044000",
      "longitude": "7.94703000"
   },
   {
      "name": "Ruma",
      "countryCode": "NG",
      "stateCode": "KT",
      "latitude": "12.86260000",
      "longitude": "7.23469000"
   },
   {
      "name": "Runka",
      "countryCode": "NG",
      "stateCode": "KT",
      "latitude": "12.44788000",
      "longitude": "7.30918000"
   },
   {
      "name": "Wagini",
      "countryCode": "NG",
      "stateCode": "KT",
      "latitude": "12.68781000",
      "longitude": "7.19579000"
   }
]