[
   {
      "name": "Banepā",
      "countryCode": "NP",
      "stateCode": "1",
      "latitude": "27.63245000",
      "longitude": "85.52192000"
   },
   {
      "name": "Bharatpur",
      "countryCode": "NP",
      "stateCode": "1",
      "latitude": "27.67680000",
      "longitude": "84.43589000"
   },
   {
      "name": "Birgañj",
      "countryCode": "NP",
      "stateCode": "1",
      "latitude": "27.01709000",
      "longitude": "84.88080000"
   },
   {
      "name": "Dhulikhel",
      "countryCode": "NP",
      "stateCode": "1",
      "latitude": "27.62210000",
      "longitude": "85.54281000"
   },
   {
      "name": "Gaur",
      "countryCode": "NP",
      "stateCode": "1",
      "latitude": "26.76448000",
      "longitude": "85.27841000"
   },
   {
      "name": "Hari Bdr Tamang House",
      "countryCode": "NP",
      "stateCode": "1",
      "latitude": "27.62890000",
      "longitude": "85.45893000"
   },
   {
      "name": "Hetauda",
      "countryCode": "NP",
      "stateCode": "1",
      "latitude": "27.42839000",
      "longitude": "85.03219000"
   },
   {
      "name": "Jaleshwar",
      "countryCode": "NP",
      "stateCode": "1",
      "latitude": "26.64921000",
      "longitude": "85.80017000"
   },
   {
      "name": "Janakpur",
      "countryCode": "NP",
      "stateCode": "1",
      "latitude": "26.72882000",
      "longitude": "85.92628000"
   },
   {
      "name": "Kathmandu",
      "countryCode": "NP",
      "stateCode": "1",
      "latitude": "27.70169000",
      "longitude": "85.32060000"
   },
   {
      "name": "Kirtipur",
      "countryCode": "NP",
      "stateCode": "1",
      "latitude": "27.67872000",
      "longitude": "85.27750000"
   },
   {
      "name": "Madhyapur Thimi",
      "countryCode": "NP",
      "stateCode": "1",
      "latitude": "27.68056000",
      "longitude": "85.38750000"
   },
   {
      "name": "Malaṅgawā",
      "countryCode": "NP",
      "stateCode": "1",
      "latitude": "26.85658000",
      "longitude": "85.55940000"
   },
   {
      "name": "Nagarkot",
      "countryCode": "NP",
      "stateCode": "1",
      "latitude": "27.71522000",
      "longitude": "85.52075000"
   },
   {
      "name": "Panauti",
      "countryCode": "NP",
      "stateCode": "1",
      "latitude": "27.58466000",
      "longitude": "85.52122000"
   },
   {
      "name": "Pātan",
      "countryCode": "NP",
      "stateCode": "1",
      "latitude": "27.67658000",
      "longitude": "85.31417000"
   },
   {
      "name": "Rāmechhāp",
      "countryCode": "NP",
      "stateCode": "1",
      "latitude": "27.32560000",
      "longitude": "86.08768000"
   },
   {
      "name": "kankrabari Dovan",
      "countryCode": "NP",
      "stateCode": "1",
      "latitude": "27.62881000",
      "longitude": "85.45934000"
   }
]