[
   {
      "name": "Bandar Seri Begawan",
      "countryCode": "BN",
      "stateCode": "BM",
      "latitude": "4.89035000",
      "longitude": "114.94006000"
   },
   {
      "name": "Berakas A",
      "countryCode": "BN",
      "stateCode": "BM",
      "latitude": "4.97032000",
      "longitude": "114.92989000"
   },
   {
      "name": "Kapok",
      "countryCode": "BN",
      "stateCode": "BM",
      "latitude": "5.02447000",
      "longitude": "115.04664000"
   },
   {
      "name": "Mentiri",
      "countryCode": "BN",
      "stateCode": "BM",
      "latitude": "4.97058000",
      "longitude": "115.02078000"
   },
   {
      "name": "Serasa",
      "countryCode": "BN",
      "stateCode": "BM",
      "latitude": "5.01718000",
      "longitude": "115.05841000"
   }
]