[
   {
      "name": "Alfatar",
      "countryCode": "BG",
      "stateCode": "19",
      "latitude": "43.94525000",
      "longitude": "27.28751000"
   },
   {
      "name": "Dulovo",
      "countryCode": "BG",
      "stateCode": "19",
      "latitude": "43.81667000",
      "longitude": "27.15000000"
   },
   {
      "name": "Glavinitsa",
      "countryCode": "BG",
      "stateCode": "19",
      "latitude": "43.91667000",
      "longitude": "26.83333000"
   },
   {
      "name": "Kaynardzha",
      "countryCode": "BG",
      "stateCode": "19",
      "latitude": "43.99278000",
      "longitude": "27.50713000"
   },
   {
      "name": "Obshtina Alfatar",
      "countryCode": "BG",
      "stateCode": "19",
      "latitude": "43.90000000",
      "longitude": "27.33333000"
   },
   {
      "name": "Obshtina Dulovo",
      "countryCode": "BG",
      "stateCode": "19",
      "latitude": "43.81667000",
      "longitude": "27.08333000"
   },
   {
      "name": "Obshtina Glavinitsa",
      "countryCode": "BG",
      "stateCode": "19",
      "latitude": "43.95000000",
      "longitude": "26.85000000"
   },
   {
      "name": "Obshtina Kaynardzha",
      "countryCode": "BG",
      "stateCode": "19",
      "latitude": "43.95000000",
      "longitude": "27.53333000"
   },
   {
      "name": "Obshtina Silistra",
      "countryCode": "BG",
      "stateCode": "19",
      "latitude": "44.03333000",
      "longitude": "27.20000000"
   },
   {
      "name": "Obshtina Sitovo",
      "countryCode": "BG",
      "stateCode": "19",
      "latitude": "44.01667000",
      "longitude": "27.00000000"
   },
   {
      "name": "Obshtina Tutrakan",
      "countryCode": "BG",
      "stateCode": "19",
      "latitude": "44.00000000",
      "longitude": "26.60000000"
   },
   {
      "name": "Silistra",
      "countryCode": "BG",
      "stateCode": "19",
      "latitude": "44.11710000",
      "longitude": "27.26056000"
   },
   {
      "name": "Sitovo",
      "countryCode": "BG",
      "stateCode": "19",
      "latitude": "44.02730000",
      "longitude": "27.01982000"
   },
   {
      "name": "Tutrakan",
      "countryCode": "BG",
      "stateCode": "19",
      "latitude": "44.04906000",
      "longitude": "26.61206000"
   }
]