[
   {
      "name": "Belica",
      "countryCode": "HR",
      "stateCode": "20",
      "latitude": "46.40417000",
      "longitude": "16.51833000"
   },
   {
      "name": "Dekanovec",
      "countryCode": "HR",
      "stateCode": "20",
      "latitude": "46.44861000",
      "longitude": "16.58472000"
   },
   {
      "name": "Domašinec",
      "countryCode": "HR",
      "stateCode": "20",
      "latitude": "46.43250000",
      "longitude": "16.60000000"
   },
   {
      "name": "Goričan",
      "countryCode": "HR",
      "stateCode": "20",
      "latitude": "46.38417000",
      "longitude": "16.68083000"
   },
   {
      "name": "Grad Čakovec",
      "countryCode": "HR",
      "stateCode": "20",
      "latitude": "46.38583000",
      "longitude": "16.43333000"
   },
   {
      "name": "Hodošan",
      "countryCode": "HR",
      "stateCode": "20",
      "latitude": "46.39528000",
      "longitude": "16.64389000"
   },
   {
      "name": "Ivanovec",
      "countryCode": "HR",
      "stateCode": "20",
      "latitude": "46.36833000",
      "longitude": "16.47667000"
   },
   {
      "name": "Kotoriba",
      "countryCode": "HR",
      "stateCode": "20",
      "latitude": "46.35500000",
      "longitude": "16.81806000"
   },
   {
      "name": "Kuršanec",
      "countryCode": "HR",
      "stateCode": "20",
      "latitude": "46.33028000",
      "longitude": "16.40167000"
   },
   {
      "name": "Lopatinec",
      "countryCode": "HR",
      "stateCode": "20",
      "latitude": "46.43333000",
      "longitude": "16.38333000"
   },
   {
      "name": "Mala Subotica",
      "countryCode": "HR",
      "stateCode": "20",
      "latitude": "46.37616000",
      "longitude": "16.52893000"
   },
   {
      "name": "Mačkovec",
      "countryCode": "HR",
      "stateCode": "20",
      "latitude": "46.42417000",
      "longitude": "16.43361000"
   },
   {
      "name": "Mihovljan",
      "countryCode": "HR",
      "stateCode": "20",
      "latitude": "46.40861000",
      "longitude": "16.44806000"
   },
   {
      "name": "Mursko Središće",
      "countryCode": "HR",
      "stateCode": "20",
      "latitude": "46.50944000",
      "longitude": "16.44111000"
   },
   {
      "name": "Nedelišće",
      "countryCode": "HR",
      "stateCode": "20",
      "latitude": "46.37583000",
      "longitude": "16.38750000"
   },
   {
      "name": "Novo Selo Rok",
      "countryCode": "HR",
      "stateCode": "20",
      "latitude": "46.42839000",
      "longitude": "16.46215000"
   },
   {
      "name": "Orehovica",
      "countryCode": "HR",
      "stateCode": "20",
      "latitude": "46.33167000",
      "longitude": "16.50694000"
   },
   {
      "name": "Peklenica",
      "countryCode": "HR",
      "stateCode": "20",
      "latitude": "46.49528000",
      "longitude": "16.47611000"
   },
   {
      "name": "Podturen",
      "countryCode": "HR",
      "stateCode": "20",
      "latitude": "46.46472000",
      "longitude": "16.54306000"
   },
   {
      "name": "Prelog",
      "countryCode": "HR",
      "stateCode": "20",
      "latitude": "46.33500000",
      "longitude": "16.61556000"
   },
   {
      "name": "Pribislavec",
      "countryCode": "HR",
      "stateCode": "20",
      "latitude": "46.39250000",
      "longitude": "16.48250000"
   },
   {
      "name": "Strahoninec",
      "countryCode": "HR",
      "stateCode": "20",
      "latitude": "46.36889000",
      "longitude": "16.41500000"
   },
   {
      "name": "Sveti Juraj na Bregu",
      "countryCode": "HR",
      "stateCode": "20",
      "latitude": "46.42853000",
      "longitude": "16.38525000"
   },
   {
      "name": "Vratišinec",
      "countryCode": "HR",
      "stateCode": "20",
      "latitude": "46.47806000",
      "longitude": "16.45778000"
   },
   {
      "name": "Čakovec",
      "countryCode": "HR",
      "stateCode": "20",
      "latitude": "46.38444000",
      "longitude": "16.43389000"
   },
   {
      "name": "Šenkovec",
      "countryCode": "HR",
      "stateCode": "20",
      "latitude": "46.40889000",
      "longitude": "16.42167000"
   }
]