[
   {
      "name": "Aghireșu",
      "countryCode": "RO",
      "stateCode": "CJ",
      "latitude": "46.87209000",
      "longitude": "23.23773000"
   },
   {
      "name": "Aghireșu-Fabrici",
      "countryCode": "RO",
      "stateCode": "CJ",
      "latitude": "46.86690000",
      "longitude": "23.27129000"
   },
   {
      "name": "Aiton",
      "countryCode": "RO",
      "stateCode": "CJ",
      "latitude": "46.68333000",
      "longitude": "23.73333000"
   },
   {
      "name": "Aluniş",
      "countryCode": "RO",
      "stateCode": "CJ",
      "latitude": "47.03333000",
      "longitude": "23.75000000"
   },
   {
      "name": "Apahida",
      "countryCode": "RO",
      "stateCode": "CJ",
      "latitude": "46.81667000",
      "longitude": "23.75000000"
   },
   {
      "name": "Aşchileu Dorna",
      "countryCode": "RO",
      "stateCode": "CJ",
      "latitude": "46.98333000",
      "longitude": "23.48333000"
   },
   {
      "name": "Baciu",
      "countryCode": "RO",
      "stateCode": "CJ",
      "latitude": "46.80000000",
      "longitude": "23.51667000"
   },
   {
      "name": "Beliş",
      "countryCode": "RO",
      "stateCode": "CJ",
      "latitude": "46.65000000",
      "longitude": "23.03333000"
   },
   {
      "name": "Bobâlna",
      "countryCode": "RO",
      "stateCode": "CJ",
      "latitude": "47.14385000",
      "longitude": "23.64461000"
   },
   {
      "name": "Bogdăneşti",
      "countryCode": "RO",
      "stateCode": "CJ",
      "latitude": "46.63333000",
      "longitude": "23.13333000"
   },
   {
      "name": "Bonțida",
      "countryCode": "RO",
      "stateCode": "CJ",
      "latitude": "46.91550000",
      "longitude": "23.81475000"
   },
   {
      "name": "Borşa",
      "countryCode": "RO",
      "stateCode": "CJ",
      "latitude": "46.93333000",
      "longitude": "23.66667000"
   },
   {
      "name": "Buza",
      "countryCode": "RO",
      "stateCode": "CJ",
      "latitude": "46.90000000",
      "longitude": "24.15000000"
   },
   {
      "name": "Băişoara",
      "countryCode": "RO",
      "stateCode": "CJ",
      "latitude": "46.58333000",
      "longitude": "23.46667000"
   },
   {
      "name": "Ceanu Mare",
      "countryCode": "RO",
      "stateCode": "CJ",
      "latitude": "46.66667000",
      "longitude": "23.95000000"
   },
   {
      "name": "Chinteni",
      "countryCode": "RO",
      "stateCode": "CJ",
      "latitude": "46.86667000",
      "longitude": "23.53333000"
   },
   {
      "name": "Chiuiești",
      "countryCode": "RO",
      "stateCode": "CJ",
      "latitude": "47.29686000",
      "longitude": "23.87553000"
   },
   {
      "name": "Ciucea",
      "countryCode": "RO",
      "stateCode": "CJ",
      "latitude": "46.95000000",
      "longitude": "22.81667000"
   },
   {
      "name": "Ciurila",
      "countryCode": "RO",
      "stateCode": "CJ",
      "latitude": "46.65000000",
      "longitude": "23.55000000"
   },
   {
      "name": "Cluj-Napoca",
      "countryCode": "RO",
      "stateCode": "CJ",
      "latitude": "46.76667000",
      "longitude": "23.60000000"
   },
   {
      "name": "Cojocna",
      "countryCode": "RO",
      "stateCode": "CJ",
      "latitude": "46.75000000",
      "longitude": "23.83333000"
   },
   {
      "name": "Comuna Aghireşu",
      "countryCode": "RO",
      "stateCode": "CJ",
      "latitude": "46.87785000",
      "longitude": "23.25320000"
   },
   {
      "name": "Comuna Aiton",
      "countryCode": "RO",
      "stateCode": "CJ",
      "latitude": "46.68275000",
      "longitude": "23.71608000"
   },
   {
      "name": "Comuna Aluniş",
      "countryCode": "RO",
      "stateCode": "CJ",
      "latitude": "47.05595000",
      "longitude": "23.74365000"
   },
   {
      "name": "Comuna Apahida",
      "countryCode": "RO",
      "stateCode": "CJ",
      "latitude": "46.78296000",
      "longitude": "23.74433000"
   },
   {
      "name": "Comuna Aşchileu",
      "countryCode": "RO",
      "stateCode": "CJ",
      "latitude": "46.98498000",
      "longitude": "23.48468000"
   },
   {
      "name": "Comuna Baciu",
      "countryCode": "RO",
      "stateCode": "CJ",
      "latitude": "46.82010000",
      "longitude": "23.49036000"
   },
   {
      "name": "Comuna Beliş",
      "countryCode": "RO",
      "stateCode": "CJ",
      "latitude": "46.65246000",
      "longitude": "22.95213000"
   },
   {
      "name": "Comuna Bobâlna",
      "countryCode": "RO",
      "stateCode": "CJ",
      "latitude": "47.13319000",
      "longitude": "23.65163000"
   },
   {
      "name": "Comuna Bonţida",
      "countryCode": "RO",
      "stateCode": "CJ",
      "latitude": "46.90036000",
      "longitude": "23.82228000"
   },
   {
      "name": "Comuna Borşa",
      "countryCode": "RO",
      "stateCode": "CJ",
      "latitude": "46.92402000",
      "longitude": "23.64940000"
   },
   {
      "name": "Comuna Buza",
      "countryCode": "RO",
      "stateCode": "CJ",
      "latitude": "46.90492000",
      "longitude": "24.18041000"
   },
   {
      "name": "Comuna Băişoara",
      "countryCode": "RO",
      "stateCode": "CJ",
      "latitude": "46.58331000",
      "longitude": "23.39349000"
   },
   {
      "name": "Comuna Ceanu Mare",
      "countryCode": "RO",
      "stateCode": "CJ",
      "latitude": "46.65324000",
      "longitude": "23.94586000"
   },
   {
      "name": "Comuna Chinteni",
      "countryCode": "RO",
      "stateCode": "CJ",
      "latitude": "46.88822000",
      "longitude": "23.55319000"
   },
   {
      "name": "Comuna Chiuieşti",
      "countryCode": "RO",
      "stateCode": "CJ",
      "latitude": "47.32292000",
      "longitude": "23.92016000"
   },
   {
      "name": "Comuna Ciucea",
      "countryCode": "RO",
      "stateCode": "CJ",
      "latitude": "46.95981000",
      "longitude": "22.84363000"
   },
   {
      "name": "Comuna Ciurila",
      "countryCode": "RO",
      "stateCode": "CJ",
      "latitude": "46.63372000",
      "longitude": "23.53979000"
   },
   {
      "name": "Comuna Cojocna",
      "countryCode": "RO",
      "stateCode": "CJ",
      "latitude": "46.72137000",
      "longitude": "23.83949000"
   },
   {
      "name": "Comuna Corneşti",
      "countryCode": "RO",
      "stateCode": "CJ",
      "latitude": "47.02811000",
      "longitude": "23.68500000"
   },
   {
      "name": "Comuna Cuzdrioara",
      "countryCode": "RO",
      "stateCode": "CJ",
      "latitude": "47.18274000",
      "longitude": "23.93248000"
   },
   {
      "name": "Comuna Câţcău",
      "countryCode": "RO",
      "stateCode": "CJ",
      "latitude": "47.23058000",
      "longitude": "23.79331000"
   },
   {
      "name": "Comuna Cãpuşu Mare",
      "countryCode": "RO",
      "stateCode": "CJ",
      "latitude": "46.78746000",
      "longitude": "23.23462000"
   },
   {
      "name": "Comuna Căianu",
      "countryCode": "RO",
      "stateCode": "CJ",
      "latitude": "46.80670000",
      "longitude": "23.90883000"
   },
   {
      "name": "Comuna Călăraşi",
      "countryCode": "RO",
      "stateCode": "CJ",
      "latitude": "46.49376000",
      "longitude": "23.85359000"
   },
   {
      "name": "Comuna Călăţele",
      "countryCode": "RO",
      "stateCode": "CJ",
      "latitude": "46.76282000",
      "longitude": "23.03046000"
   },
   {
      "name": "Comuna Cămăraşu",
      "countryCode": "RO",
      "stateCode": "CJ",
      "latitude": "46.78695000",
      "longitude": "24.11369000"
   },
   {
      "name": "Comuna Cătina",
      "countryCode": "RO",
      "stateCode": "CJ",
      "latitude": "46.85179000",
      "longitude": "24.16497000"
   },
   {
      "name": "Comuna Căşeiu",
      "countryCode": "RO",
      "stateCode": "CJ",
      "latitude": "47.23810000",
      "longitude": "23.86404000"
   },
   {
      "name": "Comuna Dăbâca",
      "countryCode": "RO",
      "stateCode": "CJ",
      "latitude": "46.96989000",
      "longitude": "23.69456000"
   },
   {
      "name": "Comuna Feleacu",
      "countryCode": "RO",
      "stateCode": "CJ",
      "latitude": "46.70345000",
      "longitude": "23.64021000"
   },
   {
      "name": "Comuna Fizeşu Gherlii",
      "countryCode": "RO",
      "stateCode": "CJ",
      "latitude": "46.99442000",
      "longitude": "23.94727000"
   },
   {
      "name": "Comuna Floreşti",
      "countryCode": "RO",
      "stateCode": "CJ",
      "latitude": "46.73375000",
      "longitude": "23.47861000"
   },
   {
      "name": "Comuna Frata",
      "countryCode": "RO",
      "stateCode": "CJ",
      "latitude": "46.69878000",
      "longitude": "24.05385000"
   },
   {
      "name": "Comuna Geaca",
      "countryCode": "RO",
      "stateCode": "CJ",
      "latitude": "46.88141000",
      "longitude": "24.06256000"
   },
   {
      "name": "Comuna Gilău",
      "countryCode": "RO",
      "stateCode": "CJ",
      "latitude": "46.72607000",
      "longitude": "23.34909000"
   },
   {
      "name": "Comuna Gârbãu",
      "countryCode": "RO",
      "stateCode": "CJ",
      "latitude": "46.84059000",
      "longitude": "23.37049000"
   },
   {
      "name": "Comuna Iara",
      "countryCode": "RO",
      "stateCode": "CJ",
      "latitude": "46.54268000",
      "longitude": "23.52749000"
   },
   {
      "name": "Comuna Iclod",
      "countryCode": "RO",
      "stateCode": "CJ",
      "latitude": "46.99174000",
      "longitude": "23.81618000"
   },
   {
      "name": "Comuna Izvoru Crişului",
      "countryCode": "RO",
      "stateCode": "CJ",
      "latitude": "46.84542000",
      "longitude": "23.10025000"
   },
   {
      "name": "Comuna Jichişu De Jos",
      "countryCode": "RO",
      "stateCode": "CJ",
      "latitude": "47.12028000",
      "longitude": "23.76788000"
   },
   {
      "name": "Comuna Jucu",
      "countryCode": "RO",
      "stateCode": "CJ",
      "latitude": "46.84958000",
      "longitude": "23.80953000"
   },
   {
      "name": "Comuna Luna",
      "countryCode": "RO",
      "stateCode": "CJ",
      "latitude": "46.47522000",
      "longitude": "23.94928000"
   },
   {
      "name": "Comuna Mica",
      "countryCode": "RO",
      "stateCode": "CJ",
      "latitude": "47.14436000",
      "longitude": "23.97593000"
   },
   {
      "name": "Comuna Mihai Viteazu",
      "countryCode": "RO",
      "stateCode": "CJ",
      "latitude": "46.53477000",
      "longitude": "23.71595000"
   },
   {
      "name": "Comuna Mintiu Gherlii",
      "countryCode": "RO",
      "stateCode": "CJ",
      "latitude": "47.07323000",
      "longitude": "23.92731000"
   },
   {
      "name": "Comuna Mociu",
      "countryCode": "RO",
      "stateCode": "CJ",
      "latitude": "46.79232000",
      "longitude": "24.02853000"
   },
   {
      "name": "Comuna Moldoveneşti",
      "countryCode": "RO",
      "stateCode": "CJ",
      "latitude": "46.47350000",
      "longitude": "23.68905000"
   },
   {
      "name": "Comuna Mânăstireni",
      "countryCode": "RO",
      "stateCode": "CJ",
      "latitude": "46.79131000",
      "longitude": "23.09871000"
   },
   {
      "name": "Comuna Mãguri-Rãcãtãu",
      "countryCode": "RO",
      "stateCode": "CJ",
      "latitude": "46.63948000",
      "longitude": "23.19485000"
   },
   {
      "name": "Comuna Mărgău",
      "countryCode": "RO",
      "stateCode": "CJ",
      "latitude": "46.75677000",
      "longitude": "22.94429000"
   },
   {
      "name": "Comuna Mărişel",
      "countryCode": "RO",
      "stateCode": "CJ",
      "latitude": "46.68422000",
      "longitude": "23.11466000"
   },
   {
      "name": "Comuna Negreni",
      "countryCode": "RO",
      "stateCode": "CJ",
      "latitude": "46.95224000",
      "longitude": "22.75835000"
   },
   {
      "name": "Comuna Panticeu",
      "countryCode": "RO",
      "stateCode": "CJ",
      "latitude": "47.04079000",
      "longitude": "23.55639000"
   },
   {
      "name": "Comuna Petreştii De Jos",
      "countryCode": "RO",
      "stateCode": "CJ",
      "latitude": "46.58162000",
      "longitude": "23.62191000"
   },
   {
      "name": "Comuna Ploscoş",
      "countryCode": "RO",
      "stateCode": "CJ",
      "latitude": "46.66066000",
      "longitude": "23.84322000"
   },
   {
      "name": "Comuna Poieni",
      "countryCode": "RO",
      "stateCode": "CJ",
      "latitude": "46.88361000",
      "longitude": "22.86041000"
   },
   {
      "name": "Comuna Pãlatca",
      "countryCode": "RO",
      "stateCode": "CJ",
      "latitude": "46.87358000",
      "longitude": "23.98288000"
   },
   {
      "name": "Comuna Recea Cristur",
      "countryCode": "RO",
      "stateCode": "CJ",
      "latitude": "47.12155000",
      "longitude": "23.54554000"
   },
   {
      "name": "Comuna Râșca",
      "countryCode": "RO",
      "stateCode": "CJ",
      "latitude": "46.73082000",
      "longitude": "23.15413000"
   },
   {
      "name": "Comuna Sic",
      "countryCode": "RO",
      "stateCode": "CJ",
      "latitude": "46.93134000",
      "longitude": "23.89615000"
   },
   {
      "name": "Comuna Suatu",
      "countryCode": "RO",
      "stateCode": "CJ",
      "latitude": "46.75372000",
      "longitude": "23.95820000"
   },
   {
      "name": "Comuna Sâncraiu",
      "countryCode": "RO",
      "stateCode": "CJ",
      "latitude": "46.83410000",
      "longitude": "22.99135000"
   },
   {
      "name": "Comuna Sânmărtin",
      "countryCode": "RO",
      "stateCode": "CJ",
      "latitude": "47.00708000",
      "longitude": "24.07336000"
   },
   {
      "name": "Comuna Sânpaul",
      "countryCode": "RO",
      "stateCode": "CJ",
      "latitude": "46.89597000",
      "longitude": "23.41731000"
   },
   {
      "name": "Comuna Sãcuieu",
      "countryCode": "RO",
      "stateCode": "CJ",
      "latitude": "46.81600000",
      "longitude": "22.86010000"
   },
   {
      "name": "Comuna Sănduleşti",
      "countryCode": "RO",
      "stateCode": "CJ",
      "latitude": "46.58887000",
      "longitude": "23.73049000"
   },
   {
      "name": "Comuna Săvădisla",
      "countryCode": "RO",
      "stateCode": "CJ",
      "latitude": "46.66540000",
      "longitude": "23.44808000"
   },
   {
      "name": "Comuna Tritenii De Jos",
      "countryCode": "RO",
      "stateCode": "CJ",
      "latitude": "46.58735000",
      "longitude": "24.00139000"
   },
   {
      "name": "Comuna Tureni",
      "countryCode": "RO",
      "stateCode": "CJ",
      "latitude": "46.63917000",
      "longitude": "23.67684000"
   },
   {
      "name": "Comuna Unguraş",
      "countryCode": "RO",
      "stateCode": "CJ",
      "latitude": "47.11667000",
      "longitude": "24.05000000"
   },
   {
      "name": "Comuna Vad",
      "countryCode": "RO",
      "stateCode": "CJ",
      "latitude": "47.20634000",
      "longitude": "23.71403000"
   },
   {
      "name": "Comuna Valea Ierii",
      "countryCode": "RO",
      "stateCode": "CJ",
      "latitude": "46.64086000",
      "longitude": "23.31997000"
   },
   {
      "name": "Comuna Viişoara",
      "countryCode": "RO",
      "stateCode": "CJ",
      "latitude": "46.55377000",
      "longitude": "23.93583000"
   },
   {
      "name": "Comuna Vultureni",
      "countryCode": "RO",
      "stateCode": "CJ",
      "latitude": "46.95597000",
      "longitude": "23.56762000"
   },
   {
      "name": "Comuna Ţaga",
      "countryCode": "RO",
      "stateCode": "CJ",
      "latitude": "46.95100000",
      "longitude": "24.02605000"
   },
   {
      "name": "Copăceni",
      "countryCode": "RO",
      "stateCode": "CJ",
      "latitude": "46.59675000",
      "longitude": "23.73886000"
   },
   {
      "name": "Corneşti",
      "countryCode": "RO",
      "stateCode": "CJ",
      "latitude": "47.03333000",
      "longitude": "23.68333000"
   },
   {
      "name": "Cuzdrioara",
      "countryCode": "RO",
      "stateCode": "CJ",
      "latitude": "47.16667000",
      "longitude": "23.91667000"
   },
   {
      "name": "Câmpia Turzii",
      "countryCode": "RO",
      "stateCode": "CJ",
      "latitude": "46.55000000",
      "longitude": "23.88333000"
   },
   {
      "name": "Câţcău",
      "countryCode": "RO",
      "stateCode": "CJ",
      "latitude": "47.20000000",
      "longitude": "23.78333000"
   },
   {
      "name": "Căianu",
      "countryCode": "RO",
      "stateCode": "CJ",
      "latitude": "46.78460000",
      "longitude": "23.91850000"
   },
   {
      "name": "Căianu Mic",
      "countryCode": "RO",
      "stateCode": "CJ",
      "latitude": "46.78333000",
      "longitude": "23.91667000"
   },
   {
      "name": "Călăraşi",
      "countryCode": "RO",
      "stateCode": "CJ",
      "latitude": "46.48333000",
      "longitude": "23.86667000"
   },
   {
      "name": "Călăţele",
      "countryCode": "RO",
      "stateCode": "CJ",
      "latitude": "46.76667000",
      "longitude": "23.01667000"
   },
   {
      "name": "Cămăraşu",
      "countryCode": "RO",
      "stateCode": "CJ",
      "latitude": "46.78333000",
      "longitude": "24.13333000"
   },
   {
      "name": "Căpuşu Mare",
      "countryCode": "RO",
      "stateCode": "CJ",
      "latitude": "46.78333000",
      "longitude": "23.30000000"
   },
   {
      "name": "Cătina",
      "countryCode": "RO",
      "stateCode": "CJ",
      "latitude": "46.85000000",
      "longitude": "24.18333000"
   },
   {
      "name": "Căşeiu",
      "countryCode": "RO",
      "stateCode": "CJ",
      "latitude": "47.18333000",
      "longitude": "23.86667000"
   },
   {
      "name": "Dej",
      "countryCode": "RO",
      "stateCode": "CJ",
      "latitude": "47.15000000",
      "longitude": "23.86667000"
   },
   {
      "name": "Dezmir",
      "countryCode": "RO",
      "stateCode": "CJ",
      "latitude": "46.76475000",
      "longitude": "23.72451000"
   },
   {
      "name": "Dăbâca",
      "countryCode": "RO",
      "stateCode": "CJ",
      "latitude": "46.98333000",
      "longitude": "23.66667000"
   },
   {
      "name": "Feleacu",
      "countryCode": "RO",
      "stateCode": "CJ",
      "latitude": "46.71667000",
      "longitude": "23.61667000"
   },
   {
      "name": "Fizeşu Gherlii",
      "countryCode": "RO",
      "stateCode": "CJ",
      "latitude": "47.01667000",
      "longitude": "23.98333000"
   },
   {
      "name": "Floreşti",
      "countryCode": "RO",
      "stateCode": "CJ",
      "latitude": "46.74574000",
      "longitude": "23.49375000"
   },
   {
      "name": "Frata",
      "countryCode": "RO",
      "stateCode": "CJ",
      "latitude": "46.70000000",
      "longitude": "24.05000000"
   },
   {
      "name": "Geaca",
      "countryCode": "RO",
      "stateCode": "CJ",
      "latitude": "46.86667000",
      "longitude": "24.10000000"
   },
   {
      "name": "Gheorghieni",
      "countryCode": "RO",
      "stateCode": "CJ",
      "latitude": "46.71393000",
      "longitude": "23.68853000"
   },
   {
      "name": "Gherla",
      "countryCode": "RO",
      "stateCode": "CJ",
      "latitude": "47.03333000",
      "longitude": "23.91667000"
   },
   {
      "name": "Gilău",
      "countryCode": "RO",
      "stateCode": "CJ",
      "latitude": "46.73245000",
      "longitude": "23.36174000"
   },
   {
      "name": "Gârbău",
      "countryCode": "RO",
      "stateCode": "CJ",
      "latitude": "46.83305000",
      "longitude": "23.35240000"
   },
   {
      "name": "Huedin",
      "countryCode": "RO",
      "stateCode": "CJ",
      "latitude": "46.86667000",
      "longitude": "23.05000000"
   },
   {
      "name": "Iara",
      "countryCode": "RO",
      "stateCode": "CJ",
      "latitude": "46.55000000",
      "longitude": "23.51667000"
   },
   {
      "name": "Iclod",
      "countryCode": "RO",
      "stateCode": "CJ",
      "latitude": "46.98333000",
      "longitude": "23.80000000"
   },
   {
      "name": "Izvoru Crişului",
      "countryCode": "RO",
      "stateCode": "CJ",
      "latitude": "46.83333000",
      "longitude": "23.10000000"
   },
   {
      "name": "Jichişu de Jos",
      "countryCode": "RO",
      "stateCode": "CJ",
      "latitude": "47.11667000",
      "longitude": "23.80000000"
   },
   {
      "name": "Luna",
      "countryCode": "RO",
      "stateCode": "CJ",
      "latitude": "46.50659000",
      "longitude": "23.91959000"
   },
   {
      "name": "Luna de Sus",
      "countryCode": "RO",
      "stateCode": "CJ",
      "latitude": "46.74313000",
      "longitude": "23.43539000"
   },
   {
      "name": "Luncani",
      "countryCode": "RO",
      "stateCode": "CJ",
      "latitude": "46.47274000",
      "longitude": "23.95095000"
   },
   {
      "name": "Mera",
      "countryCode": "RO",
      "stateCode": "CJ",
      "latitude": "46.81525000",
      "longitude": "23.45405000"
   },
   {
      "name": "Mica",
      "countryCode": "RO",
      "stateCode": "CJ",
      "latitude": "47.13333000",
      "longitude": "23.93333000"
   },
   {
      "name": "Mihai Viteazu",
      "countryCode": "RO",
      "stateCode": "CJ",
      "latitude": "46.53333000",
      "longitude": "23.75000000"
   },
   {
      "name": "Mintiu Gherlii",
      "countryCode": "RO",
      "stateCode": "CJ",
      "latitude": "47.05000000",
      "longitude": "23.95000000"
   },
   {
      "name": "Mociu",
      "countryCode": "RO",
      "stateCode": "CJ",
      "latitude": "46.80000000",
      "longitude": "24.03333000"
   },
   {
      "name": "Moldoveneşti",
      "countryCode": "RO",
      "stateCode": "CJ",
      "latitude": "46.50000000",
      "longitude": "23.65000000"
   },
   {
      "name": "Municipiul Cluj-Napoca",
      "countryCode": "RO",
      "stateCode": "CJ",
      "latitude": "46.77791000",
      "longitude": "23.60512000"
   },
   {
      "name": "Municipiul Câmpia Turzii",
      "countryCode": "RO",
      "stateCode": "CJ",
      "latitude": "46.54417000",
      "longitude": "23.88472000"
   },
   {
      "name": "Municipiul Dej",
      "countryCode": "RO",
      "stateCode": "CJ",
      "latitude": "47.12783000",
      "longitude": "23.87504000"
   },
   {
      "name": "Municipiul Gherla",
      "countryCode": "RO",
      "stateCode": "CJ",
      "latitude": "47.01431000",
      "longitude": "23.88134000"
   },
   {
      "name": "Municipiul Turda",
      "countryCode": "RO",
      "stateCode": "CJ",
      "latitude": "46.57456000",
      "longitude": "23.78574000"
   },
   {
      "name": "Mânăstireni",
      "countryCode": "RO",
      "stateCode": "CJ",
      "latitude": "46.76667000",
      "longitude": "23.08333000"
   },
   {
      "name": "Măguri",
      "countryCode": "RO",
      "stateCode": "CJ",
      "latitude": "46.62849000",
      "longitude": "23.10294000"
   },
   {
      "name": "Măguri-Răcătău",
      "countryCode": "RO",
      "stateCode": "CJ",
      "latitude": "46.64500000",
      "longitude": "23.19700000"
   },
   {
      "name": "Mărgău",
      "countryCode": "RO",
      "stateCode": "CJ",
      "latitude": "46.75000000",
      "longitude": "22.96667000"
   },
   {
      "name": "Mărişel",
      "countryCode": "RO",
      "stateCode": "CJ",
      "latitude": "46.65000000",
      "longitude": "23.13333000"
   },
   {
      "name": "Negreni",
      "countryCode": "RO",
      "stateCode": "CJ",
      "latitude": "46.95378000",
      "longitude": "22.76347000"
   },
   {
      "name": "Nireș",
      "countryCode": "RO",
      "stateCode": "CJ",
      "latitude": "47.11499000",
      "longitude": "23.98092000"
   },
   {
      "name": "Ocna Dejului",
      "countryCode": "RO",
      "stateCode": "CJ",
      "latitude": "47.11581000",
      "longitude": "23.85934000"
   },
   {
      "name": "Oraş Huedin",
      "countryCode": "RO",
      "stateCode": "CJ",
      "latitude": "46.87204000",
      "longitude": "23.03935000"
   },
   {
      "name": "Panticeu",
      "countryCode": "RO",
      "stateCode": "CJ",
      "latitude": "47.03333000",
      "longitude": "23.56667000"
   },
   {
      "name": "Petreştii de Jos",
      "countryCode": "RO",
      "stateCode": "CJ",
      "latitude": "46.58333000",
      "longitude": "23.65000000"
   },
   {
      "name": "Ploscoș",
      "countryCode": "RO",
      "stateCode": "CJ",
      "latitude": "46.64303000",
      "longitude": "23.84663000"
   },
   {
      "name": "Poieni",
      "countryCode": "RO",
      "stateCode": "CJ",
      "latitude": "46.91880000",
      "longitude": "22.85826000"
   },
   {
      "name": "Pădureni",
      "countryCode": "RO",
      "stateCode": "CJ",
      "latitude": "46.59316000",
      "longitude": "24.02700000"
   },
   {
      "name": "Pălatca",
      "countryCode": "RO",
      "stateCode": "CJ",
      "latitude": "46.85000000",
      "longitude": "23.98333000"
   },
   {
      "name": "Recea Cristur",
      "countryCode": "RO",
      "stateCode": "CJ",
      "latitude": "47.06667000",
      "longitude": "23.53333000"
   },
   {
      "name": "Rugășești",
      "countryCode": "RO",
      "stateCode": "CJ",
      "latitude": "47.23147000",
      "longitude": "23.87326000"
   },
   {
      "name": "Râșca",
      "countryCode": "RO",
      "stateCode": "CJ",
      "latitude": "46.73967000",
      "longitude": "23.10625000"
   },
   {
      "name": "Răscruci",
      "countryCode": "RO",
      "stateCode": "CJ",
      "latitude": "46.90569000",
      "longitude": "23.76860000"
   },
   {
      "name": "Sic",
      "countryCode": "RO",
      "stateCode": "CJ",
      "latitude": "46.93333000",
      "longitude": "23.88333000"
   },
   {
      "name": "Soporu de Câmpie",
      "countryCode": "RO",
      "stateCode": "CJ",
      "latitude": "46.69618000",
      "longitude": "24.00658000"
   },
   {
      "name": "Suatu",
      "countryCode": "RO",
      "stateCode": "CJ",
      "latitude": "46.76667000",
      "longitude": "23.96667000"
   },
   {
      "name": "Suceagu",
      "countryCode": "RO",
      "stateCode": "CJ",
      "latitude": "46.78432000",
      "longitude": "23.46511000"
   },
   {
      "name": "Sâncraiu",
      "countryCode": "RO",
      "stateCode": "CJ",
      "latitude": "46.83333000",
      "longitude": "22.98333000"
   },
   {
      "name": "Sânmărghita",
      "countryCode": "RO",
      "stateCode": "CJ",
      "latitude": "47.15649000",
      "longitude": "23.99461000"
   },
   {
      "name": "Sânmărtin",
      "countryCode": "RO",
      "stateCode": "CJ",
      "latitude": "46.90000000",
      "longitude": "23.56667000"
   },
   {
      "name": "Sânnicoară",
      "countryCode": "RO",
      "stateCode": "CJ",
      "latitude": "46.78990000",
      "longitude": "23.72570000"
   },
   {
      "name": "Sânpaul",
      "countryCode": "RO",
      "stateCode": "CJ",
      "latitude": "46.88333000",
      "longitude": "23.41667000"
   },
   {
      "name": "Săcuieu",
      "countryCode": "RO",
      "stateCode": "CJ",
      "latitude": "46.82335000",
      "longitude": "22.88824000"
   },
   {
      "name": "Sănduleşti",
      "countryCode": "RO",
      "stateCode": "CJ",
      "latitude": "46.58333000",
      "longitude": "23.71667000"
   },
   {
      "name": "Săvădisla",
      "countryCode": "RO",
      "stateCode": "CJ",
      "latitude": "46.68333000",
      "longitude": "23.45000000"
   },
   {
      "name": "Tritenii de Jos",
      "countryCode": "RO",
      "stateCode": "CJ",
      "latitude": "46.58333000",
      "longitude": "24.00000000"
   },
   {
      "name": "Tritenii de Sus",
      "countryCode": "RO",
      "stateCode": "CJ",
      "latitude": "46.60544000",
      "longitude": "23.99849000"
   },
   {
      "name": "Turda",
      "countryCode": "RO",
      "stateCode": "CJ",
      "latitude": "46.56667000",
      "longitude": "23.78333000"
   },
   {
      "name": "Tureni",
      "countryCode": "RO",
      "stateCode": "CJ",
      "latitude": "46.62934000",
      "longitude": "23.70240000"
   },
   {
      "name": "Unguraş",
      "countryCode": "RO",
      "stateCode": "CJ",
      "latitude": "47.11667000",
      "longitude": "24.05000000"
   },
   {
      "name": "Urca",
      "countryCode": "RO",
      "stateCode": "CJ",
      "latitude": "46.54885000",
      "longitude": "23.96187000"
   },
   {
      "name": "Vad",
      "countryCode": "RO",
      "stateCode": "CJ",
      "latitude": "47.20000000",
      "longitude": "23.75000000"
   },
   {
      "name": "Vaida-Cămăraș",
      "countryCode": "RO",
      "stateCode": "CJ",
      "latitude": "46.82823000",
      "longitude": "23.94724000"
   },
   {
      "name": "Valea Ierii",
      "countryCode": "RO",
      "stateCode": "CJ",
      "latitude": "46.65000000",
      "longitude": "23.35000000"
   },
   {
      "name": "Viişoara",
      "countryCode": "RO",
      "stateCode": "CJ",
      "latitude": "46.55000000",
      "longitude": "23.91667000"
   },
   {
      "name": "Vultureni",
      "countryCode": "RO",
      "stateCode": "CJ",
      "latitude": "46.96667000",
      "longitude": "23.56667000"
   },
   {
      "name": "Ţaga",
      "countryCode": "RO",
      "stateCode": "CJ",
      "latitude": "46.95000000",
      "longitude": "24.05000000"
   }
]