[
   {
      "name": "Al Jabin",
      "countryCode": "YE",
      "stateCode": "RA",
      "latitude": "14.68990000",
      "longitude": "43.61960000"
   },
   {
      "name": "Al Jafariyah",
      "countryCode": "YE",
      "stateCode": "RA",
      "latitude": "14.51960000",
      "longitude": "43.58170000"
   },
   {
      "name": "As Salafiyah",
      "countryCode": "YE",
      "stateCode": "RA",
      "latitude": "14.68660000",
      "longitude": "43.82160000"
   },
   {
      "name": "Bilad At Ta'am",
      "countryCode": "YE",
      "stateCode": "RA",
      "latitude": "14.83820000",
      "longitude": "43.60780000"
   },
   {
      "name": "Kusmah",
      "countryCode": "YE",
      "stateCode": "RA",
      "latitude": "14.54740000",
      "longitude": "43.68330000"
   },
   {
      "name": "Mazhar",
      "countryCode": "YE",
      "stateCode": "RA",
      "latitude": "14.57090000",
      "longitude": "43.76070000"
   }
]