[
   {
      "name": "Afder Zone",
      "countryCode": "ET",
      "stateCode": "SO",
      "latitude": "5.25000000",
      "longitude": "43.00000000"
   },
   {
      "name": "Degehabur Zone",
      "countryCode": "ET",
      "stateCode": "SO",
      "latitude": "8.25000000",
      "longitude": "43.75000000"
   },
   {
      "name": "Gode Zone",
      "countryCode": "ET",
      "stateCode": "SO",
      "latitude": "6.00000000",
      "longitude": "43.75000000"
   },
   {
      "name": "Jijiga",
      "countryCode": "ET",
      "stateCode": "SO",
      "latitude": "9.35000000",
      "longitude": "42.80000000"
   },
   {
      "name": "Liben zone",
      "countryCode": "ET",
      "stateCode": "SO",
      "latitude": "4.75000000",
      "longitude": "40.50000000"
   },
   {
      "name": "Shinile Zone",
      "countryCode": "ET",
      "stateCode": "SO",
      "latitude": "10.17097000",
      "longitude": "41.83748000"
   }
]