[
   {
      "name": "Achacachi",
      "countryCode": "BO",
      "stateCode": "L",
      "latitude": "-16.05000000",
      "longitude": "-68.68333000"
   },
   {
      "name": "Amarete",
      "countryCode": "BO",
      "stateCode": "L",
      "latitude": "-15.23675000",
      "longitude": "-68.98462000"
   },
   {
      "name": "Batallas",
      "countryCode": "BO",
      "stateCode": "L",
      "latitude": "-16.30000000",
      "longitude": "-68.53333000"
   },
   {
      "name": "Caranavi",
      "countryCode": "BO",
      "stateCode": "L",
      "latitude": "-15.83652000",
      "longitude": "-67.56901000"
   },
   {
      "name": "Chulumani",
      "countryCode": "BO",
      "stateCode": "L",
      "latitude": "-16.40855000",
      "longitude": "-67.52940000"
   },
   {
      "name": "Colquiri",
      "countryCode": "BO",
      "stateCode": "L",
      "latitude": "-17.38918000",
      "longitude": "-67.12671000"
   },
   {
      "name": "Coripata",
      "countryCode": "BO",
      "stateCode": "L",
      "latitude": "-16.30000000",
      "longitude": "-67.60000000"
   },
   {
      "name": "Coroico",
      "countryCode": "BO",
      "stateCode": "L",
      "latitude": "-16.19386000",
      "longitude": "-67.72998000"
   },
   {
      "name": "Curahuara de Carangas",
      "countryCode": "BO",
      "stateCode": "L",
      "latitude": "-17.86667000",
      "longitude": "-68.43333000"
   },
   {
      "name": "Eucaliptus",
      "countryCode": "BO",
      "stateCode": "L",
      "latitude": "-17.58333000",
      "longitude": "-67.51667000"
   },
   {
      "name": "Guanay",
      "countryCode": "BO",
      "stateCode": "L",
      "latitude": "-15.49756000",
      "longitude": "-67.88332000"
   },
   {
      "name": "Huarina",
      "countryCode": "BO",
      "stateCode": "L",
      "latitude": "-16.20000000",
      "longitude": "-68.63333000"
   },
   {
      "name": "Huatajata",
      "countryCode": "BO",
      "stateCode": "L",
      "latitude": "-16.20000000",
      "longitude": "-68.68333000"
   },
   {
      "name": "José Manuel Pando",
      "countryCode": "BO",
      "stateCode": "L",
      "latitude": "-16.18970000",
      "longitude": "-67.72664000"
   },
   {
      "name": "La Paz",
      "countryCode": "BO",
      "stateCode": "L",
      "latitude": "-16.50000000",
      "longitude": "-68.15000000"
   },
   {
      "name": "Lahuachaca",
      "countryCode": "BO",
      "stateCode": "L",
      "latitude": "-17.37054000",
      "longitude": "-67.67501000"
   },
   {
      "name": "Mapiri",
      "countryCode": "BO",
      "stateCode": "L",
      "latitude": "-15.25000000",
      "longitude": "-68.16667000"
   },
   {
      "name": "Patacamaya",
      "countryCode": "BO",
      "stateCode": "L",
      "latitude": "-17.23580000",
      "longitude": "-67.92169000"
   },
   {
      "name": "Provincia Aroma",
      "countryCode": "BO",
      "stateCode": "L",
      "latitude": "-17.50000000",
      "longitude": "-68.00000000"
   },
   {
      "name": "Provincia Bautista Saavedra",
      "countryCode": "BO",
      "stateCode": "L",
      "latitude": "-15.00000000",
      "longitude": "-68.91667000"
   },
   {
      "name": "Provincia Camacho",
      "countryCode": "BO",
      "stateCode": "L",
      "latitude": "-15.50000000",
      "longitude": "-69.00000000"
   },
   {
      "name": "Provincia Franz Tamayo",
      "countryCode": "BO",
      "stateCode": "L",
      "latitude": "-14.50000000",
      "longitude": "-68.33333000"
   },
   {
      "name": "Provincia Gualberto Villarroel",
      "countryCode": "BO",
      "stateCode": "L",
      "latitude": "-17.58333000",
      "longitude": "-68.00000000"
   },
   {
      "name": "Provincia Ingavi",
      "countryCode": "BO",
      "stateCode": "L",
      "latitude": "-16.83333000",
      "longitude": "-68.66667000"
   },
   {
      "name": "Provincia Inquisivi",
      "countryCode": "BO",
      "stateCode": "L",
      "latitude": "-17.00000000",
      "longitude": "-67.08333000"
   },
   {
      "name": "Provincia Iturralde",
      "countryCode": "BO",
      "stateCode": "L",
      "latitude": "-13.00000000",
      "longitude": "-68.00000000"
   },
   {
      "name": "Provincia Larecaja",
      "countryCode": "BO",
      "stateCode": "L",
      "latitude": "-15.50000000",
      "longitude": "-68.33333000"
   },
   {
      "name": "Provincia Loayza",
      "countryCode": "BO",
      "stateCode": "L",
      "latitude": "-17.00000000",
      "longitude": "-67.66667000"
   },
   {
      "name": "Provincia Los Andes",
      "countryCode": "BO",
      "stateCode": "L",
      "latitude": "-16.33333000",
      "longitude": "-68.50000000"
   },
   {
      "name": "Provincia Manco Kapac",
      "countryCode": "BO",
      "stateCode": "L",
      "latitude": "-16.00000000",
      "longitude": "-69.16667000"
   },
   {
      "name": "Provincia Murillo",
      "countryCode": "BO",
      "stateCode": "L",
      "latitude": "-16.33333000",
      "longitude": "-68.00000000"
   },
   {
      "name": "Provincia Muñecas",
      "countryCode": "BO",
      "stateCode": "L",
      "latitude": "-15.33333000",
      "longitude": "-68.66667000"
   },
   {
      "name": "Provincia Nor Yungas",
      "countryCode": "BO",
      "stateCode": "L",
      "latitude": "-16.00000000",
      "longitude": "-67.50000000"
   },
   {
      "name": "Provincia Omasuyos",
      "countryCode": "BO",
      "stateCode": "L",
      "latitude": "-15.91667000",
      "longitude": "-68.83333000"
   },
   {
      "name": "Provincia Pacajes",
      "countryCode": "BO",
      "stateCode": "L",
      "latitude": "-17.50000000",
      "longitude": "-69.00000000"
   },
   {
      "name": "Provincia Sud Yungas",
      "countryCode": "BO",
      "stateCode": "L",
      "latitude": "-16.50000000",
      "longitude": "-67.50000000"
   },
   {
      "name": "Quime",
      "countryCode": "BO",
      "stateCode": "L",
      "latitude": "-16.98333000",
      "longitude": "-67.21667000"
   },
   {
      "name": "San Pablo",
      "countryCode": "BO",
      "stateCode": "L",
      "latitude": "-16.21667000",
      "longitude": "-68.83333000"
   },
   {
      "name": "San Pedro",
      "countryCode": "BO",
      "stateCode": "L",
      "latitude": "-16.23717000",
      "longitude": "-68.85063000"
   },
   {
      "name": "Sorata",
      "countryCode": "BO",
      "stateCode": "L",
      "latitude": "-15.77305000",
      "longitude": "-68.64973000"
   },
   {
      "name": "Tiahuanaco",
      "countryCode": "BO",
      "stateCode": "L",
      "latitude": "-16.55228000",
      "longitude": "-68.67953000"
   },
   {
      "name": "Viloco",
      "countryCode": "BO",
      "stateCode": "L",
      "latitude": "-16.95000000",
      "longitude": "-67.55000000"
   },
   {
      "name": "Yumani",
      "countryCode": "BO",
      "stateCode": "L",
      "latitude": "-16.03574000",
      "longitude": "-69.14843000"
   }
]