[
   {
      "name": "Amahai",
      "countryCode": "ID",
      "stateCode": "MA",
      "latitude": "-3.33984000",
      "longitude": "128.91975000"
   },
   {
      "name": "Ambon",
      "countryCode": "ID",
      "stateCode": "MA",
      "latitude": "-3.69583000",
      "longitude": "128.18333000"
   },
   {
      "name": "Kabupaten Buru",
      "countryCode": "ID",
      "stateCode": "MA",
      "latitude": "-3.32767000",
      "longitude": "126.68413000"
   },
   {
      "name": "Kabupaten Buru Selatan",
      "countryCode": "ID",
      "stateCode": "MA",
      "latitude": "-3.52187000",
      "longitude": "126.59271000"
   },
   {
      "name": "Kabupaten Kepulauan Aru",
      "countryCode": "ID",
      "stateCode": "MA",
      "latitude": "-6.17059000",
      "longitude": "134.46991000"
   },
   {
      "name": "Kabupaten Maluku Barat Daya",
      "countryCode": "ID",
      "stateCode": "MA",
      "latitude": "-7.82960000",
      "longitude": "126.17386000"
   },
   {
      "name": "Kabupaten Maluku Tengah",
      "countryCode": "ID",
      "stateCode": "MA",
      "latitude": "-3.29167000",
      "longitude": "128.96750000"
   },
   {
      "name": "Kabupaten Maluku Tenggara",
      "countryCode": "ID",
      "stateCode": "MA",
      "latitude": "-5.75000000",
      "longitude": "132.73333000"
   },
   {
      "name": "Kabupaten Maluku Tenggara Barat",
      "countryCode": "ID",
      "stateCode": "MA",
      "latitude": "-7.61186000",
      "longitude": "131.38000000"
   },
   {
      "name": "Kabupaten Seram Bagian Barat",
      "countryCode": "ID",
      "stateCode": "MA",
      "latitude": "-3.10270000",
      "longitude": "128.42996000"
   },
   {
      "name": "Kabupaten Seram Bagian Timur",
      "countryCode": "ID",
      "stateCode": "MA",
      "latitude": "-3.39851000",
      "longitude": "130.39167000"
   },
   {
      "name": "Kota Ambon",
      "countryCode": "ID",
      "stateCode": "MA",
      "latitude": "-3.70000000",
      "longitude": "128.18333000"
   },
   {
      "name": "Kota Tual",
      "countryCode": "ID",
      "stateCode": "MA",
      "latitude": "-5.64301000",
      "longitude": "132.74935000"
   },
   {
      "name": "Tual",
      "countryCode": "ID",
      "stateCode": "MA",
      "latitude": "-5.62878000",
      "longitude": "132.75229000"
   }
]