[
   {
      "name": "Damascus Governorate",
      "isoCode": "DI",
      "countryCode": "SY",
      "latitude": "33.51514440",
      "longitude": "36.39313540"
   },
   {
      "name": "Daraa Governorate",
      "isoCode": "DR",
      "countryCode": "SY",
      "latitude": "32.92488130",
      "longitude": "36.17626150"
   },
   {
      "name": "Deir ez-Zor Governorate",
      "isoCode": "DY",
      "countryCode": "SY",
      "latitude": "35.28797980",
      "longitude": "40.30886260"
   },
   {
      "name": "Al-Hasakah Governorate",
      "isoCode": "HA",
      "countryCode": "SY",
      "latitude": "36.40551500",
      "longitude": "40.79691490"
   },
   {
      "name": "Homs Governorate",
      "isoCode": "HI",
      "countryCode": "SY",
      "latitude": "34.25671230",
      "longitude": "38.31657250"
   },
   {
      "name": "Aleppo Governorate",
      "isoCode": "HL",
      "countryCode": "SY",
      "latitude": "36.22623930",
      "longitude": "37.46813960"
   },
   {
      "name": "Hama Governorate",
      "isoCode": "HM",
      "countryCode": "SY",
      "latitude": "35.18878650",
      "longitude": "37.21158290"
   },
   {
      "name": "Idlib Governorate",
      "isoCode": "ID",
      "countryCode": "SY",
      "latitude": "35.82687980",
      "longitude": "36.69572160"
   },
   {
      "name": "Latakia Governorate",
      "isoCode": "LA",
      "countryCode": "SY",
      "latitude": "35.61297910",
      "longitude": "36.00232250"
   },
   {
      "name": "Quneitra Governorate",
      "isoCode": "QU",
      "countryCode": "SY",
      "latitude": "33.07763180",
      "longitude": "35.89341360"
   },
   {
      "name": "Al-Raqqah Governorate",
      "isoCode": "RA",
      "countryCode": "SY",
      "latitude": "35.95941060",
      "longitude": "38.99810520"
   },
   {
      "name": "Rif Dimashq Governorate",
      "isoCode": "RD",
      "countryCode": "SY",
      "latitude": "33.51672890",
      "longitude": "36.95410700"
   },
   {
      "name": "As-Suwayda Governorate",
      "isoCode": "SU",
      "countryCode": "SY",
      "latitude": "32.79891560",
      "longitude": "36.78195050"
   },
   {
      "name": "Tartus Governorate",
      "isoCode": "TA",
      "countryCode": "SY",
      "latitude": "35.00066520",
      "longitude": "36.00232250"
   }
]