[
   {
      "name": "Alta Verapaz Department",
      "isoCode": "AV",
      "countryCode": "GT",
      "latitude": "15.59428830",
      "longitude": "-90.14949880"
   },
   {
      "name": "Baja Verapaz Department",
      "isoCode": "BV",
      "countryCode": "GT",
      "latitude": "15.12558670",
      "longitude": "-90.37483540"
   },
   {
      "name": "Chimaltenango Department",
      "isoCode": "CM",
      "countryCode": "GT",
      "latitude": "14.56347870",
      "longitude": "-90.98206680"
   },
   {
      "name": "Chiquimula Department",
      "isoCode": "CQ",
      "countryCode": "GT",
      "latitude": "14.75149990",
      "longitude": "-89.47421770"
   },
   {
      "name": "Escuintla Department",
      "isoCode": "ES",
      "countryCode": "GT",
      "latitude": "14.19109120",
      "longitude": "-90.98206680"
   },
   {
      "name": "Guatemala Department",
      "isoCode": "GU",
      "countryCode": "GT",
      "latitude": "14.56494010",
      "longitude": "-90.52578230"
   },
   {
      "name": "Huehuetenango Department",
      "isoCode": "HU",
      "countryCode": "GT",
      "latitude": "15.58799140",
      "longitude": "-91.67606910"
   },
   {
      "name": "Izabal Department",
      "isoCode": "IZ",
      "countryCode": "GT",
      "latitude": "15.49765170",
      "longitude": "-88.86469800"
   },
   {
      "name": "Jalapa Department",
      "isoCode": "JA",
      "countryCode": "GT",
      "latitude": "14.61214460",
      "longitude": "-89.96267990"
   },
   {
      "name": "Jutiapa Department",
      "isoCode": "JU",
      "countryCode": "GT",
      "latitude": "14.19308020",
      "longitude": "-89.92532330"
   },
   {
      "name": "Petén Department",
      "isoCode": "PE",
      "countryCode": "GT",
      "latitude": "16.91203300",
      "longitude": "-90.29957850"
   },
   {
      "name": "El Progreso Department",
      "isoCode": "PR",
      "countryCode": "GT",
      "latitude": "14.93887320",
      "longitude": "-90.07467670"
   },
   {
      "name": "Quiché Department",
      "isoCode": "QC",
      "countryCode": "GT",
      "latitude": "15.49838080",
      "longitude": "-90.98206680"
   },
   {
      "name": "Quetzaltenango Department",
      "isoCode": "QZ",
      "countryCode": "GT",
      "latitude": "14.79243300",
      "longitude": "-91.71495800"
   },
   {
      "name": "Retalhuleu Department",
      "isoCode": "RE",
      "countryCode": "GT",
      "latitude": "14.52454850",
      "longitude": "-91.68578800"
   },
   {
      "name": "Sacatepéquez Department",
      "isoCode": "SA",
      "countryCode": "GT",
      "latitude": "14.51783790",
      "longitude": "-90.71527490"
   },
   {
      "name": "San Marcos Department",
      "isoCode": "SM",
      "countryCode": "GT",
      "latitude": "14.93095690",
      "longitude": "-91.90992380"
   },
   {
      "name": "Sololá Department",
      "isoCode": "SO",
      "countryCode": "GT",
      "latitude": "14.74852300",
      "longitude": "-91.28910360"
   },
   {
      "name": "Santa Rosa Department",
      "isoCode": "SR",
      "countryCode": "GT",
      "latitude": "38.44057590",
      "longitude": "-122.70375430"
   },
   {
      "name": "Suchitepéquez Department",
      "isoCode": "SU",
      "countryCode": "GT",
      "latitude": "14.42159820",
      "longitude": "-91.40482490"
   },
   {
      "name": "Totonicapán Department",
      "isoCode": "TO",
      "countryCode": "GT",
      "latitude": "14.91734020",
      "longitude": "-91.36139230"
   }
]