[
   {
      "name": "Aninoasa",
      "countryCode": "RO",
      "stateCode": "HD",
      "latitude": "45.40924000",
      "longitude": "23.31505000"
   },
   {
      "name": "Baia de Criş",
      "countryCode": "RO",
      "stateCode": "HD",
      "latitude": "46.16667000",
      "longitude": "22.71667000"
   },
   {
      "name": "Balşa",
      "countryCode": "RO",
      "stateCode": "HD",
      "latitude": "46.03333000",
      "longitude": "23.11667000"
   },
   {
      "name": "Baru",
      "countryCode": "RO",
      "stateCode": "HD",
      "latitude": "45.47218000",
      "longitude": "23.16271000"
   },
   {
      "name": "Baru Mic",
      "countryCode": "RO",
      "stateCode": "HD",
      "latitude": "45.46667000",
      "longitude": "23.15000000"
   },
   {
      "name": "Barza",
      "countryCode": "RO",
      "stateCode": "HD",
      "latitude": "46.11990000",
      "longitude": "22.85695000"
   },
   {
      "name": "Beriu",
      "countryCode": "RO",
      "stateCode": "HD",
      "latitude": "45.78333000",
      "longitude": "23.18333000"
   },
   {
      "name": "Blăjeni",
      "countryCode": "RO",
      "stateCode": "HD",
      "latitude": "46.23333000",
      "longitude": "22.90000000"
   },
   {
      "name": "Boşorod",
      "countryCode": "RO",
      "stateCode": "HD",
      "latitude": "45.68333000",
      "longitude": "23.08333000"
   },
   {
      "name": "Brad",
      "countryCode": "RO",
      "stateCode": "HD",
      "latitude": "46.13333000",
      "longitude": "22.78333000"
   },
   {
      "name": "Brazi",
      "countryCode": "RO",
      "stateCode": "HD",
      "latitude": "45.48716000",
      "longitude": "22.84040000"
   },
   {
      "name": "Bretea Română",
      "countryCode": "RO",
      "stateCode": "HD",
      "latitude": "45.66085000",
      "longitude": "23.01739000"
   },
   {
      "name": "Brănişca",
      "countryCode": "RO",
      "stateCode": "HD",
      "latitude": "45.91667000",
      "longitude": "22.78333000"
   },
   {
      "name": "Buceş",
      "countryCode": "RO",
      "stateCode": "HD",
      "latitude": "46.18333000",
      "longitude": "22.93333000"
   },
   {
      "name": "Bucium-Orlea",
      "countryCode": "RO",
      "stateCode": "HD",
      "latitude": "45.58333000",
      "longitude": "22.96667000"
   },
   {
      "name": "Bucureşci",
      "countryCode": "RO",
      "stateCode": "HD",
      "latitude": "46.13333000",
      "longitude": "22.90000000"
   },
   {
      "name": "Bulzeștii de Sus",
      "countryCode": "RO",
      "stateCode": "HD",
      "latitude": "46.30070000",
      "longitude": "22.76118000"
   },
   {
      "name": "Bunila",
      "countryCode": "RO",
      "stateCode": "HD",
      "latitude": "45.70000000",
      "longitude": "22.66667000"
   },
   {
      "name": "Burjuc",
      "countryCode": "RO",
      "stateCode": "HD",
      "latitude": "45.95000000",
      "longitude": "22.48333000"
   },
   {
      "name": "Băcia",
      "countryCode": "RO",
      "stateCode": "HD",
      "latitude": "45.80000000",
      "longitude": "23.01667000"
   },
   {
      "name": "Băiţa",
      "countryCode": "RO",
      "stateCode": "HD",
      "latitude": "46.03333000",
      "longitude": "22.90000000"
   },
   {
      "name": "Băniţa",
      "countryCode": "RO",
      "stateCode": "HD",
      "latitude": "45.45000000",
      "longitude": "23.26667000"
   },
   {
      "name": "Bătrâna",
      "countryCode": "RO",
      "stateCode": "HD",
      "latitude": "45.78333000",
      "longitude": "22.58333000"
   },
   {
      "name": "Cerbăl",
      "countryCode": "RO",
      "stateCode": "HD",
      "latitude": "45.78333000",
      "longitude": "22.71667000"
   },
   {
      "name": "Certeju de Sus",
      "countryCode": "RO",
      "stateCode": "HD",
      "latitude": "45.96667000",
      "longitude": "22.96667000"
   },
   {
      "name": "Comuna Baia de Criş",
      "countryCode": "RO",
      "stateCode": "HD",
      "latitude": "46.18227000",
      "longitude": "22.70027000"
   },
   {
      "name": "Comuna Balşa",
      "countryCode": "RO",
      "stateCode": "HD",
      "latitude": "46.04738000",
      "longitude": "23.06886000"
   },
   {
      "name": "Comuna Baru",
      "countryCode": "RO",
      "stateCode": "HD",
      "latitude": "45.47912000",
      "longitude": "23.15132000"
   },
   {
      "name": "Comuna Beriu",
      "countryCode": "RO",
      "stateCode": "HD",
      "latitude": "45.76347000",
      "longitude": "23.23126000"
   },
   {
      "name": "Comuna Blăjeni",
      "countryCode": "RO",
      "stateCode": "HD",
      "latitude": "46.25491000",
      "longitude": "22.90335000"
   },
   {
      "name": "Comuna Boşorod",
      "countryCode": "RO",
      "stateCode": "HD",
      "latitude": "45.63805000",
      "longitude": "23.12990000"
   },
   {
      "name": "Comuna Bretea Română",
      "countryCode": "RO",
      "stateCode": "HD",
      "latitude": "45.66021000",
      "longitude": "23.01665000"
   },
   {
      "name": "Comuna Brănişca",
      "countryCode": "RO",
      "stateCode": "HD",
      "latitude": "45.97185000",
      "longitude": "22.76723000"
   },
   {
      "name": "Comuna Buceş",
      "countryCode": "RO",
      "stateCode": "HD",
      "latitude": "46.19130000",
      "longitude": "22.97718000"
   },
   {
      "name": "Comuna Bucureşci",
      "countryCode": "RO",
      "stateCode": "HD",
      "latitude": "46.12392000",
      "longitude": "22.93047000"
   },
   {
      "name": "Comuna Bulzeştii De Sus",
      "countryCode": "RO",
      "stateCode": "HD",
      "latitude": "46.29383000",
      "longitude": "22.77766000"
   },
   {
      "name": "Comuna Bunila",
      "countryCode": "RO",
      "stateCode": "HD",
      "latitude": "45.69454000",
      "longitude": "22.65763000"
   },
   {
      "name": "Comuna Burjuc",
      "countryCode": "RO",
      "stateCode": "HD",
      "latitude": "45.97100000",
      "longitude": "22.50164000"
   },
   {
      "name": "Comuna Băcia",
      "countryCode": "RO",
      "stateCode": "HD",
      "latitude": "45.80832000",
      "longitude": "23.02530000"
   },
   {
      "name": "Comuna Băiţa",
      "countryCode": "RO",
      "stateCode": "HD",
      "latitude": "46.02424000",
      "longitude": "22.89087000"
   },
   {
      "name": "Comuna Băniţa",
      "countryCode": "RO",
      "stateCode": "HD",
      "latitude": "45.45636000",
      "longitude": "23.23214000"
   },
   {
      "name": "Comuna Bătrâna",
      "countryCode": "RO",
      "stateCode": "HD",
      "latitude": "45.80901000",
      "longitude": "22.58859000"
   },
   {
      "name": "Comuna Cerbăl",
      "countryCode": "RO",
      "stateCode": "HD",
      "latitude": "45.78603000",
      "longitude": "22.68059000"
   },
   {
      "name": "Comuna Certeju de Sus",
      "countryCode": "RO",
      "stateCode": "HD",
      "latitude": "45.97437000",
      "longitude": "22.98863000"
   },
   {
      "name": "Comuna Crişcior",
      "countryCode": "RO",
      "stateCode": "HD",
      "latitude": "46.12326000",
      "longitude": "22.86590000"
   },
   {
      "name": "Comuna Cârjiţi",
      "countryCode": "RO",
      "stateCode": "HD",
      "latitude": "45.84678000",
      "longitude": "22.83467000"
   },
   {
      "name": "Comuna Densuş",
      "countryCode": "RO",
      "stateCode": "HD",
      "latitude": "45.56403000",
      "longitude": "22.77805000"
   },
   {
      "name": "Comuna Dobra",
      "countryCode": "RO",
      "stateCode": "HD",
      "latitude": "45.88654000",
      "longitude": "22.58817000"
   },
   {
      "name": "Comuna General Berthelot",
      "countryCode": "RO",
      "stateCode": "HD",
      "latitude": "45.61164000",
      "longitude": "22.88795000"
   },
   {
      "name": "Comuna Ghelari",
      "countryCode": "RO",
      "stateCode": "HD",
      "latitude": "45.71810000",
      "longitude": "22.77414000"
   },
   {
      "name": "Comuna Gurasada",
      "countryCode": "RO",
      "stateCode": "HD",
      "latitude": "45.98515000",
      "longitude": "22.58854000"
   },
   {
      "name": "Comuna Hărău",
      "countryCode": "RO",
      "stateCode": "HD",
      "latitude": "45.90555000",
      "longitude": "22.98136000"
   },
   {
      "name": "Comuna Ilia",
      "countryCode": "RO",
      "stateCode": "HD",
      "latitude": "45.94059000",
      "longitude": "22.67861000"
   },
   {
      "name": "Comuna Lelese",
      "countryCode": "RO",
      "stateCode": "HD",
      "latitude": "45.73754000",
      "longitude": "22.68923000"
   },
   {
      "name": "Comuna Lunca Cernii De Jos",
      "countryCode": "RO",
      "stateCode": "HD",
      "latitude": "45.64302000",
      "longitude": "22.58438000"
   },
   {
      "name": "Comuna Luncoiu De Jos",
      "countryCode": "RO",
      "stateCode": "HD",
      "latitude": "46.06807000",
      "longitude": "22.79112000"
   },
   {
      "name": "Comuna Lãpugiu De Jos",
      "countryCode": "RO",
      "stateCode": "HD",
      "latitude": "45.89222000",
      "longitude": "22.45747000"
   },
   {
      "name": "Comuna Mărtineşti",
      "countryCode": "RO",
      "stateCode": "HD",
      "latitude": "45.79278000",
      "longitude": "23.11998000"
   },
   {
      "name": "Comuna Orăştioara de Sus",
      "countryCode": "RO",
      "stateCode": "HD",
      "latitude": "45.70150000",
      "longitude": "23.18208000"
   },
   {
      "name": "Comuna Pestişu Mic",
      "countryCode": "RO",
      "stateCode": "HD",
      "latitude": "45.80178000",
      "longitude": "22.83551000"
   },
   {
      "name": "Comuna Pui",
      "countryCode": "RO",
      "stateCode": "HD",
      "latitude": "45.51086000",
      "longitude": "23.08463000"
   },
   {
      "name": "Comuna Rapoltu Mare",
      "countryCode": "RO",
      "stateCode": "HD",
      "latitude": "45.87904000",
      "longitude": "23.11543000"
   },
   {
      "name": "Comuna Ribiţa",
      "countryCode": "RO",
      "stateCode": "HD",
      "latitude": "46.20595000",
      "longitude": "22.79638000"
   },
   {
      "name": "Comuna Romos",
      "countryCode": "RO",
      "stateCode": "HD",
      "latitude": "45.82922000",
      "longitude": "23.30902000"
   },
   {
      "name": "Comuna Râu de Mori",
      "countryCode": "RO",
      "stateCode": "HD",
      "latitude": "45.50717000",
      "longitude": "22.86463000"
   },
   {
      "name": "Comuna Răchitova",
      "countryCode": "RO",
      "stateCode": "HD",
      "latitude": "45.60982000",
      "longitude": "22.76739000"
   },
   {
      "name": "Comuna Sarmizegetusa",
      "countryCode": "RO",
      "stateCode": "HD",
      "latitude": "45.50996000",
      "longitude": "22.76955000"
   },
   {
      "name": "Comuna Sântămăria-Orlea",
      "countryCode": "RO",
      "stateCode": "HD",
      "latitude": "45.58333000",
      "longitude": "22.96667000"
   },
   {
      "name": "Comuna Sãlaşu De Sus",
      "countryCode": "RO",
      "stateCode": "HD",
      "latitude": "45.50425000",
      "longitude": "22.97422000"
   },
   {
      "name": "Comuna Teliucu Inferior",
      "countryCode": "RO",
      "stateCode": "HD",
      "latitude": "45.69866000",
      "longitude": "22.87925000"
   },
   {
      "name": "Comuna Tomeşti",
      "countryCode": "RO",
      "stateCode": "HD",
      "latitude": "46.22454000",
      "longitude": "22.67017000"
   },
   {
      "name": "Comuna Topliţa",
      "countryCode": "RO",
      "stateCode": "HD",
      "latitude": "45.66897000",
      "longitude": "22.77399000"
   },
   {
      "name": "Comuna Toteşti",
      "countryCode": "RO",
      "stateCode": "HD",
      "latitude": "45.57137000",
      "longitude": "22.89023000"
   },
   {
      "name": "Comuna Turdaş",
      "countryCode": "RO",
      "stateCode": "HD",
      "latitude": "45.84766000",
      "longitude": "23.13189000"
   },
   {
      "name": "Comuna Vaţa De Jos",
      "countryCode": "RO",
      "stateCode": "HD",
      "latitude": "46.18432000",
      "longitude": "22.58002000"
   },
   {
      "name": "Comuna Veţel",
      "countryCode": "RO",
      "stateCode": "HD",
      "latitude": "45.87424000",
      "longitude": "22.76738000"
   },
   {
      "name": "Comuna Vorţa",
      "countryCode": "RO",
      "stateCode": "HD",
      "latitude": "46.03672000",
      "longitude": "22.67226000"
   },
   {
      "name": "Comuna Vălişoara",
      "countryCode": "RO",
      "stateCode": "HD",
      "latitude": "46.02285000",
      "longitude": "22.82527000"
   },
   {
      "name": "Comuna Zam",
      "countryCode": "RO",
      "stateCode": "HD",
      "latitude": "46.04580000",
      "longitude": "22.48786000"
   },
   {
      "name": "Comuna Şoimuş",
      "countryCode": "RO",
      "stateCode": "HD",
      "latitude": "45.94589000",
      "longitude": "22.86298000"
   },
   {
      "name": "Cristur",
      "countryCode": "RO",
      "stateCode": "HD",
      "latitude": "45.82936000",
      "longitude": "22.94323000"
   },
   {
      "name": "Crişcior",
      "countryCode": "RO",
      "stateCode": "HD",
      "latitude": "46.11667000",
      "longitude": "22.86667000"
   },
   {
      "name": "Cârjiţi",
      "countryCode": "RO",
      "stateCode": "HD",
      "latitude": "45.85000000",
      "longitude": "22.83333000"
   },
   {
      "name": "Călan",
      "countryCode": "RO",
      "stateCode": "HD",
      "latitude": "45.73333000",
      "longitude": "22.98333000"
   },
   {
      "name": "Căstău",
      "countryCode": "RO",
      "stateCode": "HD",
      "latitude": "45.81465000",
      "longitude": "23.21173000"
   },
   {
      "name": "Densuş",
      "countryCode": "RO",
      "stateCode": "HD",
      "latitude": "45.58333000",
      "longitude": "22.80000000"
   },
   {
      "name": "Deva",
      "countryCode": "RO",
      "stateCode": "HD",
      "latitude": "45.88333000",
      "longitude": "22.90000000"
   },
   {
      "name": "Dobra",
      "countryCode": "RO",
      "stateCode": "HD",
      "latitude": "45.91667000",
      "longitude": "22.56667000"
   },
   {
      "name": "General Berthelot",
      "countryCode": "RO",
      "stateCode": "HD",
      "latitude": "45.61667000",
      "longitude": "22.88333000"
   },
   {
      "name": "Geoagiu",
      "countryCode": "RO",
      "stateCode": "HD",
      "latitude": "45.91667000",
      "longitude": "23.20000000"
   },
   {
      "name": "Ghelari",
      "countryCode": "RO",
      "stateCode": "HD",
      "latitude": "45.71667000",
      "longitude": "22.78333000"
   },
   {
      "name": "Gurasada",
      "countryCode": "RO",
      "stateCode": "HD",
      "latitude": "45.95483000",
      "longitude": "22.59491000"
   },
   {
      "name": "Haţeg",
      "countryCode": "RO",
      "stateCode": "HD",
      "latitude": "45.61667000",
      "longitude": "22.95000000"
   },
   {
      "name": "Hunedoara",
      "countryCode": "RO",
      "stateCode": "HD",
      "latitude": "45.75000000",
      "longitude": "22.90000000"
   },
   {
      "name": "Hărău",
      "countryCode": "RO",
      "stateCode": "HD",
      "latitude": "45.90000000",
      "longitude": "22.95000000"
   },
   {
      "name": "Hărțăgani",
      "countryCode": "RO",
      "stateCode": "HD",
      "latitude": "46.05012000",
      "longitude": "22.92183000"
   },
   {
      "name": "Ilia",
      "countryCode": "RO",
      "stateCode": "HD",
      "latitude": "45.93333000",
      "longitude": "22.65000000"
   },
   {
      "name": "Iscroni",
      "countryCode": "RO",
      "stateCode": "HD",
      "latitude": "45.37794000",
      "longitude": "23.34201000"
   },
   {
      "name": "Jiu-Paroșeni",
      "countryCode": "RO",
      "stateCode": "HD",
      "latitude": "45.36175000",
      "longitude": "23.26044000"
   },
   {
      "name": "Lelese",
      "countryCode": "RO",
      "stateCode": "HD",
      "latitude": "45.73333000",
      "longitude": "22.70000000"
   },
   {
      "name": "Lunca Cernii de Jos",
      "countryCode": "RO",
      "stateCode": "HD",
      "latitude": "45.63333000",
      "longitude": "22.61667000"
   },
   {
      "name": "Luncoiu de Jos",
      "countryCode": "RO",
      "stateCode": "HD",
      "latitude": "46.10000000",
      "longitude": "22.76667000"
   },
   {
      "name": "Lupeni",
      "countryCode": "RO",
      "stateCode": "HD",
      "latitude": "45.36029000",
      "longitude": "23.23832000"
   },
   {
      "name": "Lăpugiu de Jos",
      "countryCode": "RO",
      "stateCode": "HD",
      "latitude": "45.88333000",
      "longitude": "22.48333000"
   },
   {
      "name": "Municipiul  Lupeni",
      "countryCode": "RO",
      "stateCode": "HD",
      "latitude": "45.35654000",
      "longitude": "23.22162000"
   },
   {
      "name": "Municipiul  Vulcan",
      "countryCode": "RO",
      "stateCode": "HD",
      "latitude": "45.37985000",
      "longitude": "23.27480000"
   },
   {
      "name": "Municipiul Brad",
      "countryCode": "RO",
      "stateCode": "HD",
      "latitude": "46.14073000",
      "longitude": "22.81284000"
   },
   {
      "name": "Municipiul Deva",
      "countryCode": "RO",
      "stateCode": "HD",
      "latitude": "45.84644000",
      "longitude": "22.93123000"
   },
   {
      "name": "Municipiul Hunedoara",
      "countryCode": "RO",
      "stateCode": "HD",
      "latitude": "45.76512000",
      "longitude": "22.87538000"
   },
   {
      "name": "Municipiul Orãştie",
      "countryCode": "RO",
      "stateCode": "HD",
      "latitude": "45.83841000",
      "longitude": "23.19885000"
   },
   {
      "name": "Municipiul Petroşani",
      "countryCode": "RO",
      "stateCode": "HD",
      "latitude": "45.41963000",
      "longitude": "23.35692000"
   },
   {
      "name": "Mărtineşti",
      "countryCode": "RO",
      "stateCode": "HD",
      "latitude": "45.81667000",
      "longitude": "23.13333000"
   },
   {
      "name": "Oraş Aninoasa",
      "countryCode": "RO",
      "stateCode": "HD",
      "latitude": "45.39316000",
      "longitude": "23.33020000"
   },
   {
      "name": "Oraş Cãlan",
      "countryCode": "RO",
      "stateCode": "HD",
      "latitude": "45.73940000",
      "longitude": "23.01035000"
   },
   {
      "name": "Oraş Geoagiu",
      "countryCode": "RO",
      "stateCode": "HD",
      "latitude": "45.94835000",
      "longitude": "23.20022000"
   },
   {
      "name": "Oraş Haţeg",
      "countryCode": "RO",
      "stateCode": "HD",
      "latitude": "45.62512000",
      "longitude": "22.92275000"
   },
   {
      "name": "Oraş Petrila",
      "countryCode": "RO",
      "stateCode": "HD",
      "latitude": "45.45352000",
      "longitude": "23.43697000"
   },
   {
      "name": "Oraş Simeria",
      "countryCode": "RO",
      "stateCode": "HD",
      "latitude": "45.85296000",
      "longitude": "23.00748000"
   },
   {
      "name": "Oraş Uricani",
      "countryCode": "RO",
      "stateCode": "HD",
      "latitude": "45.31733000",
      "longitude": "23.08005000"
   },
   {
      "name": "Orăştie",
      "countryCode": "RO",
      "stateCode": "HD",
      "latitude": "45.83333000",
      "longitude": "23.20000000"
   },
   {
      "name": "Orăştioara de Sus",
      "countryCode": "RO",
      "stateCode": "HD",
      "latitude": "45.73333000",
      "longitude": "23.16667000"
   },
   {
      "name": "Petrila",
      "countryCode": "RO",
      "stateCode": "HD",
      "latitude": "45.45000000",
      "longitude": "23.41667000"
   },
   {
      "name": "Petroşani",
      "countryCode": "RO",
      "stateCode": "HD",
      "latitude": "45.41667000",
      "longitude": "23.36667000"
   },
   {
      "name": "Peştişu Mic",
      "countryCode": "RO",
      "stateCode": "HD",
      "latitude": "45.80000000",
      "longitude": "22.88333000"
   },
   {
      "name": "Peștișu Mare",
      "countryCode": "RO",
      "stateCode": "HD",
      "latitude": "45.80192000",
      "longitude": "22.92704000"
   },
   {
      "name": "Pricaz",
      "countryCode": "RO",
      "stateCode": "HD",
      "latitude": "45.85929000",
      "longitude": "23.17266000"
   },
   {
      "name": "Pui",
      "countryCode": "RO",
      "stateCode": "HD",
      "latitude": "45.51667000",
      "longitude": "23.10000000"
   },
   {
      "name": "Rapoltu Mare",
      "countryCode": "RO",
      "stateCode": "HD",
      "latitude": "45.86667000",
      "longitude": "23.06667000"
   },
   {
      "name": "Ribiţa",
      "countryCode": "RO",
      "stateCode": "HD",
      "latitude": "46.18333000",
      "longitude": "22.76667000"
   },
   {
      "name": "Romos",
      "countryCode": "RO",
      "stateCode": "HD",
      "latitude": "45.83333000",
      "longitude": "23.28333000"
   },
   {
      "name": "Râu de Mori",
      "countryCode": "RO",
      "stateCode": "HD",
      "latitude": "45.48333000",
      "longitude": "22.85000000"
   },
   {
      "name": "Răchitova",
      "countryCode": "RO",
      "stateCode": "HD",
      "latitude": "45.60000000",
      "longitude": "22.75000000"
   },
   {
      "name": "Sarmizegetusa",
      "countryCode": "RO",
      "stateCode": "HD",
      "latitude": "45.51667000",
      "longitude": "22.78333000"
   },
   {
      "name": "Simeria",
      "countryCode": "RO",
      "stateCode": "HD",
      "latitude": "45.85000000",
      "longitude": "23.01667000"
   },
   {
      "name": "Sântămăria-Orlea",
      "countryCode": "RO",
      "stateCode": "HD",
      "latitude": "45.58874000",
      "longitude": "22.97042000"
   },
   {
      "name": "Sălaşu de Sus",
      "countryCode": "RO",
      "stateCode": "HD",
      "latitude": "45.51667000",
      "longitude": "22.95000000"
   },
   {
      "name": "Teliucu Inferior",
      "countryCode": "RO",
      "stateCode": "HD",
      "latitude": "45.71667000",
      "longitude": "22.88333000"
   },
   {
      "name": "Tomeşti",
      "countryCode": "RO",
      "stateCode": "HD",
      "latitude": "46.21667000",
      "longitude": "22.65000000"
   },
   {
      "name": "Topliţa",
      "countryCode": "RO",
      "stateCode": "HD",
      "latitude": "45.68333000",
      "longitude": "22.78333000"
   },
   {
      "name": "Toteşti",
      "countryCode": "RO",
      "stateCode": "HD",
      "latitude": "45.56667000",
      "longitude": "22.88333000"
   },
   {
      "name": "Turdaş",
      "countryCode": "RO",
      "stateCode": "HD",
      "latitude": "45.85000000",
      "longitude": "23.11667000"
   },
   {
      "name": "Uricani",
      "countryCode": "RO",
      "stateCode": "HD",
      "latitude": "45.33731000",
      "longitude": "23.15240000"
   },
   {
      "name": "Vaţa de Jos",
      "countryCode": "RO",
      "stateCode": "HD",
      "latitude": "46.18333000",
      "longitude": "22.60000000"
   },
   {
      "name": "Veţel",
      "countryCode": "RO",
      "stateCode": "HD",
      "latitude": "45.90000000",
      "longitude": "22.81667000"
   },
   {
      "name": "Vorţa",
      "countryCode": "RO",
      "stateCode": "HD",
      "latitude": "46.01667000",
      "longitude": "22.68333000"
   },
   {
      "name": "Vulcan",
      "countryCode": "RO",
      "stateCode": "HD",
      "latitude": "45.38333000",
      "longitude": "23.26667000"
   },
   {
      "name": "Vălişoara",
      "countryCode": "RO",
      "stateCode": "HD",
      "latitude": "46.05000000",
      "longitude": "22.85000000"
   },
   {
      "name": "Zam",
      "countryCode": "RO",
      "stateCode": "HD",
      "latitude": "46.00000000",
      "longitude": "22.45000000"
   },
   {
      "name": "Zdrapți",
      "countryCode": "RO",
      "stateCode": "HD",
      "latitude": "46.15612000",
      "longitude": "22.86954000"
   },
   {
      "name": "Şoimuş",
      "countryCode": "RO",
      "stateCode": "HD",
      "latitude": "45.91667000",
      "longitude": "22.90000000"
   }
]