[
   {
      "name": "Adir",
      "countryCode": "JO",
      "stateCode": "KA",
      "latitude": "31.20217000",
      "longitude": "35.76155000"
   },
   {
      "name": "Al Khinzīrah",
      "countryCode": "JO",
      "stateCode": "KA",
      "latitude": "31.05056000",
      "longitude": "35.60606000"
   },
   {
      "name": "Al Mazār al Janūbī",
      "countryCode": "JO",
      "stateCode": "KA",
      "latitude": "31.06722000",
      "longitude": "35.69486000"
   },
   {
      "name": "Al Qaşr",
      "countryCode": "JO",
      "stateCode": "KA",
      "latitude": "31.31407000",
      "longitude": "35.74393000"
   },
   {
      "name": "Ar Rabbah",
      "countryCode": "JO",
      "stateCode": "KA",
      "latitude": "31.26923000",
      "longitude": "35.73829000"
   },
   {
      "name": "Karak City",
      "countryCode": "JO",
      "stateCode": "KA",
      "latitude": "31.16368000",
      "longitude": "35.76204000"
   },
   {
      "name": "Safi",
      "countryCode": "JO",
      "stateCode": "KA",
      "latitude": "31.03608000",
      "longitude": "35.46544000"
   },
   {
      "name": "‘Ayy",
      "countryCode": "JO",
      "stateCode": "KA",
      "latitude": "31.13371000",
      "longitude": "35.64375000"
   },
   {
      "name": "‘Izrā",
      "countryCode": "JO",
      "stateCode": "KA",
      "latitude": "31.15889000",
      "longitude": "35.69278000"
   }
]