[
   {
      "name": "Ajman Emirate",
      "isoCode": "AJ",
      "countryCode": "AE",
      "latitude": "25.40521650",
      "longitude": "55.51364330"
   },
   {
      "name": "Abu Dhabi Emirate",
      "isoCode": "AZ",
      "countryCode": "AE",
      "latitude": "24.45388400",
      "longitude": "54.37734380"
   },
   {
      "name": "Dubai",
      "isoCode": "DU",
      "countryCode": "AE",
      "latitude": "25.20484930",
      "longitude": "55.27078280"
   },
   {
      "name": "Fujairah",
      "isoCode": "FU",
      "countryCode": "AE",
      "latitude": "25.12880990",
      "longitude": "56.32648490"
   },
   {
      "name": "Ras al-Khaimah",
      "isoCode": "RK",
      "countryCode": "AE",
      "latitude": "25.67413430",
      "longitude": "55.98041730"
   },
   {
      "name": "Sharjah Emirate",
      "isoCode": "SH",
      "countryCode": "AE",
      "latitude": "25.07539740",
      "longitude": "55.75784030"
   },
   {
      "name": "Umm al-Quwain",
      "isoCode": "UQ",
      "countryCode": "AE",
      "latitude": "25.54263240",
      "longitude": "55.54753480"
   }
]